[
  {
    "title": "Agam Luxury Wedding Cars",
    "categoryName": "Car rental agency",
    "address": "19, 100 Feet Rd, near Hanuman Mandir, Sudarshan Nagar, Amritsar, Amritsar Cantt., Punjab 143006, India",
    "neighborhood": "Sudarshan Nagar",
    "street": "19, 100 Feet Rd, near Hanuman Mandir",
    "city": "Amritsar, Amritsar Cantt.",
    "postalCode": "143006",
    "state": "Punjab",
    "countryCode": "IN",
    "website": "https://www.agamluxurycars.com/",
    "phone": "+917269000065",
    "phoneUnformatted": "+917269000065",
    "location": {
      "lat": 31.6146549,
      "lng": 74.8929379
    },
    "totalScore": 5,
    "permanentlyClosed": false,
    "temporarilyClosed": false,
    "placeId": "ChIJ1byjkIV9GTkRP6Bi3oLHgL4",
    "categories": [
      "Car rental agency"
    ],
    "reviewsCount": 2,
    "imagesCount": 33,
    "openingHours": [
      {
        "day": "Monday",
        "hours": "8:30 AM to 10:30 PM"
      },
      {
        "day": "Tuesday",
        "hours": "8:30 AM to 10:30 PM"
      },
      {
        "day": "Wednesday",
        "hours": "8:30 AM to 10:30 PM"
      },
      {
        "day": "Thursday",
        "hours": "8:30 AM to 10:30 PM"
      },
      {
        "day": "Friday",
        "hours": "8:30 AM to 10:30 PM"
      },
      {
        "day": "Saturday",
        "hours": "8:30 AM to 10:30 PM"
      },
      {
        "day": "Sunday",
        "hours": "8:30 AM to 10:30 PM"
      }
    ],
    "imageUrl": "https://lh3.googleusercontent.com/p/AF1QipM5yadO01CGF8M2Ydo5V0AWwUVlNFwYbEFWZI_A=w408-h306-k-no",
    "url": "https://www.google.com/maps/search/?api=1&query=Agam%20Luxury%20Wedding%20Cars&query_place_id=ChIJ1byjkIV9GTkRP6Bi3oLHgL4"
  },
  {
    "title": "Amritsar Taxi Hire, Car Rental - Rajindera Travels",
    "categoryName": "Car rental agency",
    "address": "Shop. 69, Baba Phulla Singh Market Opp. Sherawala Gate, Amritsar, Punjab 143006, India",
    "neighborhood": "City Centre",
    "street": "Shop. 69, Baba Phulla Singh Market Opp. Sherawala Gate",
    "city": "Amritsar, Amritsar Cantt.",
    "postalCode": "143006",
    "state": "Punjab",
    "countryCode": "IN",
    "website": "https://amritsartaxihire.in/",
    "phone": "+919023111104",
    "phoneUnformatted": "+919023111104",
    "location": {
      "lat": 31.6255735,
      "lng": 74.8848031
    },
    "totalScore": 4,
    "permanentlyClosed": false,
    "temporarilyClosed": false,
    "placeId": "ChIJC6Ptk618GTkRVcIXfYEn8kA",
    "categories": [
      "Car rental agency",
      "Car leasing service",
      "Taxi service",
      "Minibus taxi service",
      "Sightseeing tour agency",
      "Tour operator",
      "Travel agency"
    ],
    "reviewsCount": 4,
    "imagesCount": 1,
    "openingHours": [],
    "imageUrl": "https://streetviewpixels-pa.googleapis.com/v1/thumbnail?panoid=HJAE1siLpKJCNO_zyrg4mg&cb_client=search.gws-prod.gps&w=408&h=240&yaw=39.742558&pitch=0&thumbfov=100",
    "url": "https://www.google.com/maps/search/?api=1&query=Amritsar%20Taxi%20Hire%2C%20Car%20Rental%20-%20Rajindera%20Travels&query_place_id=ChIJC6Ptk618GTkRVcIXfYEn8kA"
  },
  {
    "title": "Balbir Travels",
    "categoryName": "Car rental agency",
    "address": "Building No.8293, Street No.3, Sultanwind Rd, Guru Ram Das Nagar, Antaryami colony, Amritsar, Amritsar Cantt., Punjab 143006, India",
    "neighborhood": "Guru Ram Das Nagar, Antaryami colony",
    "street": "Building No.8293, Street No.3, Sultanwind Rd",
    "city": "Amritsar, Amritsar Cantt.",
    "postalCode": "143006",
    "state": "Punjab",
    "countryCode": "IN",
    "website": "https://www.balbirtravels.in/",
    "phone": "+917888987711",
    "phoneUnformatted": "+917888987711",
    "location": {
      "lat": 31.613757,
      "lng": 74.891006
    },
    "totalScore": 5,
    "permanentlyClosed": false,
    "temporarilyClosed": false,
    "placeId": "ChIJuQDA-bt8GTkRW9aG-Vvl5Ok",
    "categories": [
      "Car rental agency"
    ],
    "reviewsCount": 1,
    "imagesCount": 1,
    "openingHours": [
      {
        "day": "Monday",
        "hours": "Open 24 hours"
      },
      {
        "day": "Tuesday",
        "hours": "Open 24 hours"
      },
      {
        "day": "Wednesday",
        "hours": "Open 24 hours"
      },
      {
        "day": "Thursday",
        "hours": "Open 24 hours"
      },
      {
        "day": "Friday",
        "hours": "Open 24 hours"
      },
      {
        "day": "Saturday",
        "hours": "Open 24 hours"
      },
      {
        "day": "Sunday",
        "hours": "Open 24 hours"
      }
    ],
    "imageUrl": "https://streetviewpixels-pa.googleapis.com/v1/thumbnail?panoid=OGVXkCzjFSSWxcZTmYVfPQ&cb_client=search.gws-prod.gps&w=408&h=240&yaw=227.3671&pitch=0&thumbfov=100",
    "url": "https://www.google.com/maps/search/?api=1&query=Balbir%20Travels&query_place_id=ChIJuQDA-bt8GTkRW9aG-Vvl5Ok"
  },
  {
    "title": "Hanson Motors | Premium Vehicles Workshop | Luxury Car Repairs and Services in Amritsar | Denting Painting",
    "categoryName": "Motor vehicle dealer",
    "address": "Friends Market, Plot No. 6, Grand Trunk Road, Chowk, Maqbool Pura, Amritsar, Amritsar Cantt., Punjab 143006, India",
    "neighborhood": "Chowk, Maqbool Pura",
    "street": "Friends Market, Plot No. 6, Grand Trunk Road",
    "city": "Amritsar, Amritsar Cantt.",
    "postalCode": "143006",
    "state": "Punjab",
    "countryCode": "IN",
    "website": "https://g.page/hanson-amritsar",
    "phone": "+919872884034",
    "phoneUnformatted": "+919872884034",
    "location": {
      "lat": 31.6211093,
      "lng": 74.9014243
    },
    "totalScore": 4.6,
    "permanentlyClosed": false,
    "temporarilyClosed": false,
    "placeId": "ChIJS3Bujsh8GTkR9_Z6Q3-uwMQ",
    "categories": [
      "Motor vehicle dealer",
      "Auto body shop",
      "Auto insurance agency",
      "Auto repair shop",
      "Smog inspection station"
    ],
    "reviewsCount": 427,
    "imagesCount": 156,
    "openingHours": [
      {
        "day": "Monday",
        "hours": "9 AM to 7 PM"
      },
      {
        "day": "Tuesday",
        "hours": "9 AM to 7 PM"
      },
      {
        "day": "Wednesday",
        "hours": "9 AM to 7 PM"
      },
      {
        "day": "Thursday",
        "hours": "9 AM to 7 PM"
      },
      {
        "day": "Friday",
        "hours": "9 AM to 7 PM"
      },
      {
        "day": "Saturday",
        "hours": "9 AM to 7 PM"
      },
      {
        "day": "Sunday",
        "hours": "9:30 to 10:30 AM"
      }
    ],
    "imageUrl": "https://lh3.googleusercontent.com/p/AF1QipMtn4coojV9guwaviSV4IY0A1EeUssaJZXCVirC=w408-h267-k-no",
    "url": "https://www.google.com/maps/search/?api=1&query=Hanson%20Motors%20%7C%20Premium%20Vehicles%20Workshop%20%7C%20Luxury%20Car%20Repairs%20and%20Services%20in%20Amritsar%20%7C%20Denting%20Painting&query_place_id=ChIJS3Bujsh8GTkR9_Z6Q3-uwMQ"
  },
  {
    "title": "Jasmeen Travels",
    "subTitle": "ਜਸਮੀਨ ਟਰੈਵਲਜ਼",
    "categoryName": "Car rental agency",
    "address": "415-NKAR, Sultanwind Rd, Katra Salgram, Amritsar, Amritsar Cantt., Punjab 143006, India",
    "neighborhood": "Katra Salgram",
    "street": "415-NKAR, Sultanwind Rd",
    "city": "Amritsar, Amritsar Cantt.",
    "postalCode": "143006",
    "state": "Punjab",
    "countryCode": "IN",
    "website": "http://www.jasmeentravels.com/",
    "phone": "+919417284575",
    "phoneUnformatted": "+919417284575",
    "location": {
      "lat": 31.6093176,
      "lng": 74.8918796
    },
    "totalScore": 4.9,
    "permanentlyClosed": false,
    "temporarilyClosed": false,
    "placeId": "ChIJAwvgEL58GTkRvXPD8SofMtc",
    "categories": [
      "Car rental agency",
      "Travel agency",
      "Sightseeing tour agency",
      "Tour agency"
    ],
    "reviewsCount": 121,
    "imagesCount": 213,
    "openingHours": [
      {
        "day": "Monday",
        "hours": "9 AM to 9 PM"
      },
      {
        "day": "Tuesday",
        "hours": "9 AM to 9 PM"
      },
      {
        "day": "Wednesday",
        "hours": "9 AM to 9 PM"
      },
      {
        "day": "Thursday",
        "hours": "9 AM to 9 PM"
      },
      {
        "day": "Friday",
        "hours": "9 AM to 9 PM"
      },
      {
        "day": "Saturday",
        "hours": "9 AM to 9 PM"
      },
      {
        "day": "Sunday",
        "hours": "9 AM to 9 PM"
      }
    ],
    "imageUrl": "https://lh3.googleusercontent.com/p/AF1QipO8Cr0trJsi7ilItA991DcVyd2fUGcAe13Hrvt2=w408-h530-k-no",
    "url": "https://www.google.com/maps/search/?api=1&query=Jasmeen%20Travels&query_place_id=ChIJAwvgEL58GTkRvXPD8SofMtc"
  },
  {
    "title": "Jass Travels: Amritsar Taxi Service, Car Hire Etios Dzire Innova crysta Urbania tempo traveller",
    "categoryName": "Car rental agency",
    "address": "No. Mi/1943, Gali Number 1, Kot Mangal Singh, New, Ishwar Nagar, Amritsar, Amritsar Cantt., Punjab 143006, India",
    "neighborhood": "Kot Mangal Singh, New, Ishwar Nagar",
    "street": "No. Mi/1943, Gali Number 1",
    "city": "Amritsar, Amritsar Cantt.",
    "postalCode": "143006",
    "state": "Punjab",
    "countryCode": "IN",
    "website": "https://www.jasstravels.com/",
    "phone": "+919888494901",
    "phoneUnformatted": "+919888494901",
    "location": {
      "lat": 31.6026908,
      "lng": 74.878198
    },
    "totalScore": 4.9,
    "permanentlyClosed": false,
    "temporarilyClosed": false,
    "placeId": "ChIJYf62KU99GTkRhDJ_PHUPwsw",
    "categories": [
      "Car rental agency",
      "Taxi service",
      "Sightseeing tour agency",
      "Tour operator",
      "Travel agency",
      "Travel clinic"
    ],
    "reviewsCount": 197,
    "imagesCount": 150,
    "openingHours": [],
    "imageUrl": "https://lh3.googleusercontent.com/p/AF1QipMmJpng3d_fegLzJbE8Jg2J6kPi7mZQEULcYQnR=w426-h240-k-no",
    "url": "https://www.google.com/maps/search/?api=1&query=Jass%20Travels%3A%20Amritsar%20Taxi%20Service%2C%20Car%20Hire%20Etios%20Dzire%20Innova%20crysta%20Urbania%20tempo%20traveller&query_place_id=ChIJYf62KU99GTkRhDJ_PHUPwsw"
  },
  {
    "title": "North India Taxi Rental",
    "subTitle": "ਨਾਰਥ ਇੰਡੀਆ ਟੈਕਸੀ ਰੇਂਟਲ",
    "categoryName": "Car rental agency",
    "address": "#95, 100 Feet Rd, East Mohan Nagar, Amritsar, Punjab 143006, India",
    "neighborhood": "East Mohan Nagar",
    "street": "#95, 100 Feet Rd",
    "city": "Amritsar, Amritsar Cantt.",
    "postalCode": "143006",
    "state": "Punjab",
    "countryCode": "IN",
    "phone": "+917307464424",
    "phoneUnformatted": "+917307464424",
    "location": {
      "lat": 31.6211139,
      "lng": 74.893134
    },
    "totalScore": 5,
    "permanentlyClosed": false,
    "temporarilyClosed": false,
    "placeId": "ChIJsbShchh9GTkRf6e6tMIKM6E",
    "categories": [
      "Car rental agency"
    ],
    "reviewsCount": 1,
    "imagesCount": 4,
    "openingHours": [
      {
        "day": "Monday",
        "hours": "9 AM to 5 PM"
      },
      {
        "day": "Tuesday",
        "hours": "9 AM to 5 PM"
      },
      {
        "day": "Wednesday",
        "hours": "9 AM to 5 PM"
      },
      {
        "day": "Thursday",
        "hours": "9 AM to 5 PM"
      },
      {
        "day": "Friday",
        "hours": "9 AM to 5 PM"
      },
      {
        "day": "Saturday",
        "hours": "9 AM to 5 PM"
      },
      {
        "day": "Sunday",
        "hours": "9 AM to 5 PM"
      }
    ],
    "imageUrl": "https://lh3.googleusercontent.com/p/AF1QipPdNG3QcPnk46lbidtgmSXsLFw1vzcEpiOo4hNl=w408-h306-k-no",
    "url": "https://www.google.com/maps/search/?api=1&query=North%20India%20Taxi%20Rental&query_place_id=ChIJsbShchh9GTkRf6e6tMIKM6E"
  },
  {
    "title": "Pardeep Luxury Cars",
    "categoryName": "Car leasing service",
    "address": "Byepass, near Lilly Resort, Vallah, Amritsar, Amritsar Cantt., Punjab 143501, India",
    "neighborhood": "Vallah",
    "street": "Byepass, near Lilly Resort",
    "city": "Amritsar, Amritsar Cantt.",
    "postalCode": "143501",
    "state": "Punjab",
    "countryCode": "IN",
    "website": "http://pardeepluxurycars.com/",
    "phone": "+919914838806",
    "phoneUnformatted": "+919914838806",
    "location": {
      "lat": 31.6344171,
      "lng": 74.9299874
    },
    "totalScore": 5,
    "permanentlyClosed": false,
    "temporarilyClosed": false,
    "placeId": "ChIJUaEUbqJlGTkRA_AapftosQ4",
    "categories": [
      "Car leasing service"
    ],
    "reviewsCount": 53,
    "imagesCount": 73,
    "openingHours": [
      {
        "day": "Monday",
        "hours": "9 AM to 8 PM"
      },
      {
        "day": "Tuesday",
        "hours": "9 AM to 8 PM"
      },
      {
        "day": "Wednesday",
        "hours": "9 AM to 8 PM"
      },
      {
        "day": "Thursday",
        "hours": "9 AM to 8 PM"
      },
      {
        "day": "Friday",
        "hours": "9 AM to 8 PM"
      },
      {
        "day": "Saturday",
        "hours": "9 AM to 8 PM"
      },
      {
        "day": "Sunday",
        "hours": "9 AM to 8 PM"
      }
    ],
    "imageUrl": "https://lh3.googleusercontent.com/p/AF1QipMgi-b5S3XMyPwXth8Ywz13GTpcR4-Q4FmzFkT2=w408-h306-k-no",
    "url": "https://www.google.com/maps/search/?api=1&query=Pardeep%20Luxury%20Cars&query_place_id=ChIJUaEUbqJlGTkRA_AapftosQ4"
  },
  {
    "title": "RBTS Rent a Car Pvt. Ltd. - Luxury Car Rental in Amritsar",
    "categoryName": "Car rental agency",
    "address": "Hotel Euphoria Green, Plot No.5 & 6, 100 Feet Rd, Gokal Ka Bagh, Pratap Nagar, Amritsar, Amritsar Cantt., Punjab 143006, India",
    "neighborhood": "Gokal Ka Bagh, Pratap Nagar",
    "street": "Hotel Euphoria Green, Plot No.5 & 6, 100 Feet Rd",
    "city": "Amritsar, Amritsar Cantt.",
    "postalCode": "143006",
    "state": "Punjab",
    "countryCode": "IN",
    "website": "https://www.rbtsrentacar.com/amritsar/",
    "phone": "+919999362222",
    "phoneUnformatted": "+919999362222",
    "location": {
      "lat": 31.6199353,
      "lng": 74.8977063
    },
    "permanentlyClosed": false,
    "temporarilyClosed": false,
    "placeId": "ChIJoTrYgQ59GTkRHehaHZm2vpU",
    "categories": [
      "Car rental agency"
    ],
    "imagesCount": 24,
    "openingHours": [
      {
        "day": "Monday",
        "hours": "8 AM to 10:30 PM"
      },
      {
        "day": "Tuesday",
        "hours": "8 AM to 10:30 PM"
      },
      {
        "day": "Wednesday",
        "hours": "8 AM to 10:30 PM"
      },
      {
        "day": "Thursday",
        "hours": "8 AM to 10:30 PM"
      },
      {
        "day": "Friday",
        "hours": "8 AM to 10:30 PM"
      },
      {
        "day": "Saturday",
        "hours": "8 AM to 10:30 PM"
      },
      {
        "day": "Sunday",
        "hours": "8 AM to 10:30 PM"
      }
    ],
    "imageUrl": "https://lh3.googleusercontent.com/p/AF1QipNMLMbme_axG0nrDPNXv1TJwXSKAU6on2UB_k0X=w408-h306-k-no",
    "url": "https://www.google.com/maps/search/?api=1&query=RBTS%20Rent%20a%20Car%20Pvt.%20Ltd.%20-%20Luxury%20Car%20Rental%20in%20Amritsar&query_place_id=ChIJoTrYgQ59GTkRHehaHZm2vpU"
  },
  {
    "title": "Roltas Motors-old Cars-used Cars-second Hand Cars",
    "categoryName": "Used car dealer",
    "address": "Plot no. 206 Rana garden, back side alpha one mall, Amritsar, Punjab 143006, India",
    "neighborhood": "Rana Garden Colony, Maqbool Pura",
    "street": "Plot no. 206 Rana garden, back side alpha one mall",
    "city": "Amritsar, Amritsar Cantt.",
    "postalCode": "143006",
    "state": "Punjab",
    "countryCode": "IN",
    "phone": "+919815274500",
    "phoneUnformatted": "+919815274500",
    "location": {
      "lat": 31.6204046,
      "lng": 74.9065597
    },
    "totalScore": 4.4,
    "permanentlyClosed": false,
    "temporarilyClosed": false,
    "placeId": "ChIJQWEoMF97GTkRijI00whlm-A",
    "categories": [
      "Used car dealer",
      "Auto broker",
      "Consignment shop"
    ],
    "reviewsCount": 23,
    "imagesCount": 22,
    "openingHours": [
      {
        "day": "Monday",
        "hours": "10 AM to 7 PM"
      },
      {
        "day": "Tuesday",
        "hours": "10 AM to 7 PM"
      },
      {
        "day": "Wednesday",
        "hours": "10 AM to 7 PM"
      },
      {
        "day": "Thursday",
        "hours": "10 AM to 7 PM"
      },
      {
        "day": "Friday",
        "hours": "10 AM to 7 PM"
      },
      {
        "day": "Saturday",
        "hours": "10 AM to 7 PM"
      },
      {
        "day": "Sunday",
        "hours": "Closed"
      }
    ],
    "imageUrl": "https://lh3.googleusercontent.com/gps-cs-s/AG0ilSyhg2Oz_Yg8hjaiua1bazlgsW3vQKfJlcEs_LJLNgWpXk2x-gGwzGNiOqFWu_IspdA1ObD8dhXl6jlYqY6EP4cBzg92lxr4NIxnL0wRCCGcNZvZFihLJ55tm6tVvigsAWV0UXHE=w408-h306-k-no",
    "url": "https://www.google.com/maps/search/?api=1&query=Roltas%20Motors-old%20Cars-used%20Cars-second%20Hand%20Cars&query_place_id=ChIJQWEoMF97GTkRijI00whlm-A"
  }
]