[
  {
    "title": "CAR RENTAL TOUR AND TRAVELS TAXI SERVICES",
    "subTitle": "कार रेंटल टूर एंड ट्रैवल्स टैक्सी सर्विसेस",
    "categoryName": "Car leasing service",
    "address": "Nehru Nagar Main Rd, near by Kajal Photo Studio, Bhilai, Chhattisgarh 490020, India",
    "street": "Nehru Nagar Main Rd, near by Kajal Photo Studio",
    "city": "Bhilai",
    "postalCode": "490020",
    "state": "Chhattisgarh",
    "countryCode": "IN",
    "phone": "+919827464434",
    "phoneUnformatted": "+919827464434",
    "location": {
      "lat": 21.2055726,
      "lng": 81.3327657
    },
    "totalScore": 5,
    "permanentlyClosed": false,
    "temporarilyClosed": false,
    "placeId": "ChIJA1jSGQI9KToR5VP1Fd89Kz0",
    "categories": [
      "Car leasing service"
    ],
    "reviewsCount": 116,
    "imagesCount": 19,
    "openingHours": [
      {
        "day": "Monday",
        "hours": "Open 24 hours"
      },
      {
        "day": "Tuesday",
        "hours": "Open 24 hours"
      },
      {
        "day": "Wednesday",
        "hours": "Open 24 hours"
      },
      {
        "day": "Thursday",
        "hours": "Open 24 hours"
      },
      {
        "day": "Friday",
        "hours": "Open 24 hours"
      },
      {
        "day": "Saturday",
        "hours": "Open 24 hours"
      },
      {
        "day": "Sunday",
        "hours": "Open 24 hours"
      }
    ],
    "imageUrl": "https://lh3.googleusercontent.com/p/AF1QipPf5jBOvnpukUMvllBKfBflxx4kWfpxrtoUcHta=w408-h306-k-no",
    "url": "https://www.google.com/maps/search/?api=1&query=CAR%20RENTAL%20TOUR%20AND%20TRAVELS%20TAXI%20SERVICES&query_place_id=ChIJA1jSGQI9KToR5VP1Fd89Kz0"
  },
  {
    "title": "CAR’S GALLERY",
    "subTitle": "कार'स गैलरी",
    "categoryName": "Motor vehicle dealer",
    "address": "58RM+5JR, Sector 7, Bhilai, Chhattisgarh 490006, India",
    "neighborhood": "Sector 7",
    "street": "58RM+5JR",
    "city": "Bhilai",
    "postalCode": "490006",
    "state": "Chhattisgarh",
    "countryCode": "IN",
    "location": {
      "lat": 21.1901585,
      "lng": 81.333556
    },
    "totalScore": 5,
    "permanentlyClosed": false,
    "temporarilyClosed": false,
    "placeId": "ChIJIbT6oXQ9KToR6i_Ux-XvX0w",
    "categories": [
      "Motor vehicle dealer"
    ],
    "reviewsCount": 3,
    "imagesCount": 5,
    "openingHours": [
      {
        "day": "Monday",
        "hours": "12 to 7 AM, 9 AM to 12 AM"
      },
      {
        "day": "Tuesday",
        "hours": "12 to 7 AM, 9 AM to 12 AM"
      },
      {
        "day": "Wednesday",
        "hours": "12 to 7 AM, 9 AM to 12 AM"
      },
      {
        "day": "Thursday",
        "hours": "12 to 7 AM, 9 AM to 12 AM"
      },
      {
        "day": "Friday",
        "hours": "12 to 7 AM, 9 AM to 12 AM"
      },
      {
        "day": "Saturday",
        "hours": "12 to 7 AM, 9 AM to 12 AM"
      },
      {
        "day": "Sunday",
        "hours": "12 to 7 AM, 9 AM to 12 AM"
      }
    ],
    "imageUrl": "https://lh3.googleusercontent.com/p/AF1QipOxQBFHPDaZzV7BIYcCGgdq1cNVONhdruSSpLNL=w408-h397-k-no",
    "url": "https://www.google.com/maps/search/?api=1&query=CAR%E2%80%99S%20GALLERY&query_place_id=ChIJIbT6oXQ9KToR6i_Ux-XvX0w"
  },
  {
    "title": "Dewangan Travels Bhilai - Self Drive And Taxi Booking",
    "subTitle": "देवांगन ट्रैवल्स भिलाई - सेल्फ ड्राइव एंड टैक्सी बुकिंग",
    "categoryName": "Car rental agency",
    "address": "SHOP NUMBER - 341, LANDMARK - SAI BABA MANDIR, SECTOR - 6, C Market, Sector 6, Bhilai, Chhattisgarh 490006, India",
    "neighborhood": "Sector 6",
    "street": "SHOP NUMBER - 341, LANDMARK - SAI BABA MANDIR, SECTOR - 6, C Market",
    "city": "Bhilai",
    "postalCode": "490006",
    "state": "Chhattisgarh",
    "countryCode": "IN",
    "phone": "+917869813920",
    "phoneUnformatted": "+917869813920",
    "location": {
      "lat": 21.1953532,
      "lng": 81.3507558
    },
    "permanentlyClosed": false,
    "temporarilyClosed": false,
    "placeId": "ChIJ0YhznjEjKToRH5Zaq7u45QY",
    "categories": [
      "Car rental agency"
    ],
    "imagesCount": 130,
    "openingHours": [
      {
        "day": "Monday",
        "hours": "Open 24 hours"
      },
      {
        "day": "Tuesday",
        "hours": "Open 24 hours"
      },
      {
        "day": "Wednesday",
        "hours": "Open 24 hours"
      },
      {
        "day": "Thursday",
        "hours": "Open 24 hours"
      },
      {
        "day": "Friday",
        "hours": "Open 24 hours"
      },
      {
        "day": "Saturday",
        "hours": "Open 24 hours"
      },
      {
        "day": "Sunday",
        "hours": "Open 24 hours"
      }
    ],
    "imageUrl": "https://lh3.googleusercontent.com/p/AF1QipPdkhFpmmbzPLyPelMerFJEb02XkzpsDhPWjPm-=w408-h725-k-no",
    "url": "https://www.google.com/maps/search/?api=1&query=Dewangan%20Travels%20Bhilai%20-%20Self%20Drive%20And%20Taxi%20Booking&query_place_id=ChIJ0YhznjEjKToRH5Zaq7u45QY"
  },
  {
    "title": "Mink Cabs",
    "subTitle": "मिंक कैब्स",
    "categoryName": "Car rental agency",
    "address": "Rajnagar, Camp 1, Bhilai, Chhattisgarh 490023, India",
    "neighborhood": "Rajnagar, Camp 1",
    "street": "Rajnagar, Camp 1",
    "city": "Bhilai",
    "postalCode": "490023",
    "state": "Chhattisgarh",
    "countryCode": "IN",
    "phone": "+919111199966",
    "phoneUnformatted": "+919111199966",
    "location": {
      "lat": 21.2108282,
      "lng": 81.3678663
    },
    "totalScore": 3.4,
    "permanentlyClosed": false,
    "temporarilyClosed": true,
    "placeId": "ChIJ6RkG3eMiKToRld7FB0IXXDs",
    "categories": [
      "Car rental agency",
      "Car leasing service",
      "Taxi service",
      "Taxicab Stand"
    ],
    "reviewsCount": 7,
    "imagesCount": 3,
    "openingHours": [],
    "imageUrl": "https://streetviewpixels-pa.googleapis.com/v1/thumbnail?panoid=kpe1PTn3ahh0jQKyW2jrmw&cb_client=search.gws-prod.gps&w=408&h=240&yaw=251.9407&pitch=0&thumbfov=100",
    "url": "https://www.google.com/maps/search/?api=1&query=Mink%20Cabs&query_place_id=ChIJ6RkG3eMiKToRld7FB0IXXDs"
  },
  {
    "title": "Shree Travels",
    "subTitle": "श्री ट्रैवल्स",
    "categoryName": "Car rental agency",
    "address": "Shop no 13, Ravi Shankar Shukla market, Janjgiri, Bhilai, Chhattisgarh 490001, India",
    "neighborhood": "Janjgiri",
    "street": "Shop no 13, Ravi Shankar Shukla market",
    "city": "Bhilai",
    "postalCode": "490001",
    "state": "Chhattisgarh",
    "countryCode": "IN",
    "location": {
      "lat": 21.2083849,
      "lng": 81.3784197
    },
    "permanentlyClosed": false,
    "temporarilyClosed": false,
    "placeId": "ChIJXdYCat8jKToRvosni8XOVrg",
    "categories": [
      "Car rental agency"
    ],
    "imagesCount": 14,
    "openingHours": [
      {
        "day": "Monday",
        "hours": "Open 24 hours"
      },
      {
        "day": "Tuesday",
        "hours": "Open 24 hours"
      },
      {
        "day": "Wednesday",
        "hours": "Open 24 hours"
      },
      {
        "day": "Thursday",
        "hours": "Open 24 hours"
      },
      {
        "day": "Friday",
        "hours": "Open 24 hours"
      },
      {
        "day": "Saturday",
        "hours": "Open 24 hours"
      },
      {
        "day": "Sunday",
        "hours": "Open 24 hours"
      }
    ],
    "imageUrl": "https://lh3.googleusercontent.com/p/AF1QipPsBcxa-OUTkQfTLsjU1yw1jAOp4bmjf6gcPdFk=w408-h306-k-no",
    "url": "https://www.google.com/maps/search/?api=1&query=Shree%20Travels&query_place_id=ChIJXdYCat8jKToRvosni8XOVrg"
  },
  {
    "title": "Trippy cars ( self drive car rental )",
    "subTitle": "ट्रिप्पी कार्स ( सेल्फ ड्राइव कार रेंटल )",
    "categoryName": "Car rental agency",
    "address": "Shop No :- 8 Adalat Complex, Beside Royal Dry Fruits In front of Hotel Himalaya Park, Akash Ganga, Supela, Bhilai, Chhattisgarh 490023, India",
    "neighborhood": "Akash Ganga, Supela",
    "street": "Shop No :- 8 Adalat Complex, Beside Royal Dry Fruits In front of Hotel Himalaya Park",
    "city": "Bhilai",
    "postalCode": "490023",
    "state": "Chhattisgarh",
    "countryCode": "IN",
    "website": "http://www.trippycar.com/",
    "phone": "+918882226226",
    "phoneUnformatted": "+918882226226",
    "location": {
      "lat": 21.2064824,
      "lng": 81.3512883
    },
    "totalScore": 4.3,
    "permanentlyClosed": false,
    "temporarilyClosed": false,
    "placeId": "ChIJb6VlIpIjKToRHxbkW1CdT08",
    "categories": [
      "Car rental agency"
    ],
    "reviewsCount": 88,
    "imagesCount": 18,
    "openingHours": [],
    "imageUrl": "https://lh3.googleusercontent.com/p/AF1QipObjb-u1aapslXdRbVdIIqegwyR0mHyhFIDmdjW=w427-h240-k-no",
    "url": "https://www.google.com/maps/search/?api=1&query=Trippy%20cars%20(%20self%20drive%20car%20rental%20)&query_place_id=ChIJb6VlIpIjKToRHxbkW1CdT08"
  }
]