[
  {
    "title": "(Chandigarh Self Drive Cars)Gupta Self Drive Cars",
    "categoryName": "Car rental agency",
    "address": "24/3, Industrial Area, Phase 2, Sector 44, Chandigarh, 160002, India",
    "neighborhood": "Industrial Area, Phase 2, Sector 44",
    "street": "24/3",
    "city": "Chandigarh",
    "postalCode": "160002",
    "state": "Chandigarh",
    "countryCode": "IN",
    "website": "https://www.chandigarhcarrental.com/",
    "phone": "+918691000020",
    "phoneUnformatted": "+918691000020",
    "location": {
      "lat": 30.7150595,
      "lng": 76.751787
    },
    "totalScore": 4.8,
    "permanentlyClosed": false,
    "temporarilyClosed": false,
    "placeId": "ChIJpwqWpyLtDzkR_G3VGaTiReE",
    "categories": [
      "Car rental agency",
      "Car leasing service"
    ],
    "reviewsCount": 70,
    "imagesCount": 647,
    "openingHours": [
      {
        "day": "Monday",
        "hours": "Open 24 hours"
      },
      {
        "day": "Tuesday",
        "hours": "Open 24 hours"
      },
      {
        "day": "Wednesday",
        "hours": "Open 24 hours"
      },
      {
        "day": "Thursday",
        "hours": "Open 24 hours"
      },
      {
        "day": "Friday",
        "hours": "Open 24 hours"
      },
      {
        "day": "Saturday",
        "hours": "Open 24 hours"
      },
      {
        "day": "Sunday",
        "hours": "Open 24 hours"
      }
    ],
    "imageUrl": "https://lh3.googleusercontent.com/p/AF1QipPfUn5Jm8KKe8UXk2_rSi06nVoiR0tH0Z5vWfM=w408-h306-k-no",
    "url": "https://www.google.com/maps/search/?api=1&query=(Chandigarh%20Self%20Drive%20Cars)Gupta%20Self%20Drive%20Cars&query_place_id=ChIJpwqWpyLtDzkR_G3VGaTiReE"
  },
  {
    "title": "(Self Drive Car Rentals In Chandigarh) Cars Rental Zone (24x7 Car Rental Services)",
    "categoryName": "Car rental agency",
    "address": "Sector 43A, Road line, near Bus Stand, Sector 44D, market, Chandigarh, 160043, India",
    "neighborhood": "Sector 44D, market",
    "street": "Sector 43A, Road line, near Bus Stand",
    "city": "Chandigarh",
    "postalCode": "160043",
    "state": "Chandigarh",
    "countryCode": "IN",
    "website": "https://www.carsrentalzone.com/",
    "phone": "+917814726635",
    "phoneUnformatted": "+917814726635",
    "location": {
      "lat": 30.7149384,
      "lng": 76.751982
    },
    "totalScore": 4.9,
    "permanentlyClosed": false,
    "temporarilyClosed": false,
    "placeId": "ChIJM8I9vp_tDzkR4yOQblf-44I",
    "categories": [
      "Car rental agency",
      "Car leasing service"
    ],
    "reviewsCount": 41,
    "imagesCount": 100,
    "openingHours": [
      {
        "day": "Monday",
        "hours": "Open 24 hours"
      },
      {
        "day": "Tuesday",
        "hours": "Open 24 hours"
      },
      {
        "day": "Wednesday",
        "hours": "Open 24 hours"
      },
      {
        "day": "Thursday",
        "hours": "Open 24 hours"
      },
      {
        "day": "Friday",
        "hours": "Open 24 hours"
      },
      {
        "day": "Saturday",
        "hours": "Open 24 hours"
      },
      {
        "day": "Sunday",
        "hours": "Open 24 hours"
      }
    ],
    "imageUrl": "https://lh3.googleusercontent.com/p/AF1QipOAaD7QPq3OwOokX1vSgyl_gEd8OWsvJD3GgKza=w408-h271-k-no",
    "url": "https://www.google.com/maps/search/?api=1&query=(Self%20Drive%20Car%20Rentals%20In%20Chandigarh)%20Cars%20Rental%20Zone%20(24x7%20Car%20Rental%20Services)&query_place_id=ChIJM8I9vp_tDzkR4yOQblf-44I"
  },
  {
    "title": "ACME SELF DRIVE CARS",
    "subTitle": "ਚੋਹਾਨ ਟੈਕਸੀ ਸਰਵਿਸ",
    "categoryName": "Car rental agency",
    "address": "Quiet, Online Booking, OFFICE, Sector 35, Chandigarh, 160012, India",
    "neighborhood": "Sector 35",
    "street": "Quiet, Online Booking, OFFICE",
    "city": "Chandigarh",
    "postalCode": "160012",
    "state": "Chandigarh",
    "countryCode": "IN",
    "website": "https://acmecar.in/",
    "phone": "+919815072249",
    "phoneUnformatted": "+919815072249",
    "location": {
      "lat": 30.7662625,
      "lng": 76.7861234
    },
    "totalScore": 5,
    "permanentlyClosed": false,
    "temporarilyClosed": false,
    "placeId": "ChIJF4x8AJ7tDzkRutjdSzb2DWw",
    "categories": [
      "Car rental agency"
    ],
    "reviewsCount": 94,
    "imagesCount": 119,
    "openingHours": [
      {
        "day": "Monday",
        "hours": "Open 24 hours"
      },
      {
        "day": "Tuesday",
        "hours": "Open 24 hours"
      },
      {
        "day": "Wednesday",
        "hours": "Open 24 hours"
      },
      {
        "day": "Thursday",
        "hours": "Open 24 hours"
      },
      {
        "day": "Friday",
        "hours": "Open 24 hours"
      },
      {
        "day": "Saturday",
        "hours": "Open 24 hours"
      },
      {
        "day": "Sunday",
        "hours": "Open 24 hours"
      }
    ],
    "imageUrl": "https://lh3.googleusercontent.com/p/AF1QipMHuyLkyDxRQzF1QF6U1imDsMF9y7RIGRDynYNl=w425-h240-k-no",
    "url": "https://www.google.com/maps/search/?api=1&query=ACME%20SELF%20DRIVE%20CARS&query_place_id=ChIJF4x8AJ7tDzkRutjdSzb2DWw"
  },
  {
    "title": "AKAAL RENTALS | Self Drive Cars and Bike Rental.",
    "categoryName": "Car rental agency",
    "address": "SCO 146-147 , Cabin No 108 ground, near Verka Corporate Office, Sector 34B, Chandigarh, 160022, India",
    "neighborhood": "Sector 34B, Sector 34",
    "street": "SCO 146-147 , Cabin No 108 ground, near Verka Corporate Office",
    "city": "Chandigarh",
    "postalCode": "160022",
    "state": "Chandigarh",
    "countryCode": "IN",
    "website": "https://akaalrentals.com/",
    "phone": "+919779774167",
    "phoneUnformatted": "+919779774167",
    "location": {
      "lat": 30.7206784,
      "lng": 76.7696282
    },
    "totalScore": 4.5,
    "permanentlyClosed": false,
    "temporarilyClosed": false,
    "placeId": "ChIJ775PrU7tDzkRXIJj8vqZNY8",
    "categories": [
      "Car rental agency",
      "Car leasing service"
    ],
    "reviewsCount": 470,
    "imagesCount": 400,
    "openingHours": [
      {
        "day": "Monday",
        "hours": "6 AM to 10 PM"
      },
      {
        "day": "Tuesday",
        "hours": "6 AM to 10 PM"
      },
      {
        "day": "Wednesday",
        "hours": "6 AM to 10 PM"
      },
      {
        "day": "Thursday",
        "hours": "6 AM to 10 PM"
      },
      {
        "day": "Friday",
        "hours": "6 AM to 10 PM"
      },
      {
        "day": "Saturday",
        "hours": "6 AM to 10 PM"
      },
      {
        "day": "Sunday",
        "hours": "6 AM to 10 PM"
      }
    ],
    "imageUrl": "https://lh3.googleusercontent.com/p/AF1QipOxeOMWEa1_ekPMIDoMrJS4w3E-uMbVeENENVu1=w408-h544-k-no",
    "url": "https://www.google.com/maps/search/?api=1&query=AKAAL%20RENTALS%20%7C%20Self%20Drive%20Cars%20and%20Bike%20Rental.&query_place_id=ChIJ775PrU7tDzkRXIJj8vqZNY8"
  },
  {
    "title": "Adventure Car Rental",
    "categoryName": "Car leasing service",
    "address": "FIRST FLOOR, Kesho Ram Complex, SCO.001, Burail, Ekta Market, Burail Village, Sector 45-B, Chandigarh, 160047, India",
    "neighborhood": "Burail, Ekta Market, Burail Village, Sector 45-B",
    "street": "FIRST FLOOR, Kesho Ram Complex, SCO.001",
    "city": "Chandigarh",
    "postalCode": "160047",
    "state": "Chandigarh",
    "countryCode": "IN",
    "website": "https://www.selfdrivecaronrent.com/",
    "phone": "+919872716897",
    "phoneUnformatted": "+919872716897",
    "location": {
      "lat": 30.7057235,
      "lng": 76.7583372
    },
    "totalScore": 4.9,
    "permanentlyClosed": false,
    "temporarilyClosed": false,
    "placeId": "ChIJta_X3uXtDzkR_zeDAkdegIE",
    "categories": [
      "Car leasing service"
    ],
    "reviewsCount": 735,
    "imagesCount": 80,
    "openingHours": [
      {
        "day": "Monday",
        "hours": "Open 24 hours"
      },
      {
        "day": "Tuesday",
        "hours": "Open 24 hours"
      },
      {
        "day": "Wednesday",
        "hours": "Open 24 hours"
      },
      {
        "day": "Thursday",
        "hours": "Open 24 hours"
      },
      {
        "day": "Friday",
        "hours": "Open 24 hours"
      },
      {
        "day": "Saturday",
        "hours": "Open 24 hours"
      },
      {
        "day": "Sunday",
        "hours": "Open 24 hours"
      }
    ],
    "imageUrl": "https://lh3.googleusercontent.com/gps-cs-s/AG0ilSzTySUJqjCqAPbtbzqGUmFODdfPWlDVVtI4fmhjSqLoXlSBFzkwLrFucYXYFRcNvPU_42UHX9V0ceuh_a_C4UE8hMca86L7C375ZFOlvguu7XwzSanSI_lpY7nKf7W_u4g94WQE=w408-h544-k-no",
    "url": "https://www.google.com/maps/search/?api=1&query=Adventure%20Car%20Rental&query_place_id=ChIJta_X3uXtDzkR_zeDAkdegIE"
  },
  {
    "title": "Agam Car Rentals",
    "subTitle": "ਅਗਮ ਕਾਰ ਕਿਰਾਏ",
    "categoryName": "Car rental agency",
    "address": "Sub. City Center, Sector 34A, Sector 34, Chandigarh, 160022, India",
    "neighborhood": "Sub. City Center, Sector 34A, Sector 34",
    "city": "Chandigarh",
    "postalCode": "160022",
    "state": "Chandigarh",
    "countryCode": "IN",
    "website": "http://www.agamtravels.in/",
    "phone": "+919779898911",
    "phoneUnformatted": "+919779898911",
    "location": {
      "lat": 30.724077,
      "lng": 76.767833
    },
    "totalScore": 3.5,
    "permanentlyClosed": false,
    "temporarilyClosed": false,
    "placeId": "ChIJCQDcA7LtDzkR--nT0xSM_RM",
    "categories": [
      "Car rental agency"
    ],
    "reviewsCount": 20,
    "imagesCount": 25,
    "openingHours": [
      {
        "day": "Monday",
        "hours": "6 AM to 10 PM"
      },
      {
        "day": "Tuesday",
        "hours": "6 AM to 10 PM"
      },
      {
        "day": "Wednesday",
        "hours": "6 AM to 10 PM"
      },
      {
        "day": "Thursday",
        "hours": "6 AM to 10 PM"
      },
      {
        "day": "Friday",
        "hours": "6 AM to 10 PM"
      },
      {
        "day": "Saturday",
        "hours": "6 AM to 10 PM"
      },
      {
        "day": "Sunday",
        "hours": "6 AM to 10 PM"
      }
    ],
    "imageUrl": "https://lh3.googleusercontent.com/gps-cs-s/AG0ilSyVwnPP3yh6YwiY3f6SUNr0NCVx9cCCT79giUm71aeVqPRbIOKptSfDbuBRQRWIS8ruqyypTKi02E7lQmMjR-nEBsA1Zjkv6H6w42hEORlKoYOqKBugxwar8UeknDSa43VEWgQ3=w408-h304-k-no",
    "url": "https://www.google.com/maps/search/?api=1&query=Agam%20Car%20Rentals&query_place_id=ChIJCQDcA7LtDzkR--nT0xSM_RM"
  },
  {
    "title": "Amara Travels",
    "subTitle": "ਅਮਰਾ ਟਰੈਵਲਜ਼",
    "categoryName": "Car rental agency",
    "address": "250 A, Sector 41D, Badheri, Sector 41, Chandigarh, 160036, India",
    "neighborhood": "Sector 41D, Badheri, Sector 41",
    "street": "250 A",
    "city": "Chandigarh",
    "postalCode": "160036",
    "state": "Chandigarh",
    "countryCode": "IN",
    "website": "https://amaratravels.com/",
    "phone": "+917018099711",
    "phoneUnformatted": "+917018099711",
    "location": {
      "lat": 30.732598,
      "lng": 76.7351363
    },
    "totalScore": 4.8,
    "permanentlyClosed": false,
    "temporarilyClosed": false,
    "placeId": "ChIJvaG0mrHtDzkRwaKy0awO0Dg",
    "categories": [
      "Car rental agency",
      "Taxi service",
      "Tour agency",
      "Travel agency"
    ],
    "reviewsCount": 367,
    "imagesCount": 274,
    "openingHours": [],
    "imageUrl": "https://lh3.googleusercontent.com/gps-cs-s/AG0ilSwLBLq8crhd_rs8k5iWzK7JaL-qFObqZ7vtZAC9VJ_EJdfd1Mmm7cM8GV1kJtW74TDr-X8du0zPrGuVS3qof71OWk7D8fxI7P8Z6m5905qtKJGAnIMQ1tgt349uWRA5lxduV5G2=w408-h306-k-no",
    "url": "https://www.google.com/maps/search/?api=1&query=Amara%20Travels&query_place_id=ChIJvaG0mrHtDzkRwaKy0awO0Dg"
  },
  {
    "title": "Ashwani Car and Bike Rental",
    "categoryName": "Car rental agency",
    "address": "Booth No 1, Booth Market, 42C, Sector 42, Chandigarh, Punjab 160036, India",
    "neighborhood": "42C, Sector 42",
    "street": "Booth No 1, Booth Market",
    "city": "Chandigarh",
    "postalCode": "160036",
    "state": "Punjab",
    "countryCode": "IN",
    "website": "https://ashwaniselfdrivecars.com/",
    "phone": "+917626852635",
    "phoneUnformatted": "+917626852635",
    "location": {
      "lat": 30.7233013,
      "lng": 76.7447448
    },
    "totalScore": 4.4,
    "permanentlyClosed": false,
    "temporarilyClosed": false,
    "placeId": "ChIJYw4ML9vtDzkRvgRnB7ScdjQ",
    "categories": [
      "Car rental agency",
      "Car leasing service",
      "Motorcycle rental agency"
    ],
    "reviewsCount": 7,
    "imagesCount": 1,
    "openingHours": [
      {
        "day": "Monday",
        "hours": "Open 24 hours"
      },
      {
        "day": "Tuesday",
        "hours": "Open 24 hours"
      },
      {
        "day": "Wednesday",
        "hours": "Open 24 hours"
      },
      {
        "day": "Thursday",
        "hours": "Open 24 hours"
      },
      {
        "day": "Friday",
        "hours": "Open 24 hours"
      },
      {
        "day": "Saturday",
        "hours": "Open 24 hours"
      },
      {
        "day": "Sunday",
        "hours": "Open 24 hours"
      }
    ],
    "imageUrl": "https://streetviewpixels-pa.googleapis.com/v1/thumbnail?panoid=O7ShWFuao3xk8TlbpyQTfg&cb_client=search.gws-prod.gps&w=408&h=240&yaw=239.24576&pitch=0&thumbfov=100",
    "url": "https://www.google.com/maps/search/?api=1&query=Ashwani%20Car%20and%20Bike%20Rental&query_place_id=ChIJYw4ML9vtDzkRvgRnB7ScdjQ"
  },
  {
    "title": "Audi Chandigarh Sales & Services",
    "subTitle": "ਔਡੀ ਚੰਡੀਗੜ੍ਹ",
    "categoryName": "Audi dealer",
    "address": "54, Industrial Area Phase II, Chandigarh, 160002, India",
    "neighborhood": "Industrial Area Phase II",
    "street": "54",
    "city": "Chandigarh",
    "postalCode": "160002",
    "state": "Chandigarh",
    "countryCode": "IN",
    "website": "https://dealers.myaudi.in/audi-chandigarh-sales-services-audi-dealer-industrial-area-chandigarh-122006/Home",
    "phone": "+918288004188",
    "phoneUnformatted": "+918288004188",
    "location": {
      "lat": 30.70062,
      "lng": 76.7893963
    },
    "totalScore": 4.5,
    "permanentlyClosed": false,
    "temporarilyClosed": false,
    "placeId": "ChIJ_____6SUDzkRhOoEddDk-Mc",
    "categories": [
      "Audi dealer",
      "Auto dent removal service",
      "Auto repair shop",
      "Car accessories store",
      "Car dealer"
    ],
    "reviewsCount": 568,
    "imagesCount": 298,
    "openingHours": [
      {
        "day": "Monday",
        "hours": "9:30 AM to 7 PM"
      },
      {
        "day": "Tuesday",
        "hours": "9:30 AM to 7 PM"
      },
      {
        "day": "Wednesday",
        "hours": "9:30 AM to 7 PM"
      },
      {
        "day": "Thursday",
        "hours": "9:30 AM to 7 PM"
      },
      {
        "day": "Friday",
        "hours": "9:30 AM to 7 PM"
      },
      {
        "day": "Saturday",
        "hours": "9:30 AM to 7 PM"
      },
      {
        "day": "Sunday",
        "hours": "Closed"
      }
    ],
    "imageUrl": "https://lh3.googleusercontent.com/gps-cs-s/AG0ilSzsaHAJcf-UKSjwE7nf-Og5FR2BLepkNuXVTrNSpRUwFTsVRMUlDGtCJlYG5ua3F_9lmvxLBEgKQ7cuU6_UA1RYC-Qr2V1Q4l_Zft3SLza2s3GB5GFgxjs6bl2RxssFqqEdHtiiJw=w408-h272-k-no",
    "url": "https://www.google.com/maps/search/?api=1&query=Audi%20Chandigarh%20Sales%20%26%20Services&query_place_id=ChIJ_____6SUDzkRhOoEddDk-Mc"
  },
  {
    "title": "Avtar Travels EST 1972 ( SHEED Bhagat singh Chandigarh AIRPORT )",
    "categoryName": "Car rental agency",
    "address": "petrol pump, Sector 9C parking, 122, behind CITCO Road, 9C, Sector 9, Chandigarh, 160009, India",
    "neighborhood": "9C, Sector 9",
    "street": "petrol pump, Sector 9C parking, 122, behind CITCO Road",
    "city": "Chandigarh",
    "postalCode": "160009",
    "state": "Chandigarh",
    "countryCode": "IN",
    "website": "https://www.avtartravels.com/",
    "phone": "+919779700999",
    "phoneUnformatted": "+919779700999",
    "location": {
      "lat": 30.743052,
      "lng": 76.7900037
    },
    "totalScore": 4.8,
    "permanentlyClosed": false,
    "temporarilyClosed": false,
    "placeId": "ChIJa8lu5gvtDzkRgP7xGimvChk",
    "categories": [
      "Car rental agency",
      "Travel agency",
      "Taxi service",
      "Tour operator"
    ],
    "reviewsCount": 30,
    "imagesCount": 235,
    "openingHours": [
      {
        "day": "Monday",
        "hours": "10 AM to 8 PM"
      },
      {
        "day": "Tuesday",
        "hours": "10 AM to 8 PM"
      },
      {
        "day": "Wednesday",
        "hours": "10 AM to 8 PM"
      },
      {
        "day": "Thursday",
        "hours": "10 AM to 8 PM"
      },
      {
        "day": "Friday",
        "hours": "10 AM to 8 PM"
      },
      {
        "day": "Saturday",
        "hours": "10 AM to 8 PM"
      },
      {
        "day": "Sunday",
        "hours": "10 AM to 8 PM"
      }
    ],
    "imageUrl": "https://lh3.googleusercontent.com/p/AF1QipM89vuZrSsYSKjdRb59yKR7JPrxkraobZKrzFXG=w408-h272-k-no",
    "url": "https://www.google.com/maps/search/?api=1&query=Avtar%20Travels%20EST%201972%20(%20SHEED%20Bhagat%20singh%20Chandigarh%20AIRPORT%20)&query_place_id=ChIJa8lu5gvtDzkRgP7xGimvChk"
  },
  {
    "title": "Bharat Taxi Services – Tempo Traveller / Urbania Hire in Chandigarh",
    "categoryName": "Car leasing service",
    "address": "Plot No. 501 A , Near SBI Bank Gali No. 3, Railway Station Rd, Daria, Chandigarh, 160101, India",
    "neighborhood": "Daria",
    "street": "Plot No. 501 A , Near SBI Bank Gali No. 3, Railway Station Rd",
    "city": "Chandigarh",
    "postalCode": "160101",
    "state": "Chandigarh",
    "countryCode": "IN",
    "website": "https://bharattaxisservices.com/",
    "phone": "+919888476943",
    "phoneUnformatted": "+919888476943",
    "location": {
      "lat": 30.6978737,
      "lng": 76.8164898
    },
    "totalScore": 4.8,
    "permanentlyClosed": false,
    "temporarilyClosed": false,
    "placeId": "ChIJTxcXaJPtDzkR6ZhrU_ENHoo",
    "categories": [
      "Car leasing service",
      "Travel agency",
      "Sightseeing tour agency",
      "Taxi service",
      "Tour operator",
      "Transportation service"
    ],
    "reviewsCount": 336,
    "imagesCount": 206,
    "openingHours": [
      {
        "day": "Monday",
        "hours": "Open 24 hours"
      },
      {
        "day": "Tuesday",
        "hours": "Open 24 hours"
      },
      {
        "day": "Wednesday",
        "hours": "Open 24 hours"
      },
      {
        "day": "Thursday",
        "hours": "Open 24 hours"
      },
      {
        "day": "Friday",
        "hours": "Open 24 hours"
      },
      {
        "day": "Saturday",
        "hours": "Open 24 hours"
      },
      {
        "day": "Sunday",
        "hours": "Open 24 hours"
      }
    ],
    "imageUrl": "https://lh3.googleusercontent.com/p/AF1QipOVmc8g-g2VxXYKWsSgVIO746LtPORBYvwrfZvg=w408-h306-k-no",
    "url": "https://www.google.com/maps/search/?api=1&query=Bharat%20Taxi%20Services%20%E2%80%93%20Tempo%20Traveller%20%2F%20Urbania%20Hire%20in%20Chandigarh&query_place_id=ChIJTxcXaJPtDzkR6ZhrU_ENHoo"
  },
  {
    "title": "Bhele Cars",
    "subTitle": "ਭੇਲੇ ਕਾਰਸ",
    "categoryName": "Car rental agency",
    "address": "3009, 40D, Sector 40D, Chandigarh, 160036, India",
    "neighborhood": "40D, Sector 40D",
    "street": "3009",
    "city": "Chandigarh",
    "postalCode": "160036",
    "state": "Chandigarh",
    "countryCode": "IN",
    "location": {
      "lat": 30.7363909,
      "lng": 76.7309858
    },
    "totalScore": 5,
    "permanentlyClosed": false,
    "temporarilyClosed": true,
    "placeId": "ChIJRSgxZi3vDzkR0BZtNJ_jfmU",
    "categories": [
      "Car rental agency"
    ],
    "reviewsCount": 9,
    "imagesCount": 136,
    "openingHours": [],
    "imageUrl": "https://lh3.googleusercontent.com/p/AF1QipOdf3prGoXy05oMgf9WtINRgcoJICa8Undxf2EJ=w408-h306-k-no",
    "url": "https://www.google.com/maps/search/?api=1&query=Bhele%20Cars&query_place_id=ChIJRSgxZi3vDzkR0BZtNJ_jfmU"
  },
  {
    "title": "BookYourWheels | Chandigarh | Luxury Car Rentals | Chauffeur Drive | Self Drive",
    "categoryName": "Car rental agency",
    "address": "near Batra Cinema, 37B, Sector 37B, Chandigarh, 160036, India",
    "neighborhood": "37B, Sector 37B",
    "street": "near Batra Cinema",
    "city": "Chandigarh",
    "postalCode": "160036",
    "state": "Chandigarh",
    "countryCode": "IN",
    "website": "http://www.bookyourwheels.in/",
    "phone": "+919535453295",
    "phoneUnformatted": "+919535453295",
    "location": {
      "lat": 30.7384783,
      "lng": 76.7555077
    },
    "permanentlyClosed": false,
    "temporarilyClosed": true,
    "placeId": "ChIJyc60X7rtDzkR0Zbaa7ZWjgg",
    "categories": [
      "Car rental agency",
      "Car leasing service",
      "Motoring club"
    ],
    "imagesCount": 389,
    "openingHours": [],
    "imageUrl": "https://lh3.googleusercontent.com/p/AF1QipMp6tToYJQRcXc63feFpzpm3EgAEJKeEubiv8LP=w408-h245-k-no",
    "url": "https://www.google.com/maps/search/?api=1&query=BookYourWheels%20%7C%20Chandigarh%20%7C%20Luxury%20Car%20Rentals%20%7C%20Chauffeur%20Drive%20%7C%20Self%20Drive&query_place_id=ChIJyc60X7rtDzkR0Zbaa7ZWjgg"
  },
  {
    "title": "Car Best Dealer",
    "categoryName": "Car dealer",
    "address": "Plot No 54, Industrial Area Phase I, Chandigarh, 160002, India",
    "neighborhood": "Industrial Area Phase I",
    "street": "Plot No 54",
    "city": "Chandigarh",
    "postalCode": "160002",
    "state": "Chandigarh",
    "countryCode": "IN",
    "location": {
      "lat": 30.7027672,
      "lng": 76.8038207
    },
    "permanentlyClosed": false,
    "temporarilyClosed": false,
    "placeId": "ChIJuWjuoWvtDzkRpfB_DQYRZ6E",
    "categories": [
      "Car dealer"
    ],
    "imagesCount": 14,
    "openingHours": [
      {
        "day": "Monday",
        "hours": "Open 24 hours"
      },
      {
        "day": "Tuesday",
        "hours": "Open 24 hours"
      },
      {
        "day": "Wednesday",
        "hours": "Open 24 hours"
      },
      {
        "day": "Thursday",
        "hours": "Open 24 hours"
      },
      {
        "day": "Friday",
        "hours": "Open 24 hours"
      },
      {
        "day": "Saturday",
        "hours": "Open 24 hours"
      },
      {
        "day": "Sunday",
        "hours": "Open 24 hours"
      }
    ],
    "imageUrl": "https://lh3.googleusercontent.com/p/AF1QipPtlUqFWEG9W54htZ3eyNBAU2X8PmrMg8XwalNQ=w408-h725-k-no",
    "url": "https://www.google.com/maps/search/?api=1&query=Car%20Best%20Dealer&query_place_id=ChIJuWjuoWvtDzkRpfB_DQYRZ6E"
  },
  {
    "title": "Car Plaza",
    "categoryName": "Used car dealer",
    "address": "Plot num, 176, Industrial Area Phase I, Chandigarh, 160002, India",
    "neighborhood": "Industrial Area Phase I",
    "street": "Plot num, 176",
    "city": "Chandigarh",
    "postalCode": "160002",
    "state": "Chandigarh",
    "countryCode": "IN",
    "website": "https://carplaza.site/",
    "phone": "+919815186252",
    "phoneUnformatted": "+919815186252",
    "location": {
      "lat": 30.7089078,
      "lng": 76.7996587
    },
    "totalScore": 3.1,
    "permanentlyClosed": false,
    "temporarilyClosed": false,
    "placeId": "ChIJzdzTn_rtDzkRag_fK89w39U",
    "categories": [
      "Used car dealer"
    ],
    "reviewsCount": 15,
    "imagesCount": 44,
    "openingHours": [
      {
        "day": "Monday",
        "hours": "9 AM to 7 PM"
      },
      {
        "day": "Tuesday",
        "hours": "9 AM to 7 PM"
      },
      {
        "day": "Wednesday",
        "hours": "9 AM to 7 PM"
      },
      {
        "day": "Thursday",
        "hours": "9 AM to 7 PM"
      },
      {
        "day": "Friday",
        "hours": "9 AM to 7 PM"
      },
      {
        "day": "Saturday",
        "hours": "9 AM to 7 PM"
      },
      {
        "day": "Sunday",
        "hours": "9 AM to 7 PM"
      }
    ],
    "imageUrl": "https://lh3.googleusercontent.com/gps-cs-s/AG0ilSx86Gp79gYXZ9qNp94-WurEl77RmChej2QvEOtDt1F57tT4bcoPqfoovzE2dBVKDUNJkqogW6kGj0i5CblBywsZFPX3Go63ssyco6r7SZcv68O8z_VPrrI76ctFiSXHpfkVC-F_KhYU5vuh=w408-h544-k-no",
    "url": "https://www.google.com/maps/search/?api=1&query=Car%20Plaza&query_place_id=ChIJzdzTn_rtDzkRag_fK89w39U"
  },
  {
    "title": "Chandigarh Autos I Used Car Dealers | Secondhand Car Dealers | Preowned Car Dealers | Luxury Car Dealers in Chandigarh",
    "categoryName": "Used car dealer",
    "address": "Plot No-9/10, Industrial Area Phase I, Chandigarh, 160002, India",
    "neighborhood": "Industrial Area Phase I",
    "street": "Plot No-9/10",
    "city": "Chandigarh",
    "postalCode": "160002",
    "state": "Chandigarh",
    "countryCode": "IN",
    "website": "https://wa.me/c/919888887444",
    "location": {
      "lat": 30.7135382,
      "lng": 76.807057
    },
    "totalScore": 4.4,
    "permanentlyClosed": false,
    "temporarilyClosed": false,
    "placeId": "ChIJWTT3YOjsDzkRl4tPDUATq68",
    "categories": [
      "Used car dealer",
      "Car dealer"
    ],
    "reviewsCount": 174,
    "imagesCount": 201,
    "openingHours": [
      {
        "day": "Monday",
        "hours": "Open 24 hours"
      },
      {
        "day": "Tuesday",
        "hours": "Open 24 hours"
      },
      {
        "day": "Wednesday",
        "hours": "Open 24 hours"
      },
      {
        "day": "Thursday",
        "hours": "Open 24 hours"
      },
      {
        "day": "Friday",
        "hours": "Open 24 hours"
      },
      {
        "day": "Saturday",
        "hours": "Open 24 hours"
      },
      {
        "day": "Sunday",
        "hours": "Open 24 hours"
      }
    ],
    "imageUrl": "https://lh3.googleusercontent.com/gps-cs-s/AG0ilSxUVHDWj91iIHi4nrSCh-SaV4mXTCog6FCiA5B1x0zp4qO03PvbUAtWLDMaCAYKqSL4hlMY7yhR_QmemVSz4h2STjRvw0x2I4lEcwEriZCtUDeGKYUMWWRX6eyKd2j2Sev9-NFnfg=w408-h306-k-no",
    "url": "https://www.google.com/maps/search/?api=1&query=Chandigarh%20Autos%20I%20Used%20Car%20Dealers%20%7C%20Secondhand%20Car%20Dealers%20%7C%20Preowned%20Car%20Dealers%20%7C%20Luxury%20Car%20Dealers%20in%20Chandigarh&query_place_id=ChIJWTT3YOjsDzkRl4tPDUATq68"
  },
  {
    "title": "Chandigarh Autos I Used Car Dealers | Secondhand Car Dealers | Preowned Car Dealers | Luxury Car Dealers in Chandigarh",
    "categoryName": "Used car dealer",
    "address": "Plot No-9/10, Industrial Area Phase I, Chandigarh, 160002, India",
    "neighborhood": "Industrial Area Phase I",
    "street": "Plot No-9/10",
    "city": "Chandigarh",
    "postalCode": "160002",
    "state": "Chandigarh",
    "countryCode": "IN",
    "website": "https://wa.me/c/919888887444",
    "phone": "+919646031818",
    "phoneUnformatted": "+919646031818",
    "location": {
      "lat": 30.7135382,
      "lng": 76.807057
    },
    "totalScore": 5,
    "permanentlyClosed": false,
    "temporarilyClosed": false,
    "placeId": "ChIJ68-LWCztDzkRQatLpP0cCmQ",
    "categories": [
      "Used car dealer"
    ],
    "reviewsCount": 9,
    "imagesCount": 38,
    "openingHours": [
      {
        "day": "Monday",
        "hours": "Open 24 hours"
      },
      {
        "day": "Tuesday",
        "hours": "Open 24 hours"
      },
      {
        "day": "Wednesday",
        "hours": "Open 24 hours"
      },
      {
        "day": "Thursday",
        "hours": "Open 24 hours"
      },
      {
        "day": "Friday",
        "hours": "Open 24 hours"
      },
      {
        "day": "Saturday",
        "hours": "Open 24 hours"
      },
      {
        "day": "Sunday",
        "hours": "Open 24 hours"
      }
    ],
    "imageUrl": "https://lh3.googleusercontent.com/gps-cs-s/AG0ilSwD3S4-5XkqHBG9n3_QXedFsR25B3vHwAekejgL7jFfLNnv3CpB4K40wiCELybZl8jLTAWWBDyCnH1f9Hskun9-bSOtQvoURoGVGJpp7Gn49A_Vtr6xUy0UIX3VlMagebig8H_TWYXgaW81=w532-h240-k-no",
    "url": "https://www.google.com/maps/search/?api=1&query=Chandigarh%20Autos%20I%20Used%20Car%20Dealers%20%7C%20Secondhand%20Car%20Dealers%20%7C%20Preowned%20Car%20Dealers%20%7C%20Luxury%20Car%20Dealers%20in%20Chandigarh&query_place_id=ChIJ68-LWCztDzkRQatLpP0cCmQ"
  },
  {
    "title": "Chandigarh Cab - Luxury Wedding Car in Chandigarh",
    "subTitle": "ਚੰਡੀਗੜ੍ਹ ਕੈਬ - ਲਗਜਰੀ ਵੈੱਡਿੰਗ ਕਾਰ ਇਨ ਚੰਡੀਗੜ੍ਹ",
    "categoryName": "Car rental agency",
    "address": "Janta Taxi Stand, Near SCO 99 - 100, 35C, Chandigarh, 160022, India",
    "neighborhood": "35C, Sector 35",
    "street": "Janta Taxi Stand, Near SCO 99 - 100",
    "city": "Chandigarh",
    "postalCode": "160022",
    "state": "Chandigarh",
    "countryCode": "IN",
    "website": "https://chandigarhcab.com/",
    "phone": "+919855442442",
    "phoneUnformatted": "+919855442442",
    "location": {
      "lat": 30.7254478,
      "lng": 76.7593838
    },
    "totalScore": 4.5,
    "permanentlyClosed": false,
    "temporarilyClosed": false,
    "placeId": "ChIJH9EVkCTtDzkRTV7Q-isyC44",
    "categories": [
      "Car rental agency",
      "Car leasing service",
      "Taxi service",
      "Taxicab Stand",
      "Tour operator"
    ],
    "reviewsCount": 84,
    "imagesCount": 72,
    "openingHours": [],
    "imageUrl": "https://lh3.googleusercontent.com/p/AF1QipOw-1IeEVv-VfgjOgRWKTtcEfUOLCzyDISASYUl=w424-h240-k-no",
    "url": "https://www.google.com/maps/search/?api=1&query=Chandigarh%20Cab%20-%20Luxury%20Wedding%20Car%20in%20Chandigarh&query_place_id=ChIJH9EVkCTtDzkRTV7Q-isyC44"
  },
  {
    "title": "Chandigarh Cabs",
    "categoryName": "Car rental agency",
    "address": "SCO 198-199, Bridge Road Nwar Orra Shopping Plaza, Cabin No. 13 Seat 1 -A, 17C, Sector 17, Chandigarh, 160017, India",
    "neighborhood": "Shopping Plaza, Sector 17",
    "street": "SCO 198-199, Bridge Road Nwar Orra Shopping Plaza, Cabin No. 13 Seat 1 -A, 17C",
    "city": "Chandigarh",
    "postalCode": "160017",
    "state": "Chandigarh",
    "countryCode": "IN",
    "website": "http://www.chandigarh.cab/",
    "phone": "+919876520078",
    "phoneUnformatted": "+919876520078",
    "location": {
      "lat": 30.7387603,
      "lng": 76.7854442
    },
    "totalScore": 4.9,
    "permanentlyClosed": false,
    "temporarilyClosed": false,
    "placeId": "ChIJRaktNFHvDzkRlGX54CCb8Ls",
    "categories": [
      "Car rental agency",
      "Car leasing service",
      "Taxi service",
      "Tour operator",
      "Transportation service"
    ],
    "reviewsCount": 113,
    "imagesCount": 1,
    "openingHours": [],
    "imageUrl": "https://streetviewpixels-pa.googleapis.com/v1/thumbnail?panoid=vQNdgb4RoylyxgAazV8MJg&cb_client=search.gws-prod.gps&w=408&h=240&yaw=290.7098&pitch=0&thumbfov=100",
    "url": "https://www.google.com/maps/search/?api=1&query=Chandigarh%20Cabs&query_place_id=ChIJRaktNFHvDzkRlGX54CCb8Ls"
  },
  {
    "title": "Chandigarh Luxury Wedding Car Rental",
    "subTitle": "ਚੰਡੀਗੜ੍ਹ ਲਗਜਰੀ ਵੈੱਡਿੰਗ ਕਾਰ ਰੇਂਟਲ",
    "categoryName": "Car rental agency",
    "address": "2183 D Block, 14, Chandigarh Housing Board Flats, sector 63, Chandigarh, 160047, India",
    "neighborhood": "Chandigarh Housing Board Flats, sector 63",
    "street": "2183 D Block, 14",
    "city": "Chandigarh",
    "postalCode": "160047",
    "state": "Chandigarh",
    "countryCode": "IN",
    "phone": "+918288888000",
    "phoneUnformatted": "+918288888000",
    "location": {
      "lat": 30.6935593,
      "lng": 76.7426491
    },
    "totalScore": 4.9,
    "permanentlyClosed": false,
    "temporarilyClosed": false,
    "placeId": "ChIJyXhUe7vtDzkRyHliPgyih0I",
    "categories": [
      "Car rental agency",
      "Car leasing service",
      "Taxi service",
      "Wedding planner",
      "Wedding store",
      "Wedding venue"
    ],
    "reviewsCount": 31,
    "imagesCount": 28,
    "openingHours": [],
    "imageUrl": "https://lh3.googleusercontent.com/p/AF1QipMXS1CMmvqxuN4Y2ufD072sTVl5kFldEy3VITsg=w408-h710-k-no",
    "url": "https://www.google.com/maps/search/?api=1&query=Chandigarh%20Luxury%20Wedding%20Car%20Rental&query_place_id=ChIJyXhUe7vtDzkRyHliPgyih0I"
  },
  {
    "title": "Chandigarh Rent A Car - Rent Self Drive Cars in Chandigarh",
    "categoryName": "Car rental agency",
    "address": "Taxi Stand, Ground Floor, near Batra Cinema, Sector 37B, Chandigarh, 160036, India",
    "neighborhood": "37B, Sector 37B",
    "street": "Taxi Stand, Ground Floor, near Batra Cinema",
    "city": "Chandigarh",
    "postalCode": "160036",
    "state": "Chandigarh",
    "countryCode": "IN",
    "website": "https://chandigarhrentacar.com/",
    "phone": "+918327272222",
    "phoneUnformatted": "+918327272222",
    "location": {
      "lat": 30.7414887,
      "lng": 76.7559476
    },
    "totalScore": 4.7,
    "permanentlyClosed": false,
    "temporarilyClosed": false,
    "placeId": "ChIJEx-_XvvtDzkRybC-wgiuEVs",
    "categories": [
      "Car rental agency"
    ],
    "reviewsCount": 190,
    "imagesCount": 334,
    "openingHours": [
      {
        "day": "Monday",
        "hours": "8 AM to 10 PM"
      },
      {
        "day": "Tuesday",
        "hours": "8 AM to 10 PM"
      },
      {
        "day": "Wednesday",
        "hours": "8 AM to 10 PM"
      },
      {
        "day": "Thursday",
        "hours": "8 AM to 10 PM"
      },
      {
        "day": "Friday",
        "hours": "8 AM to 10 PM"
      },
      {
        "day": "Saturday",
        "hours": "8 AM to 10 PM"
      },
      {
        "day": "Sunday",
        "hours": "8 AM to 10 PM"
      }
    ],
    "imageUrl": "https://lh3.googleusercontent.com/p/AF1QipPAMw7FJvnTlwTOylXnOfl9SJ4MeZpHjlnG8LLg=w408-h544-k-no",
    "url": "https://www.google.com/maps/search/?api=1&query=Chandigarh%20Rent%20A%20Car%20-%20Rent%20Self%20Drive%20Cars%20in%20Chandigarh&query_place_id=ChIJEx-_XvvtDzkRybC-wgiuEVs"
  },
  {
    "title": "Chandigarh Self Drive cars",
    "categoryName": "Car rental agency",
    "address": "#2075, 2, 45D, Sector 44, Chandigarh, 160043, India",
    "neighborhood": "45D, Sector 44",
    "street": "#2075, 2",
    "city": "Chandigarh",
    "postalCode": "160043",
    "state": "Chandigarh",
    "countryCode": "IN",
    "website": "https://www.chandigarhselfdrivecars.com/",
    "phone": "+919056031030",
    "phoneUnformatted": "+919056031030",
    "location": {
      "lat": 30.711054,
      "lng": 76.7538524
    },
    "totalScore": 4.9,
    "permanentlyClosed": false,
    "temporarilyClosed": false,
    "placeId": "ChIJe83GfTbsDzkRR5VaNx_ptuI",
    "categories": [
      "Car rental agency",
      "Tour operator"
    ],
    "reviewsCount": 356,
    "imagesCount": 192,
    "openingHours": [
      {
        "day": "Monday",
        "hours": "7 AM to 10 PM"
      },
      {
        "day": "Tuesday",
        "hours": "7 AM to 10 PM"
      },
      {
        "day": "Wednesday",
        "hours": "7 AM to 10 PM"
      },
      {
        "day": "Thursday",
        "hours": "7 AM to 10 PM"
      },
      {
        "day": "Friday",
        "hours": "7 AM to 10 PM"
      },
      {
        "day": "Saturday",
        "hours": "7 AM to 10 PM"
      },
      {
        "day": "Sunday",
        "hours": "7 AM to 10 PM"
      }
    ],
    "imageUrl": "https://lh3.googleusercontent.com/p/AF1QipOb9bP7msqkOYoKZl3owSzKxbjsxKzS-BcH_Zko=w408-h306-k-no",
    "url": "https://www.google.com/maps/search/?api=1&query=Chandigarh%20Self%20Drive%20cars&query_place_id=ChIJe83GfTbsDzkRR5VaNx_ptuI"
  },
  {
    "title": "Chandigarh Travellers",
    "categoryName": "Car rental agency",
    "address": "First Floor, SCO 147, 40D, Sector 40D, Chandigarh, 160036, India",
    "neighborhood": "40D, Sector 40D",
    "street": "First Floor, SCO 147",
    "city": "Chandigarh",
    "postalCode": "160036",
    "state": "Chandigarh",
    "countryCode": "IN",
    "website": "https://chandigarhtravellers.com/",
    "phone": "+917986658896",
    "phoneUnformatted": "+917986658896",
    "location": {
      "lat": 30.7387564,
      "lng": 76.7319026
    },
    "totalScore": 5,
    "permanentlyClosed": false,
    "temporarilyClosed": false,
    "placeId": "ChIJtbHJ7fzvDzkRiyVtFEAZhOM",
    "categories": [
      "Car rental agency",
      "Car leasing service",
      "Taxi service",
      "Travel agency",
      "Van rental agency"
    ],
    "reviewsCount": 12,
    "imagesCount": 23,
    "openingHours": [],
    "imageUrl": "https://lh3.googleusercontent.com/p/AF1QipON8KXkw8IXLOgwhLQKPek3tHAXFS1jYn6-iokN=w408-h306-k-no",
    "url": "https://www.google.com/maps/search/?api=1&query=Chandigarh%20Travellers&query_place_id=ChIJtbHJ7fzvDzkRiyVtFEAZhOM"
  },
  {
    "title": "Chandigarh reshu self drive car",
    "categoryName": "Car rental agency",
    "address": "Shop No 742, near Petrol pump, Kajheri, Kajheri Village, Sector 52, Chandigarh, 160036, India",
    "neighborhood": "Kajheri, Kajheri Village, Sector 52",
    "street": "Shop No 742, near Petrol pump",
    "city": "Chandigarh",
    "postalCode": "160036",
    "state": "Chandigarh",
    "countryCode": "IN",
    "website": "https://reshurentals.com/",
    "phone": "+917888642027",
    "phoneUnformatted": "+917888642027",
    "location": {
      "lat": 30.7152429,
      "lng": 76.7418361
    },
    "totalScore": 4.7,
    "permanentlyClosed": false,
    "temporarilyClosed": false,
    "placeId": "ChIJ-fWzxnvtDzkRT3yw5gcE6mQ",
    "categories": [
      "Car rental agency"
    ],
    "reviewsCount": 63,
    "imagesCount": 81,
    "openingHours": [
      {
        "day": "Monday",
        "hours": "Open 24 hours"
      },
      {
        "day": "Tuesday",
        "hours": "Open 24 hours"
      },
      {
        "day": "Wednesday",
        "hours": "Open 24 hours"
      },
      {
        "day": "Thursday",
        "hours": "Open 24 hours"
      },
      {
        "day": "Friday",
        "hours": "Open 24 hours"
      },
      {
        "day": "Saturday",
        "hours": "Open 24 hours"
      },
      {
        "day": "Sunday",
        "hours": "Open 24 hours"
      }
    ],
    "imageUrl": "https://lh3.googleusercontent.com/p/AF1QipOUfO_BkEXxUoI37Cxi-YBeNu4q0Hi84S25DWZs=w408-h408-k-no",
    "url": "https://www.google.com/maps/search/?api=1&query=Chandigarh%20reshu%20self%20drive%20car&query_place_id=ChIJ-fWzxnvtDzkRT3yw5gcE6mQ"
  },
  {
    "title": "Chandigarh self drive cars (katyal taxi service)",
    "categoryName": "Car rental agency",
    "address": "Taxi Stand, SCO No. 182 & 184, Madhya Marg, Sector 8C, Sector 8, Chandigarh, 160009, India",
    "neighborhood": "Sector 8C, Sector 8",
    "street": "Taxi Stand, SCO No. 182 & 184, Madhya Marg",
    "city": "Chandigarh",
    "postalCode": "160009",
    "state": "Chandigarh",
    "countryCode": "IN",
    "website": "https://www.chandigarhselfdrivecar.com/",
    "phone": "+919592030375",
    "phoneUnformatted": "+919592030375",
    "location": {
      "lat": 30.7357175,
      "lng": 76.7967873
    },
    "totalScore": 5,
    "permanentlyClosed": false,
    "temporarilyClosed": false,
    "placeId": "ChIJq6qqakTsDzkRdsHixVlTbfo",
    "categories": [
      "Car rental agency",
      "Car leasing service",
      "Taxi service"
    ],
    "reviewsCount": 357,
    "imagesCount": 1071,
    "openingHours": [
      {
        "day": "Monday",
        "hours": "Open 24 hours"
      },
      {
        "day": "Tuesday",
        "hours": "Open 24 hours"
      },
      {
        "day": "Wednesday",
        "hours": "Open 24 hours"
      },
      {
        "day": "Thursday",
        "hours": "Open 24 hours"
      },
      {
        "day": "Friday",
        "hours": "Open 24 hours"
      },
      {
        "day": "Saturday",
        "hours": "Open 24 hours"
      },
      {
        "day": "Sunday",
        "hours": "Open 24 hours"
      }
    ],
    "imageUrl": "https://lh3.googleusercontent.com/p/AF1QipM2wfJjanb8W_U0xlCytQn6odJcXIAf1JZi27mn=w426-h240-k-no",
    "url": "https://www.google.com/maps/search/?api=1&query=Chandigarh%20self%20drive%20cars%20(katyal%20taxi%20service)&query_place_id=ChIJq6qqakTsDzkRdsHixVlTbfo"
  },
  {
    "title": "Classic Selfdrive Car Rental",
    "categoryName": "Car rental agency",
    "address": "158A, First floor White flats, Sector 51A, Chandigarh, 160043, India",
    "neighborhood": "Sector 51A, Sector 51",
    "street": "158A, First floor White flats",
    "city": "Chandigarh",
    "postalCode": "160043",
    "state": "Chandigarh",
    "countryCode": "IN",
    "phone": "+916284198810",
    "phoneUnformatted": "+916284198810",
    "location": {
      "lat": 30.7107523,
      "lng": 76.7440752
    },
    "totalScore": 5,
    "permanentlyClosed": false,
    "temporarilyClosed": false,
    "placeId": "ChIJrVYP5zLtDzkReE4ebJO2Fn4",
    "categories": [
      "Car rental agency"
    ],
    "reviewsCount": 6,
    "imagesCount": 9,
    "openingHours": [
      {
        "day": "Monday",
        "hours": "Open 24 hours"
      },
      {
        "day": "Tuesday",
        "hours": "Open 24 hours"
      },
      {
        "day": "Wednesday",
        "hours": "Open 24 hours"
      },
      {
        "day": "Thursday",
        "hours": "Open 24 hours"
      },
      {
        "day": "Friday",
        "hours": "Open 24 hours"
      },
      {
        "day": "Saturday",
        "hours": "Open 24 hours"
      },
      {
        "day": "Sunday",
        "hours": "Open 24 hours"
      }
    ],
    "imageUrl": "https://lh3.googleusercontent.com/p/AF1QipN0syKzOFj8PU6MRHVWejNHMWKjy4d1R9Om1-1c=w439-h240-k-no",
    "url": "https://www.google.com/maps/search/?api=1&query=Classic%20Selfdrive%20Car%20Rental&query_place_id=ChIJrVYP5zLtDzkReE4ebJO2Fn4"
  },
  {
    "title": "Dm Cabs Pvt Ltd | best self drive cars in chandigarh || thar on rent in chandīgarh || fortuner on rent in chandigarh",
    "categoryName": "Car rental agency",
    "address": "Basement Cabin No 01, SCO NO 218/219, near ICICI bank, Sector 34A, Sector 34, Chandigarh, 160022, India",
    "neighborhood": "Sector 34A, Sector 34",
    "street": "Basement Cabin No 01, SCO NO 218/219, near ICICI bank",
    "city": "Chandigarh",
    "postalCode": "160022",
    "state": "Chandigarh",
    "countryCode": "IN",
    "website": "https://dmcab.in/",
    "phone": "+919859055000",
    "phoneUnformatted": "+919859055000",
    "location": {
      "lat": 30.7197985,
      "lng": 76.7687028
    },
    "totalScore": 4.9,
    "permanentlyClosed": false,
    "temporarilyClosed": false,
    "placeId": "ChIJ24Hh2IDtDzkRE0lfJm8NdLM",
    "categories": [
      "Car rental agency",
      "Car leasing service"
    ],
    "reviewsCount": 213,
    "imagesCount": 81,
    "openingHours": [
      {
        "day": "Monday",
        "hours": "5 AM to 11 PM"
      },
      {
        "day": "Tuesday",
        "hours": "5 AM to 11 PM"
      },
      {
        "day": "Wednesday",
        "hours": "5 AM to 11 PM"
      },
      {
        "day": "Thursday",
        "hours": "5 AM to 11 PM"
      },
      {
        "day": "Friday",
        "hours": "5 AM to 11 PM"
      },
      {
        "day": "Saturday",
        "hours": "5 AM to 11 PM"
      },
      {
        "day": "Sunday",
        "hours": "12 AM to 11 PM"
      }
    ],
    "imageUrl": "https://lh3.googleusercontent.com/p/AF1QipPcKlxcLEAHVFo2itDHxz9oQK3ta5Wl8BkGTLq7=w408-h408-k-no",
    "url": "https://www.google.com/maps/search/?api=1&query=Dm%20Cabs%20Pvt%20Ltd%20%7C%20best%20self%20drive%20cars%20in%20chandigarh%20%7C%7C%20thar%20on%20rent%20in%20chand%C4%ABgarh%20%7C%7C%20fortuner%20on%20rent%20in%20chandigarh&query_place_id=ChIJ24Hh2IDtDzkRE0lfJm8NdLM"
  },
  {
    "title": "EXOTIC CARZ - Chandigarh",
    "categoryName": "Used car dealer",
    "address": "first floor cabin no 5, Sco 37, NAC Rd, above Relance Jwellers, Sector 13, Chandigarh, 160101, India",
    "neighborhood": "Sector 13",
    "street": "first floor cabin no 5, Sco 37, NAC Rd, above Relance Jwellers",
    "city": "Chandigarh",
    "postalCode": "160101",
    "state": "Chandigarh",
    "countryCode": "IN",
    "phone": "+919697211313",
    "phoneUnformatted": "+919697211313",
    "location": {
      "lat": 30.7104742,
      "lng": 76.8400326
    },
    "totalScore": 5,
    "permanentlyClosed": false,
    "temporarilyClosed": false,
    "placeId": "ChIJ24mUl1iTDzkR40qqn9P_MDI",
    "categories": [
      "Used car dealer"
    ],
    "reviewsCount": 5,
    "imagesCount": 48,
    "openingHours": [
      {
        "day": "Monday",
        "hours": "Open 24 hours"
      },
      {
        "day": "Tuesday",
        "hours": "Open 24 hours"
      },
      {
        "day": "Wednesday",
        "hours": "Open 24 hours"
      },
      {
        "day": "Thursday",
        "hours": "Open 24 hours"
      },
      {
        "day": "Friday",
        "hours": "Open 24 hours"
      },
      {
        "day": "Saturday",
        "hours": "Open 24 hours"
      },
      {
        "day": "Sunday",
        "hours": "Open 24 hours"
      }
    ],
    "imageUrl": "https://lh3.googleusercontent.com/p/AF1QipOOkISh9O3wnX1f5wjw6LmoQUs0QhTJN7F8iECn=w408-h306-k-no",
    "url": "https://www.google.com/maps/search/?api=1&query=EXOTIC%20CARZ%20-%20Chandigarh&query_place_id=ChIJ24mUl1iTDzkR40qqn9P_MDI"
  },
  {
    "title": "Easy Drive Car Rental | Self Drive Car Rental Chandigarh",
    "categoryName": "Car rental agency",
    "address": "Secter 34A , SCO 146,frist floor, near DHL EXPRESS, Chandigarh, 160022, India",
    "neighborhood": "Sector 34B, Sector 34",
    "street": "Secter 34A , SCO 146,frist floor, near DHL EXPRESS",
    "city": "Chandigarh",
    "postalCode": "160022",
    "state": "Chandigarh",
    "countryCode": "IN",
    "website": "https://easydriverentalcars.com/",
    "phone": "+918146268000",
    "phoneUnformatted": "+918146268000",
    "location": {
      "lat": 30.7219032,
      "lng": 76.7700355
    },
    "totalScore": 3.3,
    "permanentlyClosed": false,
    "temporarilyClosed": false,
    "placeId": "ChIJ0cxyrJztDzkRDnCKnRQgd7s",
    "categories": [
      "Car rental agency"
    ],
    "reviewsCount": 70,
    "imagesCount": 29,
    "openingHours": [
      {
        "day": "Monday",
        "hours": "Open 24 hours"
      },
      {
        "day": "Tuesday",
        "hours": "Open 24 hours"
      },
      {
        "day": "Wednesday",
        "hours": "Open 24 hours"
      },
      {
        "day": "Thursday",
        "hours": "Open 24 hours"
      },
      {
        "day": "Friday",
        "hours": "Open 24 hours"
      },
      {
        "day": "Saturday",
        "hours": "Open 24 hours"
      },
      {
        "day": "Sunday",
        "hours": "Open 24 hours"
      }
    ],
    "imageUrl": "https://lh3.googleusercontent.com/p/AF1QipNjgTVzy7_xScXYo1xXMsXy6cQff-PQGSuUON2C=w421-h240-k-no",
    "url": "https://www.google.com/maps/search/?api=1&query=Easy%20Drive%20Car%20Rental%20%7C%20Self%20Drive%20Car%20Rental%20Chandigarh&query_place_id=ChIJ0cxyrJztDzkRDnCKnRQgd7s"
  },
  {
    "title": "G S Tours & Travels Agency in Chandigarh",
    "categoryName": "Car rental agency",
    "address": "TAXI stand, Madhya Marg, near SCO 32, Sector 26, Chandigarh, 160019, India",
    "neighborhood": "Sector 26",
    "street": "TAXI stand, Madhya Marg, near SCO 32",
    "city": "Chandigarh",
    "postalCode": "160019",
    "state": "Chandigarh",
    "countryCode": "IN",
    "website": "http://www.gstourstravels.com/",
    "location": {
      "lat": 30.7262058,
      "lng": 76.8049213
    },
    "totalScore": 4.5,
    "permanentlyClosed": false,
    "temporarilyClosed": false,
    "placeId": "ChIJuzVGwQrvDzkRDlI-UkMReDw",
    "categories": [
      "Car rental agency",
      "Air taxi",
      "Tour operator",
      "Taxi service",
      "Transportation service",
      "Travel agency"
    ],
    "reviewsCount": 32,
    "imagesCount": 24,
    "openingHours": [
      {
        "day": "Monday",
        "hours": "Open 24 hours"
      },
      {
        "day": "Tuesday",
        "hours": "Open 24 hours"
      },
      {
        "day": "Wednesday",
        "hours": "Open 24 hours"
      },
      {
        "day": "Thursday",
        "hours": "Open 24 hours"
      },
      {
        "day": "Friday",
        "hours": "Open 24 hours"
      },
      {
        "day": "Saturday",
        "hours": "Open 24 hours"
      },
      {
        "day": "Sunday",
        "hours": "Open 24 hours"
      }
    ],
    "imageUrl": "https://lh3.googleusercontent.com/gps-cs-s/AG0ilSwrS-5AGXIqfM_Vp2e6iFlYwpKyiHThQiRCRn-T7NpClZAd24AHObQol7t1pzySUzIzwW6X3kk7pp7_OQ8OoQLtzUTQ-TT_OtHaCMPkM-OA83TYZ_2WvGr9KmXlLAjhzZdFDeh4aQ=w408-h544-k-no",
    "url": "https://www.google.com/maps/search/?api=1&query=G%20S%20Tours%20%26%20Travels%20Agency%20in%20Chandigarh&query_place_id=ChIJuzVGwQrvDzkRDlI-UkMReDw"
  },
  {
    "title": "GOPAL CAR BAZAR",
    "categoryName": "Car dealer",
    "address": "SCO 37, above REALIANCE JEWELLS, Sector 13, Chandigarh, 160101, India",
    "neighborhood": "Sector 13",
    "street": "SCO 37, above REALIANCE JEWELLS",
    "city": "Chandigarh",
    "postalCode": "160101",
    "state": "Chandigarh",
    "countryCode": "IN",
    "phone": "+918360767741",
    "phoneUnformatted": "+918360767741",
    "location": {
      "lat": 30.7105528,
      "lng": 76.8399591
    },
    "totalScore": 3.7,
    "permanentlyClosed": false,
    "temporarilyClosed": false,
    "placeId": "ChIJWzmpTnvtDzkRPlm98xFjBvU",
    "categories": [
      "Car dealer"
    ],
    "reviewsCount": 19,
    "imagesCount": 5,
    "openingHours": [
      {
        "day": "Monday",
        "hours": "10 AM to 6:30 PM"
      },
      {
        "day": "Tuesday",
        "hours": "10 AM to 6:30 PM"
      },
      {
        "day": "Wednesday",
        "hours": "10 AM to 6:30 PM"
      },
      {
        "day": "Thursday",
        "hours": "10 AM to 6:30 PM"
      },
      {
        "day": "Friday",
        "hours": "10 AM to 6:30 PM"
      },
      {
        "day": "Saturday",
        "hours": "10 AM to 6:30 PM"
      },
      {
        "day": "Sunday",
        "hours": "10 AM to 6:30 PM"
      }
    ],
    "imageUrl": "https://lh3.googleusercontent.com/gps-cs-s/AG0ilSzYqbpiuO7NGPQJHt3-am_4qPblAwFYSuTwJ1CtIvCO916K1RVQ-EOf01AjPEnYxc1PN8QqklMEBM5xb5nL_JwVIMVMhcthOD_qbPhloMY3nHlesIkVsXMVv6FiO63UVWQ6eBU=w408-h543-k-no",
    "url": "https://www.google.com/maps/search/?api=1&query=GOPAL%20CAR%20BAZAR&query_place_id=ChIJWzmpTnvtDzkRPlm98xFjBvU"
  },
  {
    "title": "GTS- Hire Tempo Traveller in Chandigarh.",
    "subTitle": "ਗਿੱਲ ਟੈਕਸੀ ਸੇਵਾ",
    "categoryName": "Car rental agency",
    "address": "Opp. SCO 1,2,3, Near Labor Chowk Round About, sector 20 -D, Chandigarh, 160020, India",
    "neighborhood": "Sector 20D, Sector 20",
    "street": "Opp. SCO 1,2,3, Near Labor Chowk Round About, sector 20 -D",
    "city": "Chandigarh",
    "postalCode": "160020",
    "state": "Chandigarh",
    "countryCode": "IN",
    "phone": "+919216728816",
    "phoneUnformatted": "+919216728816",
    "location": {
      "lat": 30.720318,
      "lng": 76.774163
    },
    "totalScore": 4.7,
    "permanentlyClosed": false,
    "temporarilyClosed": false,
    "placeId": "ChIJK-Y7X6vtDzkRiHp9rJBqSEo",
    "categories": [
      "Car rental agency",
      "Car leasing service",
      "Taxi service",
      "Travel agency"
    ],
    "reviewsCount": 258,
    "imagesCount": 50,
    "openingHours": [],
    "imageUrl": "https://lh3.googleusercontent.com/p/AF1QipN9Tv4JJEnvSqC7um-tLHh6dyRmn5ZZtqEmRH8i=w924-h240-k-no",
    "url": "https://www.google.com/maps/search/?api=1&query=GTS-%20Hire%20Tempo%20Traveller%20in%20Chandigarh.&query_place_id=ChIJK-Y7X6vtDzkRiHp9rJBqSEo"
  },
  {
    "title": "Gagan Travels – Self Drive Car Rental Chandigarh",
    "categoryName": "Car rental agency",
    "address": "SCO 53, Sector 47C, 47C, Sector 47, Chandigarh, 160047, India",
    "neighborhood": "Sector 47C, 47C, Sector 47",
    "street": "SCO 53",
    "city": "Chandigarh",
    "postalCode": "160047",
    "state": "Chandigarh",
    "countryCode": "IN",
    "website": "https://gaganselfdrivecars.com/",
    "phone": "+919888110039",
    "phoneUnformatted": "+919888110039",
    "location": {
      "lat": 30.6948403,
      "lng": 76.7702519
    },
    "totalScore": 5,
    "permanentlyClosed": false,
    "temporarilyClosed": false,
    "placeId": "ChIJ_aYKWA_tDzkRLi4WQcZmwUc",
    "categories": [
      "Car rental agency"
    ],
    "reviewsCount": 97,
    "imagesCount": 35,
    "openingHours": [
      {
        "day": "Monday",
        "hours": "Open 24 hours"
      },
      {
        "day": "Tuesday",
        "hours": "Open 24 hours"
      },
      {
        "day": "Wednesday",
        "hours": "Open 24 hours"
      },
      {
        "day": "Thursday",
        "hours": "Open 24 hours"
      },
      {
        "day": "Friday",
        "hours": "Open 24 hours"
      },
      {
        "day": "Saturday",
        "hours": "Open 24 hours"
      },
      {
        "day": "Sunday",
        "hours": "6 AM to 11 PM"
      }
    ],
    "imageUrl": "https://lh3.googleusercontent.com/p/AF1QipODGu3D33Lqi8pFjmCFPpUbhGNvldENYz4n6Ncr=w408-h544-k-no",
    "url": "https://www.google.com/maps/search/?api=1&query=Gagan%20Travels%20%E2%80%93%20Self%20Drive%20Car%20Rental%20Chandigarh&query_place_id=ChIJ_aYKWA_tDzkRLi4WQcZmwUc"
  },
  {
    "title": "Gupta Tour & Travels Chandigarh (Chandigarh Self Drive Cars)",
    "categoryName": "Car rental agency",
    "address": "Sector 44D, Sector 44, Chandigarh, 160043, India",
    "neighborhood": "Sector 44D, Sector 44",
    "city": "Chandigarh",
    "postalCode": "160043",
    "state": "Chandigarh",
    "countryCode": "IN",
    "website": "https://www.guptatourtravels.in/",
    "phone": "+919872008111",
    "phoneUnformatted": "+919872008111",
    "location": {
      "lat": 30.7149837,
      "lng": 76.7519827
    },
    "totalScore": 4.7,
    "permanentlyClosed": false,
    "temporarilyClosed": false,
    "placeId": "ChIJVVVVhTPsDzkRcmvCx1vmROc",
    "categories": [
      "Car rental agency",
      "Car leasing service"
    ],
    "reviewsCount": 93,
    "imagesCount": 32,
    "openingHours": [
      {
        "day": "Monday",
        "hours": "Open 24 hours"
      },
      {
        "day": "Tuesday",
        "hours": "Open 24 hours"
      },
      {
        "day": "Wednesday",
        "hours": "Open 24 hours"
      },
      {
        "day": "Thursday",
        "hours": "Open 24 hours"
      },
      {
        "day": "Friday",
        "hours": "Open 24 hours"
      },
      {
        "day": "Saturday",
        "hours": "Open 24 hours"
      },
      {
        "day": "Sunday",
        "hours": "Open 24 hours"
      }
    ],
    "imageUrl": "https://lh3.googleusercontent.com/p/AF1QipNAZ5sbotKRCrZKTU7brVRmdh5LBOV2YtpmOVw=w408-h272-k-no",
    "url": "https://www.google.com/maps/search/?api=1&query=Gupta%20Tour%20%26%20Travels%20Chandigarh%20(Chandigarh%20Self%20Drive%20Cars)&query_place_id=ChIJVVVVhTPsDzkRcmvCx1vmROc"
  },
  {
    "title": "HIRA CARS",
    "categoryName": "Car sharing location",
    "address": "Buterla, Sector 41B, Sector 41, Chandigarh, 160036, India",
    "neighborhood": "Buterla, Sector 41B, Sector 41",
    "city": "Chandigarh",
    "postalCode": "160036",
    "state": "Chandigarh",
    "countryCode": "IN",
    "website": "https://instagram.com/cars_hira?igshid=YWJhMjlhZTc=",
    "phone": "+919780828098",
    "phoneUnformatted": "+919780828098",
    "location": {
      "lat": 30.7331218,
      "lng": 76.7395715
    },
    "totalScore": 5,
    "permanentlyClosed": false,
    "temporarilyClosed": false,
    "placeId": "ChIJr8fwuuztDzkRA_bthsjFXRg",
    "categories": [
      "Car sharing location"
    ],
    "reviewsCount": 1,
    "imagesCount": 37,
    "openingHours": [],
    "imageUrl": "https://lh3.googleusercontent.com/p/AF1QipPesOeo1vnf-n18eFNbCs3vV2RHsC6HdnLQzqen=w507-h240-k-no",
    "url": "https://www.google.com/maps/search/?api=1&query=HIRA%20CARS&query_place_id=ChIJr8fwuuztDzkRA_bthsjFXRg"
  },
  {
    "title": "Harmony Honda",
    "subTitle": "ਹਾਰਮਨੀ ਹੌਂਡਾ",
    "categoryName": "Car dealer",
    "address": "Plot No 67, Industrial Area Phase II, Chandigarh, 160002, India",
    "neighborhood": "Industrial Area Phase II",
    "street": "Plot No 67",
    "city": "Chandigarh",
    "postalCode": "160002",
    "state": "Chandigarh",
    "countryCode": "IN",
    "website": "https://dealer.hondacarindia.com/harmony-honda-m-s-joshi-automotives-pvt-ltd-car-dealer-industrial-area-chandigarh-67220/Home",
    "phone": "+918657588862",
    "phoneUnformatted": "+918657588862",
    "location": {
      "lat": 30.6983132,
      "lng": 76.7857933
    },
    "totalScore": 4.6,
    "permanentlyClosed": false,
    "temporarilyClosed": false,
    "placeId": "ChIJH2mMF6btDzkREC5VldGbmXo",
    "categories": [
      "Car dealer",
      "Auto dent removal service",
      "Auto repair shop",
      "Car accessories store",
      "Honda dealer"
    ],
    "reviewsCount": 4100,
    "imagesCount": 330,
    "openingHours": [
      {
        "day": "Monday",
        "hours": "9:30 AM to 6:30 PM"
      },
      {
        "day": "Tuesday",
        "hours": "9:30 AM to 6:30 PM"
      },
      {
        "day": "Wednesday",
        "hours": "9:30 AM to 6:30 PM"
      },
      {
        "day": "Thursday",
        "hours": "9:30 AM to 6:30 PM"
      },
      {
        "day": "Friday",
        "hours": "9:30 AM to 6:30 PM"
      },
      {
        "day": "Saturday",
        "hours": "9:30 AM to 6:30 PM"
      },
      {
        "day": "Sunday",
        "hours": "9:30 AM to 6:30 PM"
      }
    ],
    "imageUrl": "https://lh3.googleusercontent.com/p/AF1QipOLozSwNSe7g_ftn8lS66vpTQlrMq1gEiyscdQa=w408-h272-k-no",
    "url": "https://www.google.com/maps/search/?api=1&query=Harmony%20Honda&query_place_id=ChIJH2mMF6btDzkREC5VldGbmXo"
  },
  {
    "title": "HiWay Cabs",
    "categoryName": "Car rental agency",
    "address": "HiWay Cabs Secretariat Parking, Capitol Complex, Sector 1, Chandigarh, 160001, India",
    "neighborhood": "Capitol Complex, Sector 1",
    "street": "HiWay Cabs Secretariat Parking",
    "city": "Chandigarh",
    "postalCode": "160001",
    "state": "Chandigarh",
    "countryCode": "IN",
    "website": "https://hiwaycabs.com/",
    "phone": "+918872711111",
    "phoneUnformatted": "+918872711111",
    "location": {
      "lat": 30.761358,
      "lng": 76.7987592
    },
    "totalScore": 4.9,
    "permanentlyClosed": false,
    "temporarilyClosed": false,
    "placeId": "ChIJtfNEDrTtDzkRMBtrTe8bQUg",
    "categories": [
      "Car rental agency",
      "Car leasing service",
      "Taxi service",
      "Minibus taxi service",
      "Sightseeing tour agency",
      "Tour agency",
      "Transportation service"
    ],
    "reviewsCount": 1357,
    "imagesCount": 91,
    "openingHours": [],
    "imageUrl": "https://lh3.googleusercontent.com/p/AF1QipMedXZumhuZpvrcfo3jdKEjFbkP1EcrLS4QdJpH=w408-h306-k-no",
    "url": "https://www.google.com/maps/search/?api=1&query=HiWay%20Cabs&query_place_id=ChIJtfNEDrTtDzkRMBtrTe8bQUg"
  },
  {
    "title": "Himalayan Bike & Car Rentals",
    "categoryName": "Car rental agency",
    "address": "ISBT 43 Road, SECTOR 42C, Sector 42, Chandigarh, 160036, India",
    "neighborhood": "SECTOR 42C, Sector 42",
    "street": "ISBT 43 Road",
    "city": "Chandigarh",
    "postalCode": "160036",
    "state": "Chandigarh",
    "countryCode": "IN",
    "website": "https://www.himalayanbikeandcarsrentals.com/",
    "phone": "+919814142814",
    "phoneUnformatted": "+919814142814",
    "location": {
      "lat": 30.7228939,
      "lng": 76.7452234
    },
    "totalScore": 4.7,
    "permanentlyClosed": false,
    "temporarilyClosed": false,
    "placeId": "ChIJ7RYJCNXtDzkRPoHd556C98E",
    "categories": [
      "Car rental agency",
      "Car leasing service",
      "Motorcycle rental agency",
      "Leasing service",
      "Scooter rental service",
      "Tour operator",
      "Travel agency"
    ],
    "reviewsCount": 127,
    "imagesCount": 210,
    "openingHours": [
      {
        "day": "Monday",
        "hours": "Open 24 hours"
      },
      {
        "day": "Tuesday",
        "hours": "Open 24 hours"
      },
      {
        "day": "Wednesday",
        "hours": "Open 24 hours"
      },
      {
        "day": "Thursday",
        "hours": "Open 24 hours"
      },
      {
        "day": "Friday",
        "hours": "Open 24 hours"
      },
      {
        "day": "Saturday",
        "hours": "Open 24 hours"
      },
      {
        "day": "Sunday",
        "hours": "Open 24 hours"
      }
    ],
    "imageUrl": "https://lh3.googleusercontent.com/gps-cs-s/AG0ilSyCicMBDndxyFdYdRwuPtJcoekTeRZEEMS0LJORyjwmkBGWdGMnkaxvFhflC3Nq_Wg5LAbWa24Ngsq-tL6DCXgJsLrJMx8aOxbm6hQzxgQghLz_Kl3VM_CLtOmLMwAKlIDI_vq5=w408-h306-k-no",
    "url": "https://www.google.com/maps/search/?api=1&query=Himalayan%20Bike%20%26%20Car%20Rentals&query_place_id=ChIJ7RYJCNXtDzkRPoHd556C98E"
  },
  {
    "title": "Hypersonic",
    "subTitle": "ਹ੍ਯ੍ਪੇਰ੍ਸੋਨਿਕ",
    "categoryName": "Car accessories store",
    "address": "Shop no. 108, beside Kotak mahindra atm, Sector 28 D, Sector 28, Chandigarh, 160002, India",
    "neighborhood": "Sector 28 D, Sector 28",
    "street": "Shop no. 108, beside Kotak mahindra atm",
    "city": "Chandigarh",
    "postalCode": "160002",
    "state": "Chandigarh",
    "countryCode": "IN",
    "location": {
      "lat": 30.7174744,
      "lng": 76.8027225
    },
    "totalScore": 3.3,
    "permanentlyClosed": false,
    "temporarilyClosed": false,
    "placeId": "ChIJ6RprcdntDzkRBuUV6aGJ6fo",
    "categories": [
      "Car accessories store",
      "Car stereo store"
    ],
    "reviewsCount": 13,
    "imagesCount": 2,
    "openingHours": [
      {
        "day": "Monday",
        "hours": "11 AM to 8 PM"
      },
      {
        "day": "Tuesday",
        "hours": "11 AM to 8 PM"
      },
      {
        "day": "Wednesday",
        "hours": "11 AM to 8 PM"
      },
      {
        "day": "Thursday",
        "hours": "11 AM to 8 PM"
      },
      {
        "day": "Friday",
        "hours": "11 AM to 8 PM"
      },
      {
        "day": "Saturday",
        "hours": "11 AM to 8 PM"
      },
      {
        "day": "Sunday",
        "hours": "11 AM to 8 PM"
      }
    ],
    "imageUrl": "https://streetviewpixels-pa.googleapis.com/v1/thumbnail?panoid=NPpmW5LZUg7iy8XPZQikQw&cb_client=search.gws-prod.gps&w=408&h=240&yaw=229.14023&pitch=0&thumbfov=100",
    "url": "https://www.google.com/maps/search/?api=1&query=Hypersonic&query_place_id=ChIJ6RprcdntDzkRBuUV6aGJ6fo"
  },
  {
    "title": "INDIAN AUTOS | Used Car Dealers | Secondhand Car Dealers | Preowned Car Dealers | Luxury Car Dealers in Chandigarh",
    "categoryName": "Car dealer",
    "address": "House no. 233, near D A V MODEL SCHOOL, Sector 15-A, Sector 15, Chandigarh, 160015, India",
    "neighborhood": "Sector 15-A, Sector 15",
    "street": "House no. 233, near D A V MODEL SCHOOL",
    "city": "Chandigarh",
    "postalCode": "160015",
    "state": "Chandigarh",
    "countryCode": "IN",
    "phone": "+919814001268",
    "phoneUnformatted": "+919814001268",
    "location": {
      "lat": 30.7547848,
      "lng": 76.7756403
    },
    "totalScore": 4.9,
    "permanentlyClosed": false,
    "temporarilyClosed": false,
    "placeId": "ChIJ___PNhrtDzkRmPwY0krinr0",
    "categories": [
      "Car dealer"
    ],
    "reviewsCount": 158,
    "imagesCount": 85,
    "openingHours": [
      {
        "day": "Monday",
        "hours": "10 AM to 7 PM"
      },
      {
        "day": "Tuesday",
        "hours": "10 AM to 7 PM"
      },
      {
        "day": "Wednesday",
        "hours": "10 AM to 7 PM"
      },
      {
        "day": "Thursday",
        "hours": "10 AM to 7 PM"
      },
      {
        "day": "Friday",
        "hours": "10 AM to 7 PM"
      },
      {
        "day": "Saturday",
        "hours": "10 AM to 7 PM"
      },
      {
        "day": "Sunday",
        "hours": "10 AM to 7 PM"
      }
    ],
    "imageUrl": "https://lh3.googleusercontent.com/p/AF1QipNdv6nFBUF2PQr6hBMEjfGU93I69KJOFYPSTaAp=w408-h311-k-no",
    "url": "https://www.google.com/maps/search/?api=1&query=INDIAN%20AUTOS%20%7C%20Used%20Car%20Dealers%20%7C%20Secondhand%20Car%20Dealers%20%7C%20Preowned%20Car%20Dealers%20%7C%20Luxury%20Car%20Dealers%20in%20Chandigarh&query_place_id=ChIJ___PNhrtDzkRmPwY0krinr0"
  },
  {
    "title": "Kamal Cars Chandigarh",
    "categoryName": "Used car dealer",
    "address": "SCO 106 SECTOR, 47C, Chandigarh, 160047, India",
    "neighborhood": "47C, Sector 47",
    "street": "SCO 106 SECTOR",
    "city": "Chandigarh",
    "postalCode": "160047",
    "state": "Chandigarh",
    "countryCode": "IN",
    "phone": "+919914803464",
    "phoneUnformatted": "+919914803464",
    "location": {
      "lat": 30.6936681,
      "lng": 76.7712769
    },
    "totalScore": 4.7,
    "permanentlyClosed": false,
    "temporarilyClosed": false,
    "placeId": "ChIJk59teevtDzkRcLtPMxSjzFM",
    "categories": [
      "Used car dealer"
    ],
    "reviewsCount": 256,
    "imagesCount": 677,
    "openingHours": [
      {
        "day": "Monday",
        "hours": "9:30 AM to 7 PM"
      },
      {
        "day": "Tuesday",
        "hours": "9:30 AM to 7 PM"
      },
      {
        "day": "Wednesday",
        "hours": "9:30 AM to 7 PM"
      },
      {
        "day": "Thursday",
        "hours": "9:30 AM to 7 PM"
      },
      {
        "day": "Friday",
        "hours": "9:30 AM to 7 PM"
      },
      {
        "day": "Saturday",
        "hours": "9:30 AM to 7 PM"
      },
      {
        "day": "Sunday",
        "hours": "9:30 AM to 7 PM"
      }
    ],
    "imageUrl": "https://lh3.googleusercontent.com/p/AF1QipNqgIlYplG5wsWPvCpqXkzYr5JEAhYoDzkVRztQ=w408-h331-k-no",
    "url": "https://www.google.com/maps/search/?api=1&query=Kamal%20Cars%20Chandigarh&query_place_id=ChIJk59teevtDzkRcLtPMxSjzFM"
  },
  {
    "title": "Kartar Travels Chandigarh - Luxury Urbania / Tempo Traveller/ Luxury Bus/ Volvo Bus Hire in Chandigarh",
    "categoryName": "Car rental agency",
    "address": "Kiran Travels, opp. ISBT Road, Kajheri Village, Sector 43, Chandigarh, 160036, India",
    "neighborhood": "Kajheri Village, Sector 43",
    "street": "Kiran Travels, opp. ISBT Road",
    "city": "Chandigarh",
    "postalCode": "160036",
    "state": "Chandigarh",
    "countryCode": "IN",
    "website": "https://kartar-travels-private.grexa.site/",
    "location": {
      "lat": 30.7151001,
      "lng": 76.7429046
    },
    "totalScore": 5,
    "permanentlyClosed": false,
    "temporarilyClosed": false,
    "placeId": "ChIJZczNGE_tDzkREiLJ5kXFOog",
    "categories": [
      "Car rental agency",
      "Bus company",
      "Bus tour agency",
      "Tour operator",
      "Tourist attraction",
      "Transportation service",
      "Van rental agency"
    ],
    "reviewsCount": 3,
    "imagesCount": 5,
    "openingHours": [],
    "imageUrl": "https://lh3.googleusercontent.com/p/AF1QipMiuaJ3rf3tAdEoQsilt-DgDz8vEGehXfeu5kt0=w408-h273-k-no",
    "url": "https://www.google.com/maps/search/?api=1&query=Kartar%20Travels%20Chandigarh%20-%20Luxury%20Urbania%20%2F%20Tempo%20Traveller%2F%20Luxury%20Bus%2F%20Volvo%20Bus%20Hire%20in%20Chandigarh&query_place_id=ChIJZczNGE_tDzkREiLJ5kXFOog"
  },
  {
    "title": "King Autos",
    "categoryName": "Car accessories store",
    "address": "Booth No. 105, Sector 28 D, Sector 28, Chandigarh, 160002, India",
    "neighborhood": "Sector 28 D, Sector 28",
    "street": "Booth No. 105",
    "city": "Chandigarh",
    "postalCode": "160002",
    "state": "Chandigarh",
    "countryCode": "IN",
    "location": {
      "lat": 30.717649,
      "lng": 76.8027964
    },
    "totalScore": 5,
    "permanentlyClosed": false,
    "temporarilyClosed": false,
    "placeId": "ChIJP1_aNjjtDzkR6xmdqMbniVk",
    "categories": [
      "Car accessories store"
    ],
    "reviewsCount": 270,
    "imagesCount": 12,
    "openingHours": [
      {
        "day": "Monday",
        "hours": "10:30 AM to 9:30 PM"
      },
      {
        "day": "Tuesday",
        "hours": "10:30 AM to 9:30 PM"
      },
      {
        "day": "Wednesday",
        "hours": "10:30 AM to 9:30 PM"
      },
      {
        "day": "Thursday",
        "hours": "10:30 AM to 9:30 PM"
      },
      {
        "day": "Friday",
        "hours": "10:30 AM to 9:30 PM"
      },
      {
        "day": "Saturday",
        "hours": "10:30 AM to 9:30 PM"
      },
      {
        "day": "Sunday",
        "hours": "10:30 AM to 9:30 PM"
      }
    ],
    "imageUrl": "https://lh3.googleusercontent.com/p/AF1QipMFrIzuNx-0TPMoaLX2b6ZFpk0FEwla9jCeYnqz=w408-h543-k-no",
    "url": "https://www.google.com/maps/search/?api=1&query=King%20Autos&query_place_id=ChIJP1_aNjjtDzkR6xmdqMbniVk"
  },
  {
    "title": "Krishna Auto Sales - Volvo Cars",
    "categoryName": "Car dealer",
    "address": "Elante Mall, Business Block, Industrial Area Phase I, Chandigarh, 160002, India",
    "neighborhood": "Industrial Area Phase I",
    "street": "Elante Mall, Business Block",
    "city": "Chandigarh",
    "postalCode": "160002",
    "state": "Chandigarh",
    "countryCode": "IN",
    "website": "http://krishnavolvocars.in/",
    "phone": "+919814975632",
    "phoneUnformatted": "+919814975632",
    "location": {
      "lat": 30.705493,
      "lng": 76.8012561
    },
    "totalScore": 4.2,
    "permanentlyClosed": false,
    "temporarilyClosed": false,
    "placeId": "ChIJfb05Xe3sDzkRP8NCw-qbaec",
    "categories": [
      "Car dealer",
      "Volvo dealer"
    ],
    "reviewsCount": 101,
    "imagesCount": 29,
    "openingHours": [
      {
        "day": "Monday",
        "hours": "10 AM to 7 PM"
      },
      {
        "day": "Tuesday",
        "hours": "10 AM to 7 PM"
      },
      {
        "day": "Wednesday",
        "hours": "10 AM to 7 PM"
      },
      {
        "day": "Thursday",
        "hours": "10 AM to 7 PM"
      },
      {
        "day": "Friday",
        "hours": "10 AM to 7 PM"
      },
      {
        "day": "Saturday",
        "hours": "10 AM to 7 PM"
      },
      {
        "day": "Sunday",
        "hours": "11:30 AM to 6:30 PM"
      }
    ],
    "imageUrl": "https://lh3.googleusercontent.com/p/AF1QipMPzsrFZX1ZSOwYplKkWBBgfArpE9QwLknRLMn4=w408-h306-k-no",
    "url": "https://www.google.com/maps/search/?api=1&query=Krishna%20Auto%20Sales%20-%20Volvo%20Cars&query_place_id=ChIJfb05Xe3sDzkRP8NCw-qbaec"
  },
  {
    "title": "Land Rover Dada Motors",
    "subTitle": "ਲੈਂਡ ਰੋਵਰ ਦਾਦਾ ਮੋਟਰਜ਼",
    "categoryName": "Land Rover dealer",
    "address": "Showroom No. 8, Hotel Taj, Shopping Arcade, 17A, Sector 17, Chandigarh, 160017, India",
    "neighborhood": "17A, Sector 17",
    "street": "Showroom No. 8, Hotel Taj, Shopping Arcade",
    "city": "Chandigarh",
    "postalCode": "160017",
    "state": "Chandigarh",
    "countryCode": "IN",
    "website": "https://retailers.landrover.in/dada-motors-chandigarh?utm_source=Yext&utm_medium=organic&utm_campaign=M013410801",
    "phone": "+919041048962",
    "phoneUnformatted": "+919041048962",
    "location": {
      "lat": 30.7454432,
      "lng": 76.7850575
    },
    "totalScore": 4.4,
    "permanentlyClosed": false,
    "temporarilyClosed": false,
    "placeId": "ChIJGY4BhnTtDzkRDAT0lQwCPtc",
    "categories": [
      "Land Rover dealer",
      "Car dealer",
      "Used car dealer"
    ],
    "reviewsCount": 161,
    "imagesCount": 68,
    "openingHours": [
      {
        "day": "Monday",
        "hours": "9 AM to 6:30 PM"
      },
      {
        "day": "Tuesday",
        "hours": "9 AM to 6:30 PM"
      },
      {
        "day": "Wednesday",
        "hours": "9 AM to 6:30 PM"
      },
      {
        "day": "Thursday",
        "hours": "9 AM to 6:30 PM"
      },
      {
        "day": "Friday",
        "hours": "9 AM to 6:30 PM"
      },
      {
        "day": "Saturday",
        "hours": "9 AM to 6:30 PM"
      },
      {
        "day": "Sunday",
        "hours": "Closed"
      }
    ],
    "imageUrl": "https://lh3.googleusercontent.com/gps-cs-s/AG0ilSwWLU-y2i36MS21u35lJn2giok65oH52-UN0g2KW8HUjp_k0Wn6kKD_5Vq0Ti74rMiy5sx0PEAgfI4gvlpKO34-ItDHb5vU0Ssd_nuf274331xxBsavt_Wshj1iPMk6sO2Eh2sa=w408-h544-k-no",
    "url": "https://www.google.com/maps/search/?api=1&query=Land%20Rover%20Dada%20Motors&query_place_id=ChIJGY4BhnTtDzkRDAT0lQwCPtc"
  },
  {
    "title": "Lexus Chandigarh",
    "subTitle": "ਲੈਕਸਸ ਚੰਡੀਗੜ੍ਹ",
    "categoryName": "Lexus dealer",
    "address": "177-h, Ginger Hotel Rd, Industrial Area Phase I, Chandigarh, 160002, India",
    "neighborhood": "Industrial Area Phase I",
    "street": "177-h, Ginger Hotel Rd",
    "city": "Chandigarh",
    "postalCode": "160002",
    "state": "Chandigarh",
    "countryCode": "IN",
    "website": "https://www.lexusindia.co.in/en/dealers/chandigarh.html",
    "phone": "+919501023442",
    "phoneUnformatted": "+919501023442",
    "location": {
      "lat": 30.7051347,
      "lng": 76.7978852
    },
    "totalScore": 4.1,
    "permanentlyClosed": false,
    "temporarilyClosed": false,
    "placeId": "ChIJG52BUfTtDzkRXSqzAje1kvU",
    "categories": [
      "Lexus dealer",
      "Car dealer"
    ],
    "reviewsCount": 23,
    "imagesCount": 11,
    "openingHours": [
      {
        "day": "Monday",
        "hours": "9 AM to 6:30 PM"
      },
      {
        "day": "Tuesday",
        "hours": "9 AM to 6:30 PM"
      },
      {
        "day": "Wednesday",
        "hours": "9 AM to 6:30 PM"
      },
      {
        "day": "Thursday",
        "hours": "9 AM to 6:30 PM"
      },
      {
        "day": "Friday",
        "hours": "9 AM to 6:30 PM"
      },
      {
        "day": "Saturday",
        "hours": "9 AM to 6:30 PM"
      },
      {
        "day": "Sunday",
        "hours": "Closed"
      }
    ],
    "imageUrl": "https://lh3.googleusercontent.com/gps-cs-s/AG0ilSyU7tifRC0E4ObInbupfVTCrs8CEwsjnaFvq3QXqg02SKLdXIgdmtaR49tMPdlCrguSIJuOD1EcZwl3Ul-7RuiuctxR2fWU-mDhaRvwsRR-r-BABambUmuE1fL66aDO15efZoO44PKKxBOo=w408-h306-k-no",
    "url": "https://www.google.com/maps/search/?api=1&query=Lexus%20Chandigarh&query_place_id=ChIJG52BUfTtDzkRXSqzAje1kvU"
  },
  {
    "title": "Luxury Tempo Traveller in Chandigarh",
    "categoryName": "Car leasing service",
    "address": "355/2, Sector 41A, Sector 41, Chandigarh, 160036, India",
    "neighborhood": "Sector 41A, Sector 41",
    "street": "355/2",
    "city": "Chandigarh",
    "postalCode": "160036",
    "state": "Chandigarh",
    "countryCode": "IN",
    "website": "https://www.luxurytempotravellerchandigarh.com/",
    "phone": "+919878987474",
    "phoneUnformatted": "+919878987474",
    "location": {
      "lat": 30.7345768,
      "lng": 76.7386641
    },
    "totalScore": 5,
    "permanentlyClosed": false,
    "temporarilyClosed": false,
    "placeId": "ChIJkcdP8ZvtDzkRpzcgCasuSdU",
    "categories": [
      "Car leasing service",
      "Tour operator",
      "Taxi service",
      "Tour agency",
      "Travel agency"
    ],
    "reviewsCount": 15,
    "imagesCount": 25,
    "openingHours": [
      {
        "day": "Monday",
        "hours": "Open 24 hours"
      },
      {
        "day": "Tuesday",
        "hours": "Open 24 hours"
      },
      {
        "day": "Wednesday",
        "hours": "Open 24 hours"
      },
      {
        "day": "Thursday",
        "hours": "Open 24 hours"
      },
      {
        "day": "Friday",
        "hours": "Open 24 hours"
      },
      {
        "day": "Saturday",
        "hours": "Open 24 hours"
      },
      {
        "day": "Sunday",
        "hours": "Open 24 hours"
      }
    ],
    "imageUrl": "https://lh3.googleusercontent.com/p/AF1QipNrDS0QgRiJWMhkF8oNLvNpazhFlsmVSMDo9xtH=w408-h306-k-no",
    "url": "https://www.google.com/maps/search/?api=1&query=Luxury%20Tempo%20Traveller%20in%20Chandigarh&query_place_id=ChIJkcdP8ZvtDzkRpzcgCasuSdU"
  },
  {
    "title": "MG Motor Krishna Motor Showroom",
    "categoryName": "MG dealer",
    "address": "182/15, Industrial Area Phase I, Chandigarh, 160002, India",
    "neighborhood": "Industrial Area Phase I",
    "street": "182/15",
    "city": "Chandigarh",
    "postalCode": "160002",
    "state": "Chandigarh",
    "countryCode": "IN",
    "website": "https://dealers.mgmotor.co.in/mg-motor-krishna-motor-showroom-car-dealer-industrial-area-chandigarh-371852/Home",
    "phone": "+917888799210",
    "phoneUnformatted": "+917888799210",
    "location": {
      "lat": 30.7011562,
      "lng": 76.7955074
    },
    "totalScore": 3.8,
    "permanentlyClosed": false,
    "temporarilyClosed": false,
    "placeId": "ChIJGVjJSA3rDzkRdgG4247yhuQ",
    "categories": [
      "MG dealer",
      "Car dealer",
      "Motor vehicle dealer"
    ],
    "reviewsCount": 357,
    "imagesCount": 40,
    "openingHours": [
      {
        "day": "Monday",
        "hours": "10 AM to 7 PM"
      },
      {
        "day": "Tuesday",
        "hours": "10 AM to 7 PM"
      },
      {
        "day": "Wednesday",
        "hours": "10 AM to 7 PM"
      },
      {
        "day": "Thursday",
        "hours": "10 AM to 7 PM"
      },
      {
        "day": "Friday",
        "hours": "10 AM to 7 PM"
      },
      {
        "day": "Saturday",
        "hours": "10 AM to 7 PM"
      },
      {
        "day": "Sunday",
        "hours": "10 AM to 12 AM"
      }
    ],
    "imageUrl": "https://lh3.googleusercontent.com/p/AF1QipMT7Ft9UGjH2o9fAGccwNhyfLYlP9v14aNn2sb8=w408-h306-k-no",
    "url": "https://www.google.com/maps/search/?api=1&query=MG%20Motor%20Krishna%20Motor%20Showroom&query_place_id=ChIJGVjJSA3rDzkRdgG4247yhuQ"
  },
  {
    "title": "Maggu Brothers",
    "categoryName": "Car accessories store",
    "address": "SCO 122, Sector 28 D, Sector 28, Chandigarh, 160002, India",
    "neighborhood": "Sector 28 D, Sector 28",
    "street": "SCO 122",
    "city": "Chandigarh",
    "postalCode": "160002",
    "state": "Chandigarh",
    "countryCode": "IN",
    "phone": "+917087650048",
    "phoneUnformatted": "+917087650048",
    "location": {
      "lat": 30.7181638,
      "lng": 76.8022424
    },
    "totalScore": 4.5,
    "permanentlyClosed": false,
    "temporarilyClosed": false,
    "placeId": "ChIJ1xhaonrtDzkRIsBbymiiYP0",
    "categories": [
      "Car accessories store"
    ],
    "reviewsCount": 690,
    "imagesCount": 26,
    "openingHours": [
      {
        "day": "Monday",
        "hours": "11 AM to 8 PM"
      },
      {
        "day": "Tuesday",
        "hours": "11 AM to 8 PM"
      },
      {
        "day": "Wednesday",
        "hours": "11 AM to 8 PM"
      },
      {
        "day": "Thursday",
        "hours": "11 AM to 8 PM"
      },
      {
        "day": "Friday",
        "hours": "11 AM to 8 PM"
      },
      {
        "day": "Saturday",
        "hours": "11 AM to 8 PM"
      },
      {
        "day": "Sunday",
        "hours": "11 AM to 8 PM"
      }
    ],
    "imageUrl": "https://lh3.googleusercontent.com/p/AF1QipM_o1IPzmJCbYIUvczeK7EvhEPdbZC9f2AGBg-O=w408-h544-k-no",
    "url": "https://www.google.com/maps/search/?api=1&query=Maggu%20Brothers&query_place_id=ChIJ1xhaonrtDzkRIsBbymiiYP0"
  },
  {
    "title": "Mavi Tour & Travels",
    "subTitle": "ਮਾਵੀ ਟੂਰ & ਟਰੈਵਲਜ਼",
    "categoryName": "Car leasing service",
    "address": "Sector 22-23, Light Point, Sector 23- C, Chandigarh, 160023, India",
    "neighborhood": "Light Point, Sector 23- C",
    "street": "Sector 22-23",
    "city": "Chandigarh",
    "postalCode": "160023",
    "state": "Chandigarh",
    "countryCode": "IN",
    "website": "https://mavitravels.in/",
    "location": {
      "lat": 30.73607,
      "lng": 76.76749
    },
    "totalScore": 4.8,
    "permanentlyClosed": false,
    "temporarilyClosed": false,
    "placeId": "ChIJq6qqqgvtDzkRgT02-KRCyzo",
    "categories": [
      "Car leasing service",
      "Taxi service",
      "Tour operator"
    ],
    "reviewsCount": 69,
    "imagesCount": 43,
    "openingHours": [
      {
        "day": "Monday",
        "hours": "Open 24 hours"
      },
      {
        "day": "Tuesday",
        "hours": "Open 24 hours"
      },
      {
        "day": "Wednesday",
        "hours": "Open 24 hours"
      },
      {
        "day": "Thursday",
        "hours": "Open 24 hours"
      },
      {
        "day": "Friday",
        "hours": "Open 24 hours"
      },
      {
        "day": "Saturday",
        "hours": "Open 24 hours"
      },
      {
        "day": "Sunday",
        "hours": "Open 24 hours"
      }
    ],
    "imageUrl": "https://lh3.googleusercontent.com/p/AF1QipNEE0nIlkyUaYqkAtCU902iyPUbbwcVddmtvnSE=w408-h306-k-no",
    "url": "https://www.google.com/maps/search/?api=1&query=Mavi%20Tour%20%26%20Travels&query_place_id=ChIJq6qqqgvtDzkRgT02-KRCyzo"
  },
  {
    "title": "MidTown self drive car & Bike rental In Chandigarh",
    "categoryName": "Car rental agency",
    "address": "near police sation, Sector 45C, Sector 45, Chandigarh, 160047, India",
    "neighborhood": "Sector 45C, Sector 45",
    "street": "near police sation",
    "city": "Chandigarh",
    "postalCode": "160047",
    "state": "Chandigarh",
    "countryCode": "IN",
    "location": {
      "lat": 30.7046295,
      "lng": 76.7573572
    },
    "totalScore": 4.8,
    "permanentlyClosed": false,
    "temporarilyClosed": false,
    "placeId": "ChIJf675bxntDzkRmCxgQFPSpdk",
    "categories": [
      "Car rental agency",
      "Car leasing service",
      "Taxi service"
    ],
    "reviewsCount": 75,
    "imagesCount": 43,
    "openingHours": [
      {
        "day": "Monday",
        "hours": "Open 24 hours"
      },
      {
        "day": "Tuesday",
        "hours": "Open 24 hours"
      },
      {
        "day": "Wednesday",
        "hours": "Open 24 hours"
      },
      {
        "day": "Thursday",
        "hours": "Open 24 hours"
      },
      {
        "day": "Friday",
        "hours": "Open 24 hours"
      },
      {
        "day": "Saturday",
        "hours": "Open 24 hours"
      },
      {
        "day": "Sunday",
        "hours": "Open 24 hours"
      }
    ],
    "imageUrl": "https://lh3.googleusercontent.com/p/AF1QipPbRZKiXuxb6zhxlKhjP2fEem9-O52xrV92cp47=w408-h408-k-no",
    "url": "https://www.google.com/maps/search/?api=1&query=MidTown%20self%20drive%20car%20%26%20Bike%20rental%20In%20Chandigarh&query_place_id=ChIJf675bxntDzkRmCxgQFPSpdk"
  },
  {
    "title": "Modern CAR Point",
    "subTitle": "ਮਾਡਰਨ ਕਾਰ ਪੁਆਇੰਟ",
    "categoryName": "Used car dealer",
    "address": "Plot no 4, near 28 LIGHS, Industrial Area Phase I, Chandigarh, 160002, India",
    "neighborhood": "Industrial Area Phase I",
    "street": "Plot no 4, near 28 LIGHS",
    "city": "Chandigarh",
    "postalCode": "160002",
    "state": "Chandigarh",
    "countryCode": "IN",
    "phone": "+919646477971",
    "phoneUnformatted": "+919646477971",
    "location": {
      "lat": 30.7142779,
      "lng": 76.8081127
    },
    "totalScore": 4.2,
    "permanentlyClosed": false,
    "temporarilyClosed": false,
    "placeId": "ChIJ_SGhkN_sDzkRBzEPUC5_8K8",
    "categories": [
      "Used car dealer",
      "Car dealer",
      "Car finance and loan company",
      "Motoring club"
    ],
    "reviewsCount": 425,
    "imagesCount": 845,
    "openingHours": [
      {
        "day": "Monday",
        "hours": "9 AM to 7:59 PM"
      },
      {
        "day": "Tuesday",
        "hours": "9 AM to 7:59 PM"
      },
      {
        "day": "Wednesday",
        "hours": "9 AM to 7:59 PM"
      },
      {
        "day": "Thursday",
        "hours": "9 AM to 7:59 PM"
      },
      {
        "day": "Friday",
        "hours": "9 AM to 7:59 PM"
      },
      {
        "day": "Saturday",
        "hours": "9 AM to 7:59 PM"
      },
      {
        "day": "Sunday",
        "hours": "9 AM to 7:59 PM"
      }
    ],
    "imageUrl": "https://lh3.googleusercontent.com/gps-cs-s/AG0ilSxMCwuUQ3FUUJOgMYCJDI4hJHH49r1Kf4LZBC-jvzBu_20swqW7rYqcFyP_IacddHu0AJy9WZVtqn-A03lS4bu6xIcSGDXRO6xYTArjabKonDXn8KsM4IWuSU2DXnqN935DQTC1=w408-h306-k-no",
    "url": "https://www.google.com/maps/search/?api=1&query=Modern%20CAR%20Point&query_place_id=ChIJ_SGhkN_sDzkRBzEPUC5_8K8"
  },
  {
    "title": "Mohit & Raja Car Deals",
    "subTitle": "ਮੋਹਿਤ & ਰਾਜਾ ਕਾਰ",
    "categoryName": "Used car dealer",
    "address": "Plot No 54, Industrial Area Phase I, Chandigarh, 160002, India",
    "neighborhood": "Industrial Area Phase I",
    "street": "Plot No 54",
    "city": "Chandigarh",
    "postalCode": "160002",
    "state": "Chandigarh",
    "countryCode": "IN",
    "phone": "+918872221786",
    "phoneUnformatted": "+918872221786",
    "location": {
      "lat": 30.7114338,
      "lng": 76.8044831
    },
    "totalScore": 4.8,
    "permanentlyClosed": false,
    "temporarilyClosed": false,
    "placeId": "ChIJq_JNRC6TDzkRZqDk2ZGd34w",
    "categories": [
      "Used car dealer"
    ],
    "reviewsCount": 668,
    "imagesCount": 31,
    "openingHours": [
      {
        "day": "Monday",
        "hours": "10 AM to 9 PM"
      },
      {
        "day": "Tuesday",
        "hours": "10 AM to 9 PM"
      },
      {
        "day": "Wednesday",
        "hours": "10 AM to 9 PM"
      },
      {
        "day": "Thursday",
        "hours": "10 AM to 9 PM"
      },
      {
        "day": "Friday",
        "hours": "10 AM to 9 PM"
      },
      {
        "day": "Saturday",
        "hours": "10 AM to 9 PM"
      },
      {
        "day": "Sunday",
        "hours": "10 AM to 9 PM"
      }
    ],
    "imageUrl": "https://lh3.googleusercontent.com/gps-cs-s/AG0ilSyTMQVzi9hhaP5KF1UZ3me3allHRPV3JMvC2dUdFh9PlLTVkvJu_s4X89N-DFeqhLAmgX0b4_yCZi4D4tOp4nqO5WoaGc1pbnGZ4bXUvY29J2t6VzFUXmKg38kSRkcve5m567M=w408-h544-k-no",
    "url": "https://www.google.com/maps/search/?api=1&query=Mohit%20%26%20Raja%20Car%20Deals&query_place_id=ChIJq_JNRC6TDzkRZqDk2ZGd34w"
  },
  {
    "title": "Motor Box",
    "categoryName": "Used car dealer",
    "address": "Shop No. 12 Ground Floor, Plot No.143, Industrial Area Phase I, Chandigarh, 160002, India",
    "neighborhood": "Industrial Area Phase I",
    "street": "Shop No. 12 Ground Floor, Plot No.143",
    "city": "Chandigarh",
    "postalCode": "160002",
    "state": "Chandigarh",
    "countryCode": "IN",
    "website": "http://www.motorbox.in/",
    "phone": "+919888460460",
    "phoneUnformatted": "+919888460460",
    "location": {
      "lat": 30.7093521,
      "lng": 76.8010005
    },
    "totalScore": 5,
    "permanentlyClosed": false,
    "temporarilyClosed": false,
    "placeId": "ChIJTSc4aNjrDzkRUSEruSbYOfA",
    "categories": [
      "Used car dealer",
      "Smart Car dealer",
      "Car dealer"
    ],
    "reviewsCount": 51,
    "imagesCount": 16,
    "openingHours": [],
    "imageUrl": "https://lh3.googleusercontent.com/gps-cs-s/AG0ilSzSZ7tqdvKnOF6kThrF75erdQRhnAbKIwA_vWCThxtQ0h_-l91zogZimhkYpN_POXmuWvjiYdU1-e0sr-g3rbMiwdGTzy3p6auURTNTYPzN38H970ueCXGLS-7JU2awsJA73A6b=w408-h544-k-no",
    "url": "https://www.google.com/maps/search/?api=1&query=Motor%20Box&query_place_id=ChIJTSc4aNjrDzkRUSEruSbYOfA"
  },
  {
    "title": "Mr. Cars (All Luxury Wedding Cars)",
    "categoryName": "Car rental agency",
    "address": "PQQJ+FW9, Shopping Plaza, 17C, Sector 17, Chandigarh, 160017, India",
    "neighborhood": "Shopping Plaza, 17C, Sector 17",
    "street": "PQQJ+FW9",
    "city": "Chandigarh",
    "postalCode": "160017",
    "state": "Chandigarh",
    "countryCode": "IN",
    "location": {
      "lat": 30.73866,
      "lng": 76.78237
    },
    "permanentlyClosed": false,
    "temporarilyClosed": false,
    "placeId": "ChIJ2xXnSwrtDzkRMKhHH10bhjI",
    "categories": [
      "Car rental agency"
    ],
    "imagesCount": 1,
    "openingHours": [],
    "imageUrl": "https://streetviewpixels-pa.googleapis.com/v1/thumbnail?panoid=SORvJlaPu6Nfpfob5eLyiw&cb_client=search.gws-prod.gps&w=408&h=240&yaw=227.52567&pitch=0&thumbfov=100",
    "url": "https://www.google.com/maps/search/?api=1&query=Mr.%20Cars%20(All%20Luxury%20Wedding%20Cars)&query_place_id=ChIJ2xXnSwrtDzkRMKhHH10bhjI"
  },
  {
    "title": "Munna Tour & Travel - One Way & Round Trip Travel Agency in Chandigarh",
    "categoryName": "Car leasing service",
    "address": "Shop No. 501, Gali No. 3, Daria, Chandigarh, 160101, India",
    "neighborhood": "Daria",
    "street": "Shop No. 501, Gali No. 3",
    "city": "Chandigarh",
    "postalCode": "160101",
    "state": "Chandigarh",
    "countryCode": "IN",
    "website": "https://munnatourandtravels.com/",
    "phone": "+919878353645",
    "phoneUnformatted": "+919878353645",
    "location": {
      "lat": 30.6977638,
      "lng": 76.8165821
    },
    "totalScore": 4.8,
    "permanentlyClosed": false,
    "temporarilyClosed": false,
    "placeId": "ChIJu9GxMHftDzkR-6U93znL5zw",
    "categories": [
      "Car leasing service",
      "Travel agency",
      "Sightseeing tour agency",
      "Taxi service",
      "Tour operator",
      "Transportation service"
    ],
    "reviewsCount": 22,
    "imagesCount": 65,
    "openingHours": [
      {
        "day": "Monday",
        "hours": "Open 24 hours"
      },
      {
        "day": "Tuesday",
        "hours": "Open 24 hours"
      },
      {
        "day": "Wednesday",
        "hours": "Open 24 hours"
      },
      {
        "day": "Thursday",
        "hours": "Open 24 hours"
      },
      {
        "day": "Friday",
        "hours": "Open 24 hours"
      },
      {
        "day": "Saturday",
        "hours": "Open 24 hours"
      },
      {
        "day": "Sunday",
        "hours": "Open 24 hours"
      }
    ],
    "imageUrl": "https://lh3.googleusercontent.com/p/AF1QipMfZoTAg7huP1F03W_IondtC5gMrY3iHQmEVqeG=w408-h725-k-no",
    "url": "https://www.google.com/maps/search/?api=1&query=Munna%20Tour%20%26%20Travel%20-%20One%20Way%20%26%20Round%20Trip%20Travel%20Agency%20in%20Chandigarh&query_place_id=ChIJu9GxMHftDzkR-6U93znL5zw"
  },
  {
    "title": "My Himachal Travel - MHT CABS",
    "categoryName": "Car rental agency",
    "address": "H.No 273/G Village, Daria, Chandigarh, 160101, India",
    "neighborhood": "Daria",
    "street": "H.No 273/G Village",
    "city": "Chandigarh",
    "postalCode": "160101",
    "state": "Chandigarh",
    "countryCode": "IN",
    "website": "https://myhimachaltravel.com/",
    "phone": "+917347483424",
    "phoneUnformatted": "+917347483424",
    "location": {
      "lat": 30.6995152,
      "lng": 76.8179664
    },
    "totalScore": 4.7,
    "permanentlyClosed": false,
    "temporarilyClosed": false,
    "placeId": "ChIJaWvL5M_tDzkR1gExe5qlbks",
    "categories": [
      "Car rental agency",
      "Car leasing service",
      "Taxi service",
      "Rafting",
      "Taxicab Stand",
      "Tour agency",
      "Travel agency"
    ],
    "reviewsCount": 260,
    "imagesCount": 61,
    "openingHours": [],
    "imageUrl": "https://lh3.googleusercontent.com/p/AF1QipMAxH8iHyh4dAEjHcm2L_iQ8mmaswwmzyEQidrt=w408-h408-k-no",
    "url": "https://www.google.com/maps/search/?api=1&query=My%20Himachal%20Travel%20-%20MHT%20CABS&query_place_id=ChIJaWvL5M_tDzkR1gExe5qlbks"
  },
  {
    "title": "NEW ATUL CARS",
    "subTitle": "ਨਿਊ ਅਤੁੱਲ ਕਾਰਸ",
    "categoryName": "Used car dealer",
    "address": "Plot no-217, near POWER HOUSE, Industrial Area Phase I, Chandigarh, 160002, India",
    "neighborhood": "Industrial Area Phase I",
    "street": "Plot no-217, near POWER HOUSE",
    "city": "Chandigarh",
    "postalCode": "160002",
    "state": "Chandigarh",
    "countryCode": "IN",
    "phone": "+919216181557",
    "phoneUnformatted": "+919216181557",
    "location": {
      "lat": 30.6980021,
      "lng": 76.801883
    },
    "totalScore": 3.7,
    "permanentlyClosed": false,
    "temporarilyClosed": false,
    "placeId": "ChIJq6cjK6HtDzkRxUIwQiEozN4",
    "categories": [
      "Used car dealer"
    ],
    "reviewsCount": 45,
    "imagesCount": 10,
    "openingHours": [
      {
        "day": "Monday",
        "hours": "9 AM to 9 PM"
      },
      {
        "day": "Tuesday",
        "hours": "9:30 AM to 9 PM"
      },
      {
        "day": "Wednesday",
        "hours": "9 AM to 9 PM"
      },
      {
        "day": "Thursday",
        "hours": "9 AM to 9 PM"
      },
      {
        "day": "Friday",
        "hours": "9 AM to 9 PM"
      },
      {
        "day": "Saturday",
        "hours": "9 AM to 9 PM"
      },
      {
        "day": "Sunday",
        "hours": "9 AM to 9 PM"
      }
    ],
    "imageUrl": "https://lh3.googleusercontent.com/p/AF1QipOAuWaLawHxJk7Nw3GrRGFDhj89U5bQBWgjxsHL=w505-h240-k-no",
    "url": "https://www.google.com/maps/search/?api=1&query=NEW%20ATUL%20CARS&query_place_id=ChIJq6cjK6HtDzkRxUIwQiEozN4"
  },
  {
    "title": "NOV Cabs Pvt Ltd",
    "categoryName": "Car leasing service",
    "address": "SCO 98, 47A, Sector 47, Chandigarh, 160047, India",
    "neighborhood": "47A, Sector 47",
    "street": "SCO 98",
    "city": "Chandigarh",
    "postalCode": "160047",
    "state": "Chandigarh",
    "countryCode": "IN",
    "website": "http://www.novcabs.com/",
    "phone": "+918558877666",
    "phoneUnformatted": "+918558877666",
    "location": {
      "lat": 30.7008558,
      "lng": 76.7714616
    },
    "totalScore": 4.9,
    "permanentlyClosed": false,
    "temporarilyClosed": false,
    "placeId": "ChIJCwzqGkvtDzkR_HvpwKWjxQw",
    "categories": [
      "Car leasing service",
      "Motorcycle rental agency",
      "Taxi service"
    ],
    "reviewsCount": 119,
    "imagesCount": 81,
    "openingHours": [
      {
        "day": "Monday",
        "hours": "7 AM to 10 PM"
      },
      {
        "day": "Tuesday",
        "hours": "7 AM to 10 PM"
      },
      {
        "day": "Wednesday",
        "hours": "7 AM to 10 PM"
      },
      {
        "day": "Thursday",
        "hours": "7 AM to 10 PM"
      },
      {
        "day": "Friday",
        "hours": "7 AM to 10 PM"
      },
      {
        "day": "Saturday",
        "hours": "7 AM to 10 PM"
      },
      {
        "day": "Sunday",
        "hours": "Open 24 hours"
      }
    ],
    "imageUrl": "https://lh3.googleusercontent.com/p/AF1QipPisW3q1cNSFliVk6SyrQXJzuB43glH0wzA9PoW=w408-h306-k-no",
    "url": "https://www.google.com/maps/search/?api=1&query=NOV%20Cabs%20Pvt%20Ltd&query_place_id=ChIJCwzqGkvtDzkR_HvpwKWjxQw"
  },
  {
    "title": "Nain Tour Travel and Car Rental Service pvt Ltd",
    "categoryName": "Car rental agency",
    "address": "2301/3, near Sabji Mandi Ground, Sector 45C, Sector 45, Chandigarh, 160047, India",
    "neighborhood": "Sector 45C, Sector 45",
    "street": "2301/3, near Sabji Mandi Ground",
    "city": "Chandigarh",
    "postalCode": "160047",
    "state": "Chandigarh",
    "countryCode": "IN",
    "website": "http://kamaldeepsingh.com/",
    "phone": "+919814683906",
    "phoneUnformatted": "+919814683906",
    "location": {
      "lat": 30.7048524,
      "lng": 76.7563694
    },
    "totalScore": 5,
    "permanentlyClosed": false,
    "temporarilyClosed": false,
    "placeId": "ChIJT4oAPfftDzkRyltXFYjiYnY",
    "categories": [
      "Car rental agency",
      "Car leasing service"
    ],
    "reviewsCount": 1128,
    "imagesCount": 102,
    "openingHours": [
      {
        "day": "Monday",
        "hours": "6 AM to 11 PM"
      },
      {
        "day": "Tuesday",
        "hours": "6 AM to 11 PM"
      },
      {
        "day": "Wednesday",
        "hours": "6 AM to 11 PM"
      },
      {
        "day": "Thursday",
        "hours": "6 AM to 11 PM"
      },
      {
        "day": "Friday",
        "hours": "6 AM to 11 PM"
      },
      {
        "day": "Saturday",
        "hours": "6 AM to 11 PM"
      },
      {
        "day": "Sunday",
        "hours": "6 AM to 11 PM"
      }
    ],
    "imageUrl": "https://lh3.googleusercontent.com/p/AF1QipOVywFzq-Xadyj-PGQVbQUbpaECLN7TYJn2QKzA=w408-h518-k-no",
    "url": "https://www.google.com/maps/search/?api=1&query=Nain%20Tour%20Travel%20and%20Car%20Rental%20Service%20pvt%20Ltd&query_place_id=ChIJT4oAPfftDzkRyltXFYjiYnY"
  },
  {
    "title": "Noor Tour & Travels Chandigarh | Travel Agency in Chandigarh",
    "categoryName": "Car leasing service",
    "address": "Shop no 119 first floor Shiva market, Sector 40D, Chandigarh, 160036, India",
    "neighborhood": "Sector 40A, Block A, Sector 40D",
    "street": "Shop no 119 first floor Shiva market",
    "city": "Chandigarh",
    "postalCode": "160036",
    "state": "Chandigarh",
    "countryCode": "IN",
    "website": "http://noortourandtravels.net/",
    "phone": "+919316103200",
    "phoneUnformatted": "+919316103200",
    "location": {
      "lat": 30.7414727,
      "lng": 76.7370798
    },
    "totalScore": 4.9,
    "permanentlyClosed": false,
    "temporarilyClosed": false,
    "placeId": "ChIJ-0-_GWXvDzkRkASQuyLKNUg",
    "categories": [
      "Car leasing service",
      "Bus tour agency",
      "Taxi service",
      "Minibus taxi service",
      "Sightseeing tour agency",
      "Travel agency"
    ],
    "reviewsCount": 103,
    "imagesCount": 41,
    "openingHours": [],
    "imageUrl": "https://lh3.googleusercontent.com/p/AF1QipO-d7GP6OcuvuZjlW0YCW__laOmkMLgjjYP9E9l=w433-h240-k-no",
    "url": "https://www.google.com/maps/search/?api=1&query=Noor%20Tour%20%26%20Travels%20Chandigarh%20%7C%20Travel%20Agency%20in%20Chandigarh&query_place_id=ChIJ-0-_GWXvDzkRkASQuyLKNUg"
  },
  {
    "title": "ODAC28",
    "categoryName": "Car leasing service",
    "address": "Top Floor, SCO 72, Sector 46C, Sector 46, Chandigarh, 160047, India",
    "neighborhood": "Sector 46C, Sector 46",
    "street": "Top Floor, SCO 72",
    "city": "Chandigarh",
    "postalCode": "160047",
    "state": "Chandigarh",
    "countryCode": "IN",
    "website": "https://www.odac28.in/",
    "location": {
      "lat": 30.7001579,
      "lng": 76.7651058
    },
    "totalScore": 5,
    "permanentlyClosed": false,
    "temporarilyClosed": false,
    "placeId": "ChIJTx8oSrrtDzkR9WGAcGeIUxs",
    "categories": [
      "Car leasing service"
    ],
    "reviewsCount": 17,
    "imagesCount": 7,
    "openingHours": [
      {
        "day": "Monday",
        "hours": "Open 24 hours"
      },
      {
        "day": "Tuesday",
        "hours": "Open 24 hours"
      },
      {
        "day": "Wednesday",
        "hours": "Open 24 hours"
      },
      {
        "day": "Thursday",
        "hours": "Open 24 hours"
      },
      {
        "day": "Friday",
        "hours": "Open 24 hours"
      },
      {
        "day": "Saturday",
        "hours": "Open 24 hours"
      },
      {
        "day": "Sunday",
        "hours": "Open 24 hours"
      }
    ],
    "imageUrl": "https://lh3.googleusercontent.com/p/AF1QipOwZwFR-gCBdwgAhHTsuhZo3FDascvtBwYGvUfP=w408-h407-k-no",
    "url": "https://www.google.com/maps/search/?api=1&query=ODAC28&query_place_id=ChIJTx8oSrrtDzkR9WGAcGeIUxs"
  },
  {
    "title": "OVO Cabs Self Driven car rental Chandigarh",
    "categoryName": "Car rental agency",
    "address": "SCO 22 2nd Floor Sector, near PNB Bank, 33D, Sector 33, Chandigarh, 160020, India",
    "neighborhood": "33D, Sector 33",
    "street": "SCO 22 2nd Floor Sector, near PNB Bank",
    "city": "Chandigarh",
    "postalCode": "160020",
    "state": "Chandigarh",
    "countryCode": "IN",
    "website": "https://ovocabs.in/chandigarh",
    "phone": "+917973777318",
    "phoneUnformatted": "+917973777318",
    "location": {
      "lat": 30.713576,
      "lng": 76.768681
    },
    "totalScore": 4.4,
    "permanentlyClosed": false,
    "temporarilyClosed": false,
    "placeId": "ChIJuZoO6JztDzkRXRlGGMmy3Ts",
    "categories": [
      "Car rental agency",
      "Car leasing service"
    ],
    "reviewsCount": 319,
    "imagesCount": 66,
    "openingHours": [
      {
        "day": "Monday",
        "hours": "7 AM to 10 PM"
      },
      {
        "day": "Tuesday",
        "hours": "7 AM to 10 PM"
      },
      {
        "day": "Wednesday",
        "hours": "7 AM to 10 PM"
      },
      {
        "day": "Thursday",
        "hours": "7 AM to 10 PM"
      },
      {
        "day": "Friday",
        "hours": "7 AM to 10 PM"
      },
      {
        "day": "Saturday",
        "hours": "7:30 AM to 10 PM"
      },
      {
        "day": "Sunday",
        "hours": "7 AM to 10 PM"
      }
    ],
    "imageUrl": "https://lh3.googleusercontent.com/gps-cs-s/AG0ilSxb0cr325HGfXBVCmolg0WxinkDE5tcoKdSIeemS080oZNMHuCc_TGrvhOL6rUTXRyZZZa5DZpv8LpzZSQzTtBOnkhJ4CJVcfJI3xL5Zn7NTd5hAv9EPhzItsNIPeHx9WRg-QFCYA=w408-h306-k-no",
    "url": "https://www.google.com/maps/search/?api=1&query=OVO%20Cabs%20Self%20Driven%20car%20rental%20Chandigarh&query_place_id=ChIJuZoO6JztDzkRXRlGGMmy3Ts"
  },
  {
    "title": "PLATINUM AUTOZ",
    "subTitle": "ਪਲੈਟੀਨਮ ਆਟੋਜ਼",
    "categoryName": "Used car dealer",
    "address": "Elante Mall, Plot No. 175 Near, Verka Milk Plant, Road, Industrial Area Phase I, Chandigarh 160002, India",
    "neighborhood": "Industrial Area Phase I",
    "street": "Elante Mall, Plot No. 175 Near, Verka Milk Plant, Road",
    "city": "Chandigarh",
    "postalCode": "160002",
    "state": "Chandigarh",
    "countryCode": "IN",
    "website": "http://www.platinumautoz.com/",
    "phone": "+918045133966",
    "phoneUnformatted": "+918045133966",
    "location": {
      "lat": 30.705493,
      "lng": 76.801256
    },
    "totalScore": 4,
    "permanentlyClosed": false,
    "temporarilyClosed": false,
    "placeId": "ChIJ-YIdx6jtDzkR8T_NSnHLR8o",
    "categories": [
      "Used car dealer"
    ],
    "reviewsCount": 4,
    "imagesCount": 1,
    "openingHours": [
      {
        "day": "Monday",
        "hours": "9 AM to 8 PM"
      },
      {
        "day": "Tuesday",
        "hours": "9 AM to 8 PM"
      },
      {
        "day": "Wednesday",
        "hours": "9 AM to 8 PM"
      },
      {
        "day": "Thursday",
        "hours": "9 AM to 8 PM"
      },
      {
        "day": "Friday",
        "hours": "9 AM to 8 PM"
      },
      {
        "day": "Saturday",
        "hours": "9 AM to 8 PM"
      },
      {
        "day": "Sunday",
        "hours": "9 AM to 8 PM"
      }
    ],
    "imageUrl": "https://streetviewpixels-pa.googleapis.com/v1/thumbnail?panoid=xku5HX_UUBfMYIboymKgTw&cb_client=search.gws-prod.gps&w=408&h=240&yaw=230.97&pitch=0&thumbfov=100",
    "url": "https://www.google.com/maps/search/?api=1&query=PLATINUM%20AUTOZ&query_place_id=ChIJ-YIdx6jtDzkR8T_NSnHLR8o"
  },
  {
    "title": "PR Brothers Self Drive Car Rental",
    "categoryName": "Car rental agency",
    "address": "Pr brothers, SCO 146-47, Sector 34A, Sector 34, Chandigarh, 160022, India",
    "neighborhood": "Sector 34A, Sector 34",
    "street": "Pr brothers, SCO 146-47",
    "city": "Chandigarh",
    "postalCode": "160022",
    "state": "Chandigarh",
    "countryCode": "IN",
    "website": "https://prselfdrivecar.com/",
    "phone": "+919872914329",
    "phoneUnformatted": "+919872914329",
    "location": {
      "lat": 30.7217505,
      "lng": 76.7699422
    },
    "totalScore": 4.7,
    "permanentlyClosed": false,
    "temporarilyClosed": false,
    "placeId": "ChIJF_PLg3rtDzkRodas3tFEBYc",
    "categories": [
      "Car rental agency"
    ],
    "reviewsCount": 179,
    "imagesCount": 171,
    "openingHours": [
      {
        "day": "Monday",
        "hours": "6:30 AM to 10 PM"
      },
      {
        "day": "Tuesday",
        "hours": "6:30 AM to 10 PM"
      },
      {
        "day": "Wednesday",
        "hours": "6:30 AM to 10 PM"
      },
      {
        "day": "Thursday",
        "hours": "6:30 AM to 10 PM"
      },
      {
        "day": "Friday",
        "hours": "6:30 AM to 10 PM"
      },
      {
        "day": "Saturday",
        "hours": "6:30 AM to 10 PM"
      },
      {
        "day": "Sunday",
        "hours": "6:30 AM to 10 PM"
      }
    ],
    "imageUrl": "https://lh3.googleusercontent.com/p/AF1QipMG6B-Z5J7Nem8YzUy-O1KLitwlaf3kDLBqARXw=w408-h544-k-no",
    "url": "https://www.google.com/maps/search/?api=1&query=PR%20Brothers%20Self%20Drive%20Car%20Rental&query_place_id=ChIJF_PLg3rtDzkRodas3tFEBYc"
  },
  {
    "title": "Pegasus Cabs",
    "categoryName": "Car rental agency",
    "address": "2009 Sector 15c Main Road, Chandigarh 160015, India",
    "neighborhood": "15C, Sector 15",
    "street": "2009 Sector 15c Main Road",
    "city": "Chandigarh",
    "postalCode": "160015",
    "state": "Chandigarh",
    "countryCode": "IN",
    "website": "http://pegasuscabs.com/",
    "phone": "+919814022884",
    "phoneUnformatted": "+919814022884",
    "location": {
      "lat": 30.7505429,
      "lng": 76.7742621
    },
    "totalScore": 4.9,
    "permanentlyClosed": false,
    "temporarilyClosed": false,
    "placeId": "ChIJm760lBTtDzkR4XbppBfyONI",
    "categories": [
      "Car rental agency",
      "Airport shuttle service",
      "Car leasing service",
      "Taxi service"
    ],
    "reviewsCount": 465,
    "imagesCount": 26,
    "openingHours": [],
    "imageUrl": "https://lh3.googleusercontent.com/gps-cs-s/AG0ilSySD6YeOMuYfYTD1fvSV1Uy53dulIWvsrY8tO5a6sl_gnP5yjKV2pdIniyfQ99lq8RTC0rHg0TFpt_taDqaSbxsZdocvLvxtah7sVbwWH12N6oVyfE34Tim0C83Odfkp5XGndRA_Q=w408-h544-k-no",
    "url": "https://www.google.com/maps/search/?api=1&query=Pegasus%20Cabs&query_place_id=ChIJm760lBTtDzkR4XbppBfyONI"
  },
  {
    "title": "Pioneer Toyota",
    "subTitle": "ਪਾਇਨੀਅਰ ਟੋਇਟਾ",
    "categoryName": "Toyota dealer",
    "address": "Showroom no. 14 2nd floor pvr, Centra Mall, H & I, 177, Purv Marg, Industrial Area Phase I, Chandigarh, 160002, India",
    "neighborhood": "Industrial Area Phase I",
    "street": "Showroom no. 14 2nd floor pvr, Centra Mall, H & I, 177, Purv Marg",
    "city": "Chandigarh",
    "postalCode": "160002",
    "state": "Chandigarh",
    "countryCode": "IN",
    "website": "http://www.pioneertoyota.com/",
    "phone": "+9118001374567",
    "phoneUnformatted": "+9118001374567",
    "location": {
      "lat": 30.7054491,
      "lng": 76.7975688
    },
    "totalScore": 4,
    "permanentlyClosed": false,
    "temporarilyClosed": false,
    "placeId": "ChIJKVy_XOnsDzkRq_ITiASx5ds",
    "categories": [
      "Toyota dealer",
      "Car dealer"
    ],
    "reviewsCount": 1922,
    "imagesCount": 409,
    "openingHours": [
      {
        "day": "Monday",
        "hours": "9 AM to 6:30 PM"
      },
      {
        "day": "Tuesday",
        "hours": "9 AM to 6:30 PM"
      },
      {
        "day": "Wednesday",
        "hours": "9 AM to 6:30 PM"
      },
      {
        "day": "Thursday",
        "hours": "9 AM to 6:30 PM"
      },
      {
        "day": "Friday",
        "hours": "9 AM to 6:30 PM"
      },
      {
        "day": "Saturday",
        "hours": "9 AM to 6:30 PM"
      },
      {
        "day": "Sunday",
        "hours": "Closed"
      }
    ],
    "imageUrl": "https://lh3.googleusercontent.com/gps-cs-s/AG0ilSxVYOBTt6-FaXw9j7UI_O580woC90EJutwdjkSGGAVMKK7J4oB_xj9dW_-58mz6RCoPwHYuKN7IESgdWXSRVMFVVUZ9WT8_vqqSFEK0XrWJCF9B3FJTJKBEAfxAHOLeZ7ZqwOEs=w408-h306-k-no",
    "url": "https://www.google.com/maps/search/?api=1&query=Pioneer%20Toyota&query_place_id=ChIJKVy_XOnsDzkRq_ITiASx5ds"
  },
  {
    "title": "RBT (Right Boy Toy)",
    "subTitle": "ਰਬਤ (ਰਾਈਟ ਬੁਆਏ ਟੁਆਏ)",
    "categoryName": "Smart Car dealer",
    "address": "Plot Number 187-A, Industrial Area Phase I, Chandigarh, 160002, India",
    "neighborhood": "Industrial Area Phase I",
    "street": "Plot Number 187-A",
    "city": "Chandigarh",
    "postalCode": "160002",
    "state": "Chandigarh",
    "countryCode": "IN",
    "website": "https://www.youtube.com/@rightboytoy675",
    "phone": "+919779111117",
    "phoneUnformatted": "+919779111117",
    "location": {
      "lat": 30.6982563,
      "lng": 76.8009719
    },
    "totalScore": 4.4,
    "permanentlyClosed": false,
    "temporarilyClosed": false,
    "placeId": "ChIJA6aHaOrtDzkRMzsGwBZhzvg",
    "categories": [
      "Smart Car dealer"
    ],
    "reviewsCount": 414,
    "imagesCount": 502,
    "openingHours": [
      {
        "day": "Monday",
        "hours": "10 AM to 8 PM"
      },
      {
        "day": "Tuesday",
        "hours": "10 AM to 8 PM"
      },
      {
        "day": "Wednesday",
        "hours": "10 AM to 8 PM"
      },
      {
        "day": "Thursday",
        "hours": "10 AM to 8 PM"
      },
      {
        "day": "Friday",
        "hours": "10 AM to 8 PM"
      },
      {
        "day": "Saturday",
        "hours": "10 AM to 8 PM"
      },
      {
        "day": "Sunday",
        "hours": "10 AM to 5 PM"
      }
    ],
    "imageUrl": "https://lh3.googleusercontent.com/p/AF1QipO5GS4naVQ_U6y8_d_y3SKk6VCFVJP0ioK3-1zz=w430-h240-k-no",
    "url": "https://www.google.com/maps/search/?api=1&query=RBT%20(Right%20Boy%20Toy)&query_place_id=ChIJA6aHaOrtDzkRMzsGwBZhzvg"
  },
  {
    "title": "RBTS Luxury Self Drive Car Chandigarh",
    "categoryName": "Car leasing service",
    "address": "PQR4+H9P, Sector 37A Rd, 37B, Sector 37, Chandigarh, 160036, India",
    "neighborhood": "37B, Sector 37",
    "street": "PQR4+H9P, Sector 37A Rd",
    "city": "Chandigarh",
    "postalCode": "160036",
    "state": "Chandigarh",
    "countryCode": "IN",
    "website": "http://www.rbtscarrentals.com/",
    "phone": "+919999362222",
    "phoneUnformatted": "+919999362222",
    "location": {
      "lat": 30.7414574,
      "lng": 76.755954
    },
    "totalScore": 4.5,
    "permanentlyClosed": false,
    "temporarilyClosed": false,
    "placeId": "ChIJmdE6fwDtDzkRvssd6tGEBmg",
    "categories": [
      "Car leasing service"
    ],
    "reviewsCount": 10,
    "imagesCount": 40,
    "openingHours": [
      {
        "day": "Monday",
        "hours": "8 AM to 11 PM"
      },
      {
        "day": "Tuesday",
        "hours": "8 AM to 11 PM"
      },
      {
        "day": "Wednesday",
        "hours": "8 AM to 11 PM"
      },
      {
        "day": "Thursday",
        "hours": "8 AM to 11 PM"
      },
      {
        "day": "Friday",
        "hours": "8 AM to 11 PM"
      },
      {
        "day": "Saturday",
        "hours": "8 AM to 11 PM"
      },
      {
        "day": "Sunday",
        "hours": "8 AM to 11 PM"
      }
    ],
    "imageUrl": "https://lh3.googleusercontent.com/gps-cs-s/AG0ilSzHLvHW_8A_0Ed3yXOKIUQvxtGh2NCYNOzgh29e0ne2ReIhYLimps3hLYgLCBssj_2mW8NbfpONz_ByoWDLGLUmcrxtNtL6ROB6Ea-q9_e39E5ApRQ40ED-hmk5fkkmh7nw72u7NQ=w408-h264-k-no",
    "url": "https://www.google.com/maps/search/?api=1&query=RBTS%20Luxury%20Self%20Drive%20Car%20Chandigarh&query_place_id=ChIJmdE6fwDtDzkRvssd6tGEBmg"
  },
  {
    "title": "Rana Cabs Self Drive Luxury Car Rental Service",
    "categoryName": "Car rental agency",
    "address": "House 2343/3, Sector 45C, Sector 45, Chandigarh, 160047, India",
    "neighborhood": "Sector 45C, Sector 45",
    "street": "House 2343/3",
    "city": "Chandigarh",
    "postalCode": "160047",
    "state": "Chandigarh",
    "countryCode": "IN",
    "location": {
      "lat": 30.7044091,
      "lng": 76.7567325
    },
    "totalScore": 1,
    "permanentlyClosed": false,
    "temporarilyClosed": false,
    "placeId": "ChIJu8fkydHtDzkRvtNn7bpczCg",
    "categories": [
      "Car rental agency"
    ],
    "reviewsCount": 1,
    "imagesCount": 4,
    "openingHours": [
      {
        "day": "Monday",
        "hours": "Open 24 hours"
      },
      {
        "day": "Tuesday",
        "hours": "Open 24 hours"
      },
      {
        "day": "Wednesday",
        "hours": "Open 24 hours"
      },
      {
        "day": "Thursday",
        "hours": "Open 24 hours"
      },
      {
        "day": "Friday",
        "hours": "Open 24 hours"
      },
      {
        "day": "Saturday",
        "hours": "Open 24 hours"
      },
      {
        "day": "Sunday",
        "hours": "Open 24 hours"
      }
    ],
    "imageUrl": "https://lh3.googleusercontent.com/p/AF1QipNHMvdWuBgWczXwziEIDuHRWBaE0NwhVG7SCIVr=w408-h306-k-no",
    "url": "https://www.google.com/maps/search/?api=1&query=Rana%20Cabs%20Self%20Drive%20Luxury%20Car%20Rental%20Service&query_place_id=ChIJu8fkydHtDzkRvtNn7bpczCg"
  },
  {
    "title": "Rapid Chandigarh Rental Cars",
    "categoryName": "Car rental agency",
    "address": "House No. 2747, Sector 42-C, SBI Colony, 42C, Sector 42, Chandigarh, 160036, India",
    "neighborhood": "SBI Colony, 42C, Sector 42",
    "street": "House No. 2747, Sector 42-C",
    "city": "Chandigarh",
    "postalCode": "160036",
    "state": "Chandigarh",
    "countryCode": "IN",
    "website": "https://www.rapidselfdrivecars.com/self-drive-cars/",
    "location": {
      "lat": 30.7232844,
      "lng": 76.7417502
    },
    "totalScore": 5,
    "permanentlyClosed": false,
    "temporarilyClosed": false,
    "placeId": "ChIJ84wA9yrtDzkRKzvgVTeiL70",
    "categories": [
      "Car rental agency"
    ],
    "reviewsCount": 24,
    "imagesCount": 106,
    "openingHours": [
      {
        "day": "Monday",
        "hours": "Open 24 hours"
      },
      {
        "day": "Tuesday",
        "hours": "Open 24 hours"
      },
      {
        "day": "Wednesday",
        "hours": "Open 24 hours"
      },
      {
        "day": "Thursday",
        "hours": "Open 24 hours"
      },
      {
        "day": "Friday",
        "hours": "Open 24 hours"
      },
      {
        "day": "Saturday",
        "hours": "Open 24 hours"
      },
      {
        "day": "Sunday",
        "hours": "Open 24 hours"
      }
    ],
    "imageUrl": "https://lh3.googleusercontent.com/p/AF1QipMkfYFRCWOe2eFzF2jOs36vMWCaXViocmYOMFZq=w408-h255-k-no",
    "url": "https://www.google.com/maps/search/?api=1&query=Rapid%20Chandigarh%20Rental%20Cars&query_place_id=ChIJ84wA9yrtDzkRKzvgVTeiL70"
  },
  {
    "title": "Rapid Self Drive Cars Chandigarh",
    "categoryName": "Car rental agency",
    "address": "SCO No. 53, Second Floor, Sector 47-C, near Domino's Pizza, Chandigarh, 160047, India",
    "neighborhood": "47C, Sector 47",
    "street": "SCO No. 53, Second Floor, Sector 47-C, near Domino's Pizza",
    "city": "Chandigarh",
    "postalCode": "160047",
    "state": "Chandigarh",
    "countryCode": "IN",
    "website": "https://www.rapidselfdrivecars.com/",
    "phone": "+919041924141",
    "phoneUnformatted": "+919041924141",
    "location": {
      "lat": 30.6947058,
      "lng": 76.7703276
    },
    "totalScore": 4.9,
    "permanentlyClosed": false,
    "temporarilyClosed": false,
    "placeId": "ChIJmwx4NgDtDzkRxiNKtqQKecE",
    "categories": [
      "Car rental agency",
      "Car leasing service",
      "Motoring club",
      "Taxi service",
      "Travel agency"
    ],
    "reviewsCount": 113,
    "imagesCount": 125,
    "openingHours": [
      {
        "day": "Monday",
        "hours": "Open 24 hours"
      },
      {
        "day": "Tuesday",
        "hours": "Open 24 hours"
      },
      {
        "day": "Wednesday",
        "hours": "Open 24 hours"
      },
      {
        "day": "Thursday",
        "hours": "Open 24 hours"
      },
      {
        "day": "Friday",
        "hours": "Open 24 hours"
      },
      {
        "day": "Saturday",
        "hours": "Open 24 hours"
      },
      {
        "day": "Sunday",
        "hours": "Open 24 hours"
      }
    ],
    "imageUrl": "https://lh3.googleusercontent.com/p/AF1QipOKQ_uPDmzZj0_NokLgAnCaoZgffXVQ2_CIc135=w408-h306-k-no",
    "url": "https://www.google.com/maps/search/?api=1&query=Rapid%20Self%20Drive%20Cars%20Chandigarh&query_place_id=ChIJmwx4NgDtDzkRxiNKtqQKecE"
  },
  {
    "title": "Ride Cars - A Used Car Store",
    "categoryName": "Used car dealer",
    "address": "Plot No. 35, Industrial Area Phase I, Chandigarh, 160002, India",
    "neighborhood": "Industrial Area Phase I",
    "street": "Plot No. 35",
    "city": "Chandigarh",
    "postalCode": "160002",
    "state": "Chandigarh",
    "countryCode": "IN",
    "phone": "+917696023536",
    "phoneUnformatted": "+917696023536",
    "location": {
      "lat": 30.7121114,
      "lng": 76.8060276
    },
    "totalScore": 3.3,
    "permanentlyClosed": false,
    "temporarilyClosed": false,
    "placeId": "ChIJmekhPn_tDzkRtX-ua9Tp2h0",
    "categories": [
      "Used car dealer"
    ],
    "reviewsCount": 12,
    "imagesCount": 20,
    "openingHours": [
      {
        "day": "Monday",
        "hours": "10 AM to 7 PM"
      },
      {
        "day": "Tuesday",
        "hours": "10 AM to 7 PM"
      },
      {
        "day": "Wednesday",
        "hours": "10 AM to 7 PM"
      },
      {
        "day": "Thursday",
        "hours": "10 AM to 7 PM"
      },
      {
        "day": "Friday",
        "hours": "10 AM to 7 PM"
      },
      {
        "day": "Saturday",
        "hours": "10 AM to 7 PM"
      },
      {
        "day": "Sunday",
        "hours": "10 AM to 7 PM"
      }
    ],
    "imageUrl": "https://lh3.googleusercontent.com/p/AF1QipNf3NLyiqqs2Stj54QSP6UJFXKMLFQsYcX9joKH=w408-h306-k-no",
    "url": "https://www.google.com/maps/search/?api=1&query=Ride%20Cars%20-%20A%20Used%20Car%20Store&query_place_id=ChIJmekhPn_tDzkRtX-ua9Tp2h0"
  },
  {
    "title": "Rolls Royce Dealership",
    "subTitle": "ਰੋਲਸ ਰੋਇਸ ਡੀਲਰਸ਼ਿਪ",
    "categoryName": "Car dealer",
    "address": "Plot No. 143 A, Industrial Area Phase I, Chandigarh, 160002, India",
    "neighborhood": "Industrial Area Phase I",
    "street": "Plot No. 143 A",
    "city": "Chandigarh",
    "postalCode": "160002",
    "state": "Chandigarh",
    "countryCode": "IN",
    "location": {
      "lat": 30.7093472,
      "lng": 76.8006207
    },
    "totalScore": 4.5,
    "permanentlyClosed": false,
    "temporarilyClosed": false,
    "placeId": "ChIJm77DEujsDzkR2GMF0LXHmpg",
    "categories": [
      "Car dealer"
    ],
    "reviewsCount": 93,
    "imagesCount": 35,
    "openingHours": [
      {
        "day": "Monday",
        "hours": "10:30 AM to 7 PM"
      },
      {
        "day": "Tuesday",
        "hours": "10:30 AM to 7 PM"
      },
      {
        "day": "Wednesday",
        "hours": "10:30 AM to 7 PM"
      },
      {
        "day": "Thursday",
        "hours": "10:30 AM to 7 PM"
      },
      {
        "day": "Friday",
        "hours": "10:30 AM to 7 PM"
      },
      {
        "day": "Saturday",
        "hours": "10:30 AM to 7 PM"
      },
      {
        "day": "Sunday",
        "hours": "10:30 AM to 7 PM"
      }
    ],
    "imageUrl": "https://lh3.googleusercontent.com/gps-cs-s/AG0ilSzaI7iroMwnMAwXPrmFscOeKcrc4-loJrJEHM8wVSJnFsillIdRav-0hUdn7RZ7hPaFsrnQ39RcDDVa1JaVuEe2gO8DkalpV7-JWpfsAOfc5YeallQVkuoK2D9-lq0wVfwwpai6=w408-h272-k-no",
    "url": "https://www.google.com/maps/search/?api=1&query=Rolls%20Royce%20Dealership&query_place_id=ChIJm77DEujsDzkR2GMF0LXHmpg"
  },
  {
    "title": "RowthAutos - New Car Bargain Platform",
    "categoryName": "Car dealer",
    "address": "Plot No. 24, Industrial Area Phase I, Chandigarh, 160002, India",
    "neighborhood": "Industrial Area Phase I",
    "street": "Plot No. 24",
    "city": "Chandigarh",
    "postalCode": "160002",
    "state": "Chandigarh",
    "countryCode": "IN",
    "phone": "+917710697606",
    "phoneUnformatted": "+917710697606",
    "location": {
      "lat": 30.7111356,
      "lng": 76.8083522
    },
    "totalScore": 4.3,
    "permanentlyClosed": false,
    "temporarilyClosed": false,
    "placeId": "ChIJQ4u4MZXsDzkReuflTq9WWEg",
    "categories": [
      "Car dealer"
    ],
    "reviewsCount": 109,
    "imagesCount": 36,
    "openingHours": [
      {
        "day": "Monday",
        "hours": "Open 24 hours"
      },
      {
        "day": "Tuesday",
        "hours": "Open 24 hours"
      },
      {
        "day": "Wednesday",
        "hours": "Open 24 hours"
      },
      {
        "day": "Thursday",
        "hours": "Open 24 hours"
      },
      {
        "day": "Friday",
        "hours": "Open 24 hours"
      },
      {
        "day": "Saturday",
        "hours": "Open 24 hours"
      },
      {
        "day": "Sunday",
        "hours": "Open 24 hours"
      }
    ],
    "imageUrl": "https://lh3.googleusercontent.com/p/AF1QipMywYjeSSx41k1SYizqKZXm5zB55MYj-RvdOws3=w408-h544-k-no",
    "url": "https://www.google.com/maps/search/?api=1&query=RowthAutos%20-%20New%20Car%20Bargain%20Platform&query_place_id=ChIJQ4u4MZXsDzkReuflTq9WWEg"
  },
  {
    "title": "Sai Motors",
    "subTitle": "ਸੈ ਮੋਟਰਜ਼",
    "categoryName": "Car repair and maintenance service",
    "address": "Plot 182/83, near Kia Motors, Industrial Area Phase I, Chandigarh, 160002, India",
    "neighborhood": "Industrial Area Phase I",
    "street": "Plot 182/83, near Kia Motors",
    "city": "Chandigarh",
    "postalCode": "160002",
    "state": "Chandigarh",
    "countryCode": "IN",
    "website": "https://cards.xingo.in/SAI-MOTORS",
    "phone": "+919041570409",
    "phoneUnformatted": "+919041570409",
    "location": {
      "lat": 30.7029259,
      "lng": 76.7986795
    },
    "totalScore": 4.1,
    "permanentlyClosed": false,
    "temporarilyClosed": false,
    "placeId": "ChIJ6S61NzLrDzkR4xL9oB1LNZs",
    "categories": [
      "Car repair and maintenance service",
      "Auto repair shop",
      "Mechanic",
      "Towing service"
    ],
    "reviewsCount": 115,
    "imagesCount": 91,
    "openingHours": [
      {
        "day": "Monday",
        "hours": "9 AM to 7 PM"
      },
      {
        "day": "Tuesday",
        "hours": "9 AM to 7 PM"
      },
      {
        "day": "Wednesday",
        "hours": "9 AM to 7 PM"
      },
      {
        "day": "Thursday",
        "hours": "9 AM to 7 PM"
      },
      {
        "day": "Friday",
        "hours": "9 AM to 7 PM"
      },
      {
        "day": "Saturday",
        "hours": "9 AM to 7 PM"
      },
      {
        "day": "Sunday",
        "hours": "Closed"
      }
    ],
    "imageUrl": "https://lh3.googleusercontent.com/p/AF1QipNdVZSbjImMWrF33g2BLR9DCKpVho5vvN_bLj6A=w408-h306-k-no",
    "url": "https://www.google.com/maps/search/?api=1&query=Sai%20Motors&query_place_id=ChIJ6S61NzLrDzkR4xL9oB1LNZs"
  },
  {
    "title": "Sai cars for shoot & wedding",
    "categoryName": "Car leasing service",
    "address": "1886, Sector 22B, Sector 22, Chandigarh, 160022, India",
    "neighborhood": "Sector 22B, Sector 22",
    "street": "1886",
    "city": "Chandigarh",
    "postalCode": "160022",
    "state": "Chandigarh",
    "countryCode": "IN",
    "website": "https://instagram.com/saicar75?igshid=YmMyMTA2M2Y=",
    "phone": "+917657908206",
    "phoneUnformatted": "+917657908206",
    "location": {
      "lat": 30.731586,
      "lng": 76.773807
    },
    "totalScore": 5,
    "permanentlyClosed": false,
    "temporarilyClosed": false,
    "placeId": "ChIJ7bAdf5XtDzkRLkRjO6Ieb6s",
    "categories": [
      "Car leasing service"
    ],
    "reviewsCount": 63,
    "imagesCount": 173,
    "openingHours": [
      {
        "day": "Monday",
        "hours": "Open 24 hours"
      },
      {
        "day": "Tuesday",
        "hours": "Open 24 hours"
      },
      {
        "day": "Wednesday",
        "hours": "Open 24 hours"
      },
      {
        "day": "Thursday",
        "hours": "Open 24 hours"
      },
      {
        "day": "Friday",
        "hours": "Open 24 hours"
      },
      {
        "day": "Saturday",
        "hours": "Open 24 hours"
      },
      {
        "day": "Sunday",
        "hours": "Open 24 hours"
      }
    ],
    "imageUrl": "https://lh3.googleusercontent.com/p/AF1QipNc1hkraAU2WpEXcAQsKlFQEbdw0mpvnZjZBsN_=w408-h408-k-no",
    "url": "https://www.google.com/maps/search/?api=1&query=Sai%20cars%20for%20shoot%20%26%20wedding&query_place_id=ChIJ7bAdf5XtDzkRLkRjO6Ieb6s"
  },
  {
    "title": "Saini motors (best mechanic for petrol and diesel cars and luxury cars",
    "categoryName": "Mechanic",
    "address": "806/2, near church, Hallo Majra, Chandigarh, 160002, India",
    "neighborhood": "Hallo Majra",
    "street": "806/2, near church",
    "city": "Chandigarh",
    "postalCode": "160002",
    "state": "Chandigarh",
    "countryCode": "IN",
    "phone": "+919915017314",
    "phoneUnformatted": "+919915017314",
    "location": {
      "lat": 30.6925207,
      "lng": 76.8011434
    },
    "totalScore": 4.8,
    "permanentlyClosed": false,
    "temporarilyClosed": false,
    "placeId": "ChIJT8Jyb5bsDzkRerqfX9gPOrE",
    "categories": [
      "Mechanic",
      "Auto body shop",
      "Auto bodywork mechanic",
      "Auto painting",
      "Car battery store",
      "Car dealer",
      "Car manufacturer",
      "Car stereo store",
      "Car wash"
    ],
    "reviewsCount": 24,
    "imagesCount": 19,
    "openingHours": [
      {
        "day": "Monday",
        "hours": "Open 24 hours"
      },
      {
        "day": "Tuesday",
        "hours": "Open 24 hours"
      },
      {
        "day": "Wednesday",
        "hours": "Open 24 hours"
      },
      {
        "day": "Thursday",
        "hours": "Open 24 hours"
      },
      {
        "day": "Friday",
        "hours": "Open 24 hours"
      },
      {
        "day": "Saturday",
        "hours": "Open 24 hours"
      },
      {
        "day": "Sunday",
        "hours": "Open 24 hours"
      }
    ],
    "imageUrl": "https://lh3.googleusercontent.com/p/AF1QipNJIiEIcjx95WCWlhIPSVP4iITMAveGyGHykQU5=w426-h240-k-no",
    "url": "https://www.google.com/maps/search/?api=1&query=Saini%20motors%20(best%20mechanic%20for%20petrol%20and%20diesel%20cars%20and%20luxury%20cars&query_place_id=ChIJT8Jyb5bsDzkRerqfX9gPOrE"
  },
  {
    "title": "Second Hand Cars in Chandigarh",
    "categoryName": "Car dealer",
    "address": "SCO 855B, 1st Floor, Back Side, NAC Manimajra, Sector 13, Chandigarh, 160101, India",
    "neighborhood": "NAC Manimajra, Sector 13",
    "street": "SCO 855B, 1st Floor, Back Side",
    "city": "Chandigarh",
    "postalCode": "160101",
    "state": "Chandigarh",
    "countryCode": "IN",
    "location": {
      "lat": 30.708399,
      "lng": 76.8390795
    },
    "totalScore": 4.6,
    "permanentlyClosed": false,
    "temporarilyClosed": false,
    "placeId": "ChIJhYcX4-aTDzkRc455sd5v8JQ",
    "categories": [
      "Car dealer",
      "Auto broker"
    ],
    "reviewsCount": 9,
    "imagesCount": 1,
    "openingHours": [
      {
        "day": "Monday",
        "hours": "9:30 AM to 6:30 PM"
      },
      {
        "day": "Tuesday",
        "hours": "9:30 AM to 6:30 PM"
      },
      {
        "day": "Wednesday",
        "hours": "9:30 AM to 6:30 PM"
      },
      {
        "day": "Thursday",
        "hours": "Open 24 hours"
      },
      {
        "day": "Friday",
        "hours": "9:30 AM to 6:30 PM"
      },
      {
        "day": "Saturday",
        "hours": "9:30 AM to 6:30 PM"
      },
      {
        "day": "Sunday",
        "hours": "9 AM to 6:30 PM"
      }
    ],
    "imageUrl": "https://streetviewpixels-pa.googleapis.com/v1/thumbnail?panoid=RhyRee8e0Oa3b1ISGm7j5g&cb_client=search.gws-prod.gps&w=408&h=240&yaw=156.06718&pitch=0&thumbfov=100",
    "url": "https://www.google.com/maps/search/?api=1&query=Second%20Hand%20Cars%20in%20Chandigarh&query_place_id=ChIJhYcX4-aTDzkRc455sd5v8JQ"
  },
  {
    "title": "Self Drive Car Rental Chandigarh",
    "categoryName": "Car rental agency",
    "address": "Scf 509, Motor Market, Sector 13, Chandigarh, 160101, India",
    "neighborhood": "Motor Market, Sector 13",
    "street": "Scf 509",
    "city": "Chandigarh",
    "postalCode": "160101",
    "state": "Chandigarh",
    "countryCode": "IN",
    "website": "https://selfdrivecarrentalchandigarh.com/",
    "phone": "+917696533533",
    "phoneUnformatted": "+917696533533",
    "location": {
      "lat": 30.7142893,
      "lng": 76.846665
    },
    "totalScore": 5,
    "permanentlyClosed": false,
    "temporarilyClosed": false,
    "placeId": "ChIJr5lMfmiTDzkRMRfrrGiQNIk",
    "categories": [
      "Car rental agency"
    ],
    "reviewsCount": 51,
    "imagesCount": 26,
    "openingHours": [
      {
        "day": "Monday",
        "hours": "6 AM to 11 PM"
      },
      {
        "day": "Tuesday",
        "hours": "6 AM to 11 PM"
      },
      {
        "day": "Wednesday",
        "hours": "6 AM to 11 PM"
      },
      {
        "day": "Thursday",
        "hours": "6 AM to 11 PM"
      },
      {
        "day": "Friday",
        "hours": "6 AM to 11 PM"
      },
      {
        "day": "Saturday",
        "hours": "6 AM to 11 PM"
      },
      {
        "day": "Sunday",
        "hours": "6 AM to 11 PM"
      }
    ],
    "imageUrl": "https://lh3.googleusercontent.com/p/AF1QipNIekxv52WJs0tAv0kM0uu7tA3tqc9IEFBusPKL=w408-h342-k-no",
    "url": "https://www.google.com/maps/search/?api=1&query=Self%20Drive%20Car%20Rental%20Chandigarh&query_place_id=ChIJr5lMfmiTDzkRMRfrrGiQNIk"
  },
  {
    "title": "Self Drive Car Rental in Chandigarh - LRC Car Rentals",
    "categoryName": "Car rental agency",
    "address": "H.No. 1666, near Mahajan Cricket Ground, Kishangarh, Chandigarh, 160101, India",
    "neighborhood": "Kishangarh",
    "street": "H.No. 1666, near Mahajan Cricket Ground",
    "city": "Chandigarh",
    "postalCode": "160101",
    "state": "Chandigarh",
    "countryCode": "IN",
    "website": "https://lrc-car-rentals.com/",
    "phone": "+919988800699",
    "phoneUnformatted": "+919988800699",
    "location": {
      "lat": 30.7307924,
      "lng": 76.8276831
    },
    "totalScore": 5,
    "permanentlyClosed": false,
    "temporarilyClosed": false,
    "placeId": "ChIJDyoFsr9L7U0RL2JrqU-eWo4",
    "categories": [
      "Car rental agency"
    ],
    "reviewsCount": 32,
    "imagesCount": 25,
    "openingHours": [
      {
        "day": "Monday",
        "hours": "Open 24 hours"
      },
      {
        "day": "Tuesday",
        "hours": "Open 24 hours"
      },
      {
        "day": "Wednesday",
        "hours": "Open 24 hours"
      },
      {
        "day": "Thursday",
        "hours": "Open 24 hours"
      },
      {
        "day": "Friday",
        "hours": "Open 24 hours"
      },
      {
        "day": "Saturday",
        "hours": "Open 24 hours"
      },
      {
        "day": "Sunday",
        "hours": "Open 24 hours"
      }
    ],
    "imageUrl": "https://lh3.googleusercontent.com/p/AF1QipNRkU3Rgnp26Jtuit1tUVsOo481nY1QlaJVG_X4=w408-h306-k-no",
    "url": "https://www.google.com/maps/search/?api=1&query=Self%20Drive%20Car%20Rental%20in%20Chandigarh%20-%20LRC%20Car%20Rentals&query_place_id=ChIJDyoFsr9L7U0RL2JrqU-eWo4"
  },
  {
    "title": "Self Drive Car Rental in Chandigarh - ODAC24",
    "categoryName": "Car rental agency",
    "address": "SCO 72, Top Floor, Sector 46C, Sector 46, Chandigarh, 160047, India",
    "neighborhood": "Sector 46C, Sector 46",
    "street": "SCO 72, Top Floor",
    "city": "Chandigarh",
    "postalCode": "160047",
    "state": "Chandigarh",
    "countryCode": "IN",
    "website": "https://www.odac24.com/",
    "phone": "+919815070133",
    "phoneUnformatted": "+919815070133",
    "location": {
      "lat": 30.7001331,
      "lng": 76.7650598
    },
    "totalScore": 4.9,
    "permanentlyClosed": false,
    "temporarilyClosed": false,
    "placeId": "ChIJgTu-HjLtDzkRGc7f7tZsri0",
    "categories": [
      "Car rental agency",
      "Car leasing service"
    ],
    "reviewsCount": 96,
    "imagesCount": 22,
    "openingHours": [
      {
        "day": "Monday",
        "hours": "10 AM to 8 PM"
      },
      {
        "day": "Tuesday",
        "hours": "10 AM to 8 PM"
      },
      {
        "day": "Wednesday",
        "hours": "10 AM to 8 PM"
      },
      {
        "day": "Thursday",
        "hours": "10 AM to 8 PM"
      },
      {
        "day": "Friday",
        "hours": "10 AM to 8 PM"
      },
      {
        "day": "Saturday",
        "hours": "10 AM to 8 PM"
      },
      {
        "day": "Sunday",
        "hours": "Closed"
      }
    ],
    "imageUrl": "https://lh3.googleusercontent.com/gps-cs-s/AG0ilSzz9hZXzUccU0JM-OW1K_fqh1JGc_YQAziksOGJJ9uk_rTsS2aAU4Z7ERrReEK0UWzrFnCpve6nUPNlgnRRKueqcQCvrxoZvTrI1W5a2EzI1Ce3hlkv488Ahwrvt7elJk1KWeKX=w408-h306-k-no",
    "url": "https://www.google.com/maps/search/?api=1&query=Self%20Drive%20Car%20Rental%20in%20Chandigarh%20-%20ODAC24&query_place_id=ChIJgTu-HjLtDzkRGc7f7tZsri0"
  },
  {
    "title": "Self Drive Car in Chandigarh (Acme Cars)",
    "categoryName": "Car rental agency",
    "address": "near MLA Hostel Haryana, 3B, Sector 3, Chandigarh, 160001, India",
    "neighborhood": "3B, Sector 3",
    "street": "near MLA Hostel Haryana",
    "city": "Chandigarh",
    "postalCode": "160001",
    "state": "Chandigarh",
    "countryCode": "IN",
    "website": "https://acmecar.in/",
    "phone": "+919815002525",
    "phoneUnformatted": "+919815002525",
    "location": {
      "lat": 30.755544,
      "lng": 76.7959664
    },
    "totalScore": 5,
    "permanentlyClosed": false,
    "temporarilyClosed": false,
    "placeId": "ChIJWbkWf9DtDzkR1Gf3n04E728",
    "categories": [
      "Car rental agency",
      "Car dealer",
      "Car leasing service",
      "Rental car return location",
      "Taxi service"
    ],
    "reviewsCount": 216,
    "imagesCount": 103,
    "openingHours": [
      {
        "day": "Monday",
        "hours": "6 AM to 10 PM"
      },
      {
        "day": "Tuesday",
        "hours": "6 AM to 10 PM"
      },
      {
        "day": "Wednesday",
        "hours": "6 AM to 10 PM"
      },
      {
        "day": "Thursday",
        "hours": "6 AM to 10 PM"
      },
      {
        "day": "Friday",
        "hours": "6 AM to 10 PM"
      },
      {
        "day": "Saturday",
        "hours": "6 AM to 10 PM"
      },
      {
        "day": "Sunday",
        "hours": "6 AM to 10 PM"
      }
    ],
    "imageUrl": "https://lh3.googleusercontent.com/p/AF1QipM7-OHzAunNVDGcaLMQRDTrGdr9nbPS1i9CcYG0=w408-h544-k-no",
    "url": "https://www.google.com/maps/search/?api=1&query=Self%20Drive%20Car%20in%20Chandigarh%20(Acme%20Cars)&query_place_id=ChIJWbkWf9DtDzkR1Gf3n04E728"
  },
  {
    "title": "Self drive car in Chandigarh (Katyal Self Drive Cars)",
    "categoryName": "Car rental agency",
    "address": "375, A, 46B, Sector 46, Chandigarh, 160047, India",
    "neighborhood": "46B, Sector 46",
    "street": "375, A",
    "city": "Chandigarh",
    "postalCode": "160047",
    "state": "Chandigarh",
    "countryCode": "IN",
    "website": "https://www.chandigarhselfdrivecar.com/",
    "phone": "+919041214141",
    "phoneUnformatted": "+919041214141",
    "location": {
      "lat": 30.701567,
      "lng": 76.765273
    },
    "totalScore": 5,
    "permanentlyClosed": false,
    "temporarilyClosed": false,
    "placeId": "ChIJ215CmcvtDzkRIN54yUa50vM",
    "categories": [
      "Car rental agency"
    ],
    "reviewsCount": 76,
    "imagesCount": 474,
    "openingHours": [
      {
        "day": "Monday",
        "hours": "Open 24 hours"
      },
      {
        "day": "Tuesday",
        "hours": "Open 24 hours"
      },
      {
        "day": "Wednesday",
        "hours": "Open 24 hours"
      },
      {
        "day": "Thursday",
        "hours": "Open 24 hours"
      },
      {
        "day": "Friday",
        "hours": "Open 24 hours"
      },
      {
        "day": "Saturday",
        "hours": "Open 24 hours"
      },
      {
        "day": "Sunday",
        "hours": "Open 24 hours"
      }
    ],
    "imageUrl": "https://lh3.googleusercontent.com/p/AF1QipNLoZSdEWSc7iRYplFjZdK6zCm8xcZMLBXrpVxl=w408-h544-k-no",
    "url": "https://www.google.com/maps/search/?api=1&query=Self%20drive%20car%20in%20Chandigarh%20(Katyal%20Self%20Drive%20Cars)&query_place_id=ChIJ215CmcvtDzkRIN54yUa50vM"
  },
  {
    "title": "Sharma Car Rental",
    "categoryName": "Car rental agency",
    "address": "2297, Sector 45C, Sector 45, Chandigarh, 160047, India",
    "neighborhood": "Sector 45C, Sector 45",
    "street": "2297",
    "city": "Chandigarh",
    "postalCode": "160047",
    "state": "Chandigarh",
    "countryCode": "IN",
    "website": "http://carrentforselfdrive.com/",
    "phone": "+917340994020",
    "phoneUnformatted": "+917340994020",
    "location": {
      "lat": 30.7050472,
      "lng": 76.7567556
    },
    "totalScore": 5,
    "permanentlyClosed": false,
    "temporarilyClosed": false,
    "placeId": "ChIJaQmR5iLtDzkRuWMJrSefZ7M",
    "categories": [
      "Car rental agency"
    ],
    "reviewsCount": 1480,
    "imagesCount": 118,
    "openingHours": [
      {
        "day": "Monday",
        "hours": "Open 24 hours"
      },
      {
        "day": "Tuesday",
        "hours": "Open 24 hours"
      },
      {
        "day": "Wednesday",
        "hours": "Open 24 hours"
      },
      {
        "day": "Thursday",
        "hours": "Open 24 hours"
      },
      {
        "day": "Friday",
        "hours": "Open 24 hours"
      },
      {
        "day": "Saturday",
        "hours": "Open 24 hours"
      },
      {
        "day": "Sunday",
        "hours": "Open 24 hours"
      }
    ],
    "imageUrl": "https://lh3.googleusercontent.com/p/AF1QipOIb0RuoidT6uXpxKxAnKvqC3t7ANwAx_4DKB6S=w408-h543-k-no",
    "url": "https://www.google.com/maps/search/?api=1&query=Sharma%20Car%20Rental&query_place_id=ChIJaQmR5iLtDzkRuWMJrSefZ7M"
  },
  {
    "title": "Spinny - City Emporium Mall - Chandigarh",
    "categoryName": "Used car dealer",
    "address": "Unit No.1, Ground Floor, Plot No 143-A, Industrial Area Phase I, Chandigarh, Punjab 160002, India",
    "neighborhood": "Industrial Area Phase I",
    "street": "Unit No.1, Ground Floor, Plot No 143-A",
    "city": "Chandigarh",
    "postalCode": "160002",
    "state": "Punjab",
    "countryCode": "IN",
    "website": "https://www.spinny.com/used-cars-in-chandigarh/s/",
    "phone": "+917277277275",
    "phoneUnformatted": "+917277277275",
    "location": {
      "lat": 30.7093742,
      "lng": 76.8008809
    },
    "totalScore": 4.8,
    "permanentlyClosed": false,
    "temporarilyClosed": false,
    "placeId": "ChIJl8lDMrHrDzkROs4T-LmhZvg",
    "categories": [
      "Used car dealer"
    ],
    "reviewsCount": 2545,
    "imagesCount": 144,
    "openingHours": [
      {
        "day": "Monday",
        "hours": "10 AM to 8 PM"
      },
      {
        "day": "Tuesday",
        "hours": "10 AM to 8 PM"
      },
      {
        "day": "Wednesday",
        "hours": "10 AM to 8 PM"
      },
      {
        "day": "Thursday",
        "hours": "10 AM to 8 PM"
      },
      {
        "day": "Friday",
        "hours": "10 AM to 8 PM"
      },
      {
        "day": "Saturday",
        "hours": "10 AM to 8 PM"
      },
      {
        "day": "Sunday",
        "hours": "10 AM to 8 PM"
      }
    ],
    "imageUrl": "https://lh3.googleusercontent.com/gps-cs-s/AG0ilSx3PRpHtenWhn8m9dr8lZ_0imC2_ZXWuvpz0coDjlflC9loUXjMchJMUW0FRQT5Ix3KKdSzQkQYP1SjXjoeVK0TLnr_GbGJLcYp7Zq6XoZrGF0tg6EIGEIFRXXpONgieogT61_e=w408-h306-k-no",
    "url": "https://www.google.com/maps/search/?api=1&query=Spinny%20-%20City%20Emporium%20Mall%20-%20Chandigarh&query_place_id=ChIJl8lDMrHrDzkROs4T-LmhZvg"
  },
  {
    "title": "Star Selfdrive Car & Bike Rental",
    "categoryName": "Car rental agency",
    "address": "House no. 2304, 3, Sector 45C, Sector 45, Chandigarh, 160047, India",
    "neighborhood": "Sector 45C, Sector 45",
    "street": "House no. 2304, 3",
    "city": "Chandigarh",
    "postalCode": "160047",
    "state": "Chandigarh",
    "countryCode": "IN",
    "website": "http://selfddrivecaronrent.com/",
    "phone": "+916284198810",
    "phoneUnformatted": "+916284198810",
    "location": {
      "lat": 30.7046514,
      "lng": 76.7558604
    },
    "totalScore": 4.9,
    "permanentlyClosed": false,
    "temporarilyClosed": false,
    "placeId": "ChIJe2sarg3tDzkRJlheWAy6Fhg",
    "categories": [
      "Car rental agency",
      "Car leasing service",
      "Motorcycle rental agency"
    ],
    "reviewsCount": 139,
    "imagesCount": 134,
    "openingHours": [
      {
        "day": "Monday",
        "hours": "Open 24 hours"
      },
      {
        "day": "Tuesday",
        "hours": "Open 24 hours"
      },
      {
        "day": "Wednesday",
        "hours": "Open 24 hours"
      },
      {
        "day": "Thursday",
        "hours": "Open 24 hours"
      },
      {
        "day": "Friday",
        "hours": "Open 24 hours"
      },
      {
        "day": "Saturday",
        "hours": "Open 24 hours"
      },
      {
        "day": "Sunday",
        "hours": "Open 24 hours"
      }
    ],
    "imageUrl": "https://lh3.googleusercontent.com/p/AF1QipPkrmx9gXsB94pXdvxJ7DhkYYdie4M0pLeoe71g=w408-h306-k-no",
    "url": "https://www.google.com/maps/search/?api=1&query=Star%20Selfdrive%20Car%20%26%20Bike%20Rental&query_place_id=ChIJe2sarg3tDzkRJlheWAy6Fhg"
  },
  {
    "title": "Super cars",
    "categoryName": "Used car dealer",
    "address": "Sco 38, Sector 7-C, Sector 7, Chandigarh, 160019, India",
    "neighborhood": "Sector 7-C, Sector 7",
    "street": "Sco 38",
    "city": "Chandigarh",
    "postalCode": "160019",
    "state": "Chandigarh",
    "countryCode": "IN",
    "phone": "+919316131640",
    "phoneUnformatted": "+919316131640",
    "location": {
      "lat": 30.7300582,
      "lng": 76.8009173
    },
    "totalScore": 4.2,
    "permanentlyClosed": false,
    "temporarilyClosed": false,
    "placeId": "ChIJcbyRMVjtDzkRhpeR_VoYNTI",
    "categories": [
      "Used car dealer"
    ],
    "reviewsCount": 5,
    "imagesCount": 7,
    "openingHours": [
      {
        "day": "Monday",
        "hours": "10 AM to 6 PM"
      },
      {
        "day": "Tuesday",
        "hours": "10 AM to 6 PM"
      },
      {
        "day": "Wednesday",
        "hours": "10 AM to 6 PM"
      },
      {
        "day": "Thursday",
        "hours": "10 AM to 6 PM"
      },
      {
        "day": "Friday",
        "hours": "10 AM to 12 AM"
      },
      {
        "day": "Saturday",
        "hours": "12 to 6 AM, 10 AM to 6 PM"
      },
      {
        "day": "Sunday",
        "hours": "Closed"
      }
    ],
    "imageUrl": "https://lh3.googleusercontent.com/p/AF1QipOfOf4fwehUAO5q3kbR_m5XFfcG-Wu0_1Gj-BIn=w408-h839-k-no",
    "url": "https://www.google.com/maps/search/?api=1&query=Super%20cars&query_place_id=ChIJcbyRMVjtDzkRhpeR_VoYNTI"
  },
  {
    "title": "Tara Brothers",
    "subTitle": "ਤਾਰਾ ਬ੍ਰਦਰਜ਼",
    "categoryName": "Car rental agency",
    "address": "SCO 98-100, 17D, Sector 17, Chandigarh, 160017, India",
    "neighborhood": "17D, Sector 17",
    "street": "SCO 98-100",
    "city": "Chandigarh",
    "postalCode": "160017",
    "state": "Chandigarh",
    "countryCode": "IN",
    "website": "http://www.tarabrothers.com/",
    "phone": "+919872800986",
    "phoneUnformatted": "+919872800986",
    "location": {
      "lat": 30.7420247,
      "lng": 76.7834231
    },
    "totalScore": 4,
    "permanentlyClosed": false,
    "temporarilyClosed": false,
    "placeId": "ChIJq6qqqgvtDzkRHBzsNPz85PU",
    "categories": [
      "Car rental agency",
      "Bus charter"
    ],
    "reviewsCount": 24,
    "imagesCount": 32,
    "openingHours": [
      {
        "day": "Monday",
        "hours": "6 AM to 9 PM"
      },
      {
        "day": "Tuesday",
        "hours": "6 AM to 9 PM"
      },
      {
        "day": "Wednesday",
        "hours": "6 AM to 9 PM"
      },
      {
        "day": "Thursday",
        "hours": "6 AM to 9 PM"
      },
      {
        "day": "Friday",
        "hours": "6 AM to 9 PM"
      },
      {
        "day": "Saturday",
        "hours": "6 AM to 9 PM"
      },
      {
        "day": "Sunday",
        "hours": "9 AM to 8 PM"
      }
    ],
    "imageUrl": "https://lh3.googleusercontent.com/p/AF1QipNubZnMNRngMLf-2tjJry6rYrAvstxX0eS2ixZm=w428-h240-k-no",
    "url": "https://www.google.com/maps/search/?api=1&query=Tara%20Brothers&query_place_id=ChIJq6qqqgvtDzkRHBzsNPz85PU"
  },
  {
    "title": "Tata Motors Cars Showroom - Krishna Assured, Industrial Area",
    "categoryName": "Car dealer",
    "address": "Plot No 182/15, Industrial Area Phase I, Chandigarh, 160002, India",
    "neighborhood": "Industrial Area Phase I",
    "street": "Plot No 182/15",
    "city": "Chandigarh",
    "postalCode": "160002",
    "state": "Chandigarh",
    "countryCode": "IN",
    "website": "https://dealer-locator.cars.tatamotors.com/tata-motors-cars-showroom-krishna-assured-industrial-area-car-dealer-industrial-area-chandigarh-408231/Home",
    "phone": "+919056651991",
    "phoneUnformatted": "+919056651991",
    "location": {
      "lat": 30.7008194,
      "lng": 76.794674
    },
    "totalScore": 4.5,
    "permanentlyClosed": false,
    "temporarilyClosed": false,
    "placeId": "ChIJpTdinyLtDzkRO7Z51SHgoxY",
    "categories": [
      "Car dealer"
    ],
    "reviewsCount": 24,
    "imagesCount": 15,
    "openingHours": [
      {
        "day": "Monday",
        "hours": "10 AM to 7 PM"
      },
      {
        "day": "Tuesday",
        "hours": "10 AM to 7 PM"
      },
      {
        "day": "Wednesday",
        "hours": "10 AM to 7 PM"
      },
      {
        "day": "Thursday",
        "hours": "10 AM to 7 PM"
      },
      {
        "day": "Friday",
        "hours": "10 AM to 7 PM"
      },
      {
        "day": "Saturday",
        "hours": "10 AM to 7 PM"
      },
      {
        "day": "Sunday",
        "hours": "10 AM to 7 PM"
      }
    ],
    "imageUrl": "https://lh3.googleusercontent.com/p/AF1QipMm4KYFfuhY26poTShGYC-qa8tdOwYOWLnncorC=w432-h240-k-no",
    "url": "https://www.google.com/maps/search/?api=1&query=Tata%20Motors%20Cars%20Showroom%20-%20Krishna%20Assured%2C%20Industrial%20Area&query_place_id=ChIJpTdinyLtDzkRO7Z51SHgoxY"
  },
  {
    "title": "Territory tour&travel solution",
    "categoryName": "Car rental agency",
    "address": "House no:- 2281, near sabji mandi, Sector 45C, Sector 45, Chandigarh, 160047, India",
    "neighborhood": "Sector 45C, Sector 45",
    "street": "House no:- 2281, near sabji mandi",
    "city": "Chandigarh",
    "postalCode": "160047",
    "state": "Chandigarh",
    "countryCode": "IN",
    "phone": "+918360202642",
    "phoneUnformatted": "+918360202642",
    "location": {
      "lat": 30.7048451,
      "lng": 76.7561619
    },
    "totalScore": 5,
    "permanentlyClosed": false,
    "temporarilyClosed": false,
    "placeId": "ChIJMSBrC6TtDzkR77cqaJIQM0k",
    "categories": [
      "Car rental agency"
    ],
    "reviewsCount": 134,
    "imagesCount": 1,
    "openingHours": [
      {
        "day": "Monday",
        "hours": "Open 24 hours"
      },
      {
        "day": "Tuesday",
        "hours": "Open 24 hours"
      },
      {
        "day": "Wednesday",
        "hours": "Open 24 hours"
      },
      {
        "day": "Thursday",
        "hours": "Open 24 hours"
      },
      {
        "day": "Friday",
        "hours": "Open 24 hours"
      },
      {
        "day": "Saturday",
        "hours": "Open 24 hours"
      },
      {
        "day": "Sunday",
        "hours": "Open 24 hours"
      }
    ],
    "imageUrl": "https://streetviewpixels-pa.googleapis.com/v1/thumbnail?panoid=h9weO2zjkFS5r0_vXKj8pw&cb_client=search.gws-prod.gps&w=408&h=240&yaw=305.39453&pitch=0&thumbfov=100",
    "url": "https://www.google.com/maps/search/?api=1&query=Territory%20tour%26travel%20solution&query_place_id=ChIJMSBrC6TtDzkR77cqaJIQM0k"
  },
  {
    "title": "Thar on rent | Fortuner on rent | Rent a car Chandigarh | Self Drive Car rental Chandigarh",
    "categoryName": "Car rental agency",
    "address": "SCO 98, 47A, Sector 47, Chandigarh, 160047, India",
    "neighborhood": "47A, Sector 47",
    "street": "SCO 98",
    "city": "Chandigarh",
    "postalCode": "160047",
    "state": "Chandigarh",
    "countryCode": "IN",
    "website": "https://selfdrivecaronrent.com/",
    "phone": "+917973109710",
    "phoneUnformatted": "+917973109710",
    "location": {
      "lat": 30.7009242,
      "lng": 76.7714041
    },
    "totalScore": 5,
    "permanentlyClosed": false,
    "temporarilyClosed": false,
    "placeId": "ChIJtR7mu1LtDzkRLg1rhnLvEkw",
    "categories": [
      "Car rental agency"
    ],
    "reviewsCount": 46,
    "imagesCount": 23,
    "openingHours": [
      {
        "day": "Monday",
        "hours": "Open 24 hours"
      },
      {
        "day": "Tuesday",
        "hours": "Open 24 hours"
      },
      {
        "day": "Wednesday",
        "hours": "Open 24 hours"
      },
      {
        "day": "Thursday",
        "hours": "Open 24 hours"
      },
      {
        "day": "Friday",
        "hours": "Open 24 hours"
      },
      {
        "day": "Saturday",
        "hours": "Open 24 hours"
      },
      {
        "day": "Sunday",
        "hours": "Open 24 hours"
      }
    ],
    "imageUrl": "https://lh3.googleusercontent.com/p/AF1QipMuHctb9ZwiC57HMox-imIB9adKVkcsUgsDDcPs=w408-h408-k-no",
    "url": "https://www.google.com/maps/search/?api=1&query=Thar%20on%20rent%20%7C%20Fortuner%20on%20rent%20%7C%20Rent%20a%20car%20Chandigarh%20%7C%20Self%20Drive%20Car%20rental%20Chandigarh&query_place_id=ChIJtR7mu1LtDzkRLg1rhnLvEkw"
  },
  {
    "title": "The Wheel Ride",
    "categoryName": "Car rental agency",
    "address": "1st Floor, Back Side Of Post Office, 800, Sector 16 D, Sector 16, Chandigarh, 160015, India",
    "neighborhood": "Sector 16 D, Sector 16",
    "street": "1st Floor, Back Side Of Post Office, 800",
    "city": "Chandigarh",
    "postalCode": "160015",
    "state": "Chandigarh",
    "countryCode": "IN",
    "website": "http://www.thewheelride.com/",
    "phone": "+917082896263",
    "phoneUnformatted": "+917082896263",
    "location": {
      "lat": 30.7471242,
      "lng": 76.7749088
    },
    "totalScore": 4.9,
    "permanentlyClosed": false,
    "temporarilyClosed": false,
    "placeId": "ChIJd__UAhpc2YwRj6x-PidXfbQ",
    "categories": [
      "Car rental agency"
    ],
    "reviewsCount": 73,
    "imagesCount": 10,
    "openingHours": [
      {
        "day": "Monday",
        "hours": "Open 24 hours"
      },
      {
        "day": "Tuesday",
        "hours": "Open 24 hours"
      },
      {
        "day": "Wednesday",
        "hours": "Open 24 hours"
      },
      {
        "day": "Thursday",
        "hours": "Open 24 hours"
      },
      {
        "day": "Friday",
        "hours": "Open 24 hours"
      },
      {
        "day": "Saturday",
        "hours": "Open 24 hours"
      },
      {
        "day": "Sunday",
        "hours": "Open 24 hours"
      }
    ],
    "imageUrl": "https://lh3.googleusercontent.com/p/AF1QipOVCxkkKoO2u2QNyxp_U3srdB-xGNSE5vXIpV-s=w408-h408-k-no",
    "url": "https://www.google.com/maps/search/?api=1&query=The%20Wheel%20Ride&query_place_id=ChIJd__UAhpc2YwRj6x-PidXfbQ"
  },
  {
    "title": "Tiwana Automobiles",
    "categoryName": "Car repair and maintenance service",
    "address": "Plot No 181/6, Industrial Area Phase I, Chandigarh, 160002, India",
    "neighborhood": "Industrial Area Phase I",
    "street": "Plot No 181/6",
    "city": "Chandigarh",
    "postalCode": "160002",
    "state": "Chandigarh",
    "countryCode": "IN",
    "phone": "+918968390522",
    "phoneUnformatted": "+918968390522",
    "location": {
      "lat": 30.7035715,
      "lng": 76.7919713
    },
    "totalScore": 4.1,
    "permanentlyClosed": false,
    "temporarilyClosed": false,
    "placeId": "ChIJ0Uef9OLrDzkRue6xQ8-CZ6w",
    "categories": [
      "Car repair and maintenance service",
      "Auto parts store",
      "Auto tune up service",
      "Repair service"
    ],
    "reviewsCount": 87,
    "imagesCount": 25,
    "openingHours": [
      {
        "day": "Monday",
        "hours": "9 AM to 6:30 PM"
      },
      {
        "day": "Tuesday",
        "hours": "9 AM to 6:30 PM"
      },
      {
        "day": "Wednesday",
        "hours": "9 AM to 6:30 PM"
      },
      {
        "day": "Thursday",
        "hours": "9 AM to 6:30 PM"
      },
      {
        "day": "Friday",
        "hours": "9 AM to 6:30 PM"
      },
      {
        "day": "Saturday",
        "hours": "9 AM to 6:30 PM"
      },
      {
        "day": "Sunday",
        "hours": "Closed"
      }
    ],
    "imageUrl": "https://lh3.googleusercontent.com/gps-cs-s/AG0ilSyeNXfweKvEbEdK9IjNMn25Zo1RgHAxhnprDkPCiSmaQt_r55eqjdKAX6InrJvM2i2KuZVtX4DWkMhbn4tzJz_zLTUTjpGTvjksmI0PB_iuR1N4JK0tRW_Pejh3-YWZNW3WJLgcLw=w408-h306-k-no",
    "url": "https://www.google.com/maps/search/?api=1&query=Tiwana%20Automobiles&query_place_id=ChIJ0Uef9OLrDzkRue6xQ8-CZ6w"
  },
  {
    "title": "Tricity Cars",
    "subTitle": "ਟਰਾਈਸਿਟੀ ਕਾਰਸ",
    "categoryName": "Car dealer",
    "address": "Plot no.-176 opp.Verka Milk Plant Industrial Area Phase I Chandigarh 160102, near Elante Mall, Chandigarh, 160002, India",
    "neighborhood": "Industrial Area Phase I",
    "street": "Plot no.-176 opp.Verka Milk Plant Industrial Area Phase I Chandigarh 160102, near Elante Mall",
    "city": "Chandigarh",
    "postalCode": "160002",
    "state": "Chandigarh",
    "countryCode": "IN",
    "phone": "+918820000044",
    "phoneUnformatted": "+918820000044",
    "location": {
      "lat": 30.7087462,
      "lng": 76.7994494
    },
    "totalScore": 4.2,
    "permanentlyClosed": false,
    "temporarilyClosed": false,
    "placeId": "ChIJf4gK8ejsDzkR_bqGs2qWSJk",
    "categories": [
      "Car dealer"
    ],
    "reviewsCount": 37,
    "imagesCount": 31,
    "openingHours": [
      {
        "day": "Monday",
        "hours": "10 AM to 6 PM"
      },
      {
        "day": "Tuesday",
        "hours": "10 AM to 6 PM"
      },
      {
        "day": "Wednesday",
        "hours": "10 AM to 6 PM"
      },
      {
        "day": "Thursday",
        "hours": "10 AM to 6 PM"
      },
      {
        "day": "Friday",
        "hours": "10 AM to 6 PM"
      },
      {
        "day": "Saturday",
        "hours": "10 AM to 6 PM"
      },
      {
        "day": "Sunday",
        "hours": "10 AM to 6 PM"
      }
    ],
    "imageUrl": "https://lh3.googleusercontent.com/p/AF1QipN8bcQWT5wGfzEJHk2oD9r0928k15IywX7dEfUj=w408-h306-k-no",
    "url": "https://www.google.com/maps/search/?api=1&query=Tricity%20Cars&query_place_id=ChIJf4gK8ejsDzkR_bqGs2qWSJk"
  },
  {
    "title": "Unique Carz Chandigarh",
    "categoryName": "Used car dealer",
    "address": "IT Park Rd, near Dhillon farm, Adarsh Nagar, Sector 13, Chandigarh, 160101, India",
    "neighborhood": "Adarsh Nagar, Sector 13",
    "street": "IT Park Rd, near Dhillon farm",
    "city": "Chandigarh",
    "postalCode": "160101",
    "state": "Chandigarh",
    "countryCode": "IN",
    "website": "https://www.instagram.com/uniquecarzchandigarh/",
    "location": {
      "lat": 30.721777,
      "lng": 76.8265125
    },
    "totalScore": 3,
    "permanentlyClosed": false,
    "temporarilyClosed": false,
    "placeId": "ChIJlYjA1TWTDzkRA2xGtFG978o",
    "categories": [
      "Used car dealer",
      "Auto broker",
      "Car dealer"
    ],
    "reviewsCount": 2,
    "imagesCount": 18,
    "openingHours": [
      {
        "day": "Monday",
        "hours": "9 AM to 8 PM"
      },
      {
        "day": "Tuesday",
        "hours": "9 AM to 8 PM"
      },
      {
        "day": "Wednesday",
        "hours": "9 AM to 8 PM"
      },
      {
        "day": "Thursday",
        "hours": "9 AM to 8 PM"
      },
      {
        "day": "Friday",
        "hours": "9 AM to 8 PM"
      },
      {
        "day": "Saturday",
        "hours": "9 AM to 8 PM"
      },
      {
        "day": "Sunday",
        "hours": "9 AM to 8 PM"
      }
    ],
    "imageUrl": "https://lh3.googleusercontent.com/gps-cs-s/AG0ilSw6LR8JRWN470JjrGuD0hVG4TpK6Wxyg7rDjmJdsbJqm23Zh4GdlCR2mqghCGBKN84PqsHxGd5wKT6oi7uJIod0y9NuhKme5ExpDznp4MuH7fR6tQOG_kGOuy1ywduBHiwjOQ=w408-h306-k-no",
    "url": "https://www.google.com/maps/search/?api=1&query=Unique%20Carz%20Chandigarh&query_place_id=ChIJlYjA1TWTDzkRA2xGtFG978o"
  },
  {
    "title": "Urbania Se Chalo - Force Urbania Hire In Chandigarh",
    "categoryName": "Car rental agency",
    "address": "Railway Station, Plot No 02, Daria, Chandigarh, 160101, India",
    "neighborhood": "Daria",
    "street": "Railway Station, Plot No 02",
    "city": "Chandigarh",
    "postalCode": "160101",
    "state": "Chandigarh",
    "countryCode": "IN",
    "website": "http://urbaniasechalo.com/",
    "phone": "+919915243111",
    "phoneUnformatted": "+919915243111",
    "location": {
      "lat": 30.6980309,
      "lng": 76.8169118
    },
    "totalScore": 5,
    "permanentlyClosed": false,
    "temporarilyClosed": false,
    "placeId": "ChIJz5L5ivntDzkRtC0nEp6gycI",
    "categories": [
      "Car rental agency",
      "Car leasing service",
      "Tour operator",
      "Taxi service",
      "Tourist information center",
      "Transportation service",
      "Travel agency"
    ],
    "reviewsCount": 34,
    "imagesCount": 60,
    "openingHours": [
      {
        "day": "Monday",
        "hours": "Open 24 hours"
      },
      {
        "day": "Tuesday",
        "hours": "Open 24 hours"
      },
      {
        "day": "Wednesday",
        "hours": "Open 24 hours"
      },
      {
        "day": "Thursday",
        "hours": "Open 24 hours"
      },
      {
        "day": "Friday",
        "hours": "Open 24 hours"
      },
      {
        "day": "Saturday",
        "hours": "Open 24 hours"
      },
      {
        "day": "Sunday",
        "hours": "Open 24 hours"
      }
    ],
    "imageUrl": "https://lh3.googleusercontent.com/p/AF1QipO9iG4ecySr3rBrMacNWdNRbAeUk53pY2H_OZQQ=w408-h306-k-no",
    "url": "https://www.google.com/maps/search/?api=1&query=Urbania%20Se%20Chalo%20-%20Force%20Urbania%20Hire%20In%20Chandigarh&query_place_id=ChIJz5L5ivntDzkRtC0nEp6gycI"
  },
  {
    "title": "Used Cars in Chandigarh",
    "categoryName": "Used car dealer",
    "address": "Plot No 176, near Verka Milk Plant, Industrial Area Phase I, Chandigarh, 160002, India",
    "neighborhood": "Industrial Area Phase I",
    "street": "Plot No 176, near Verka Milk Plant",
    "city": "Chandigarh",
    "postalCode": "160002",
    "state": "Chandigarh",
    "countryCode": "IN",
    "location": {
      "lat": 30.7080894,
      "lng": 76.7990176
    },
    "totalScore": 3.9,
    "permanentlyClosed": false,
    "temporarilyClosed": false,
    "placeId": "ChIJBTeZ89_tDzkRQm_Atlrs2ig",
    "categories": [
      "Used car dealer",
      "Auto broker",
      "Car dealer",
      "Motor vehicle dealer",
      "Vehicle inspection service"
    ],
    "reviewsCount": 32,
    "imagesCount": 49,
    "openingHours": [
      {
        "day": "Monday",
        "hours": "9:30 AM to 7 PM"
      },
      {
        "day": "Tuesday",
        "hours": "9:30 AM to 7 PM"
      },
      {
        "day": "Wednesday",
        "hours": "9:30 AM to 7 PM"
      },
      {
        "day": "Thursday",
        "hours": "9:30 AM to 7 PM"
      },
      {
        "day": "Friday",
        "hours": "9:30 AM to 7 PM"
      },
      {
        "day": "Saturday",
        "hours": "9:30 AM to 7 PM"
      },
      {
        "day": "Sunday",
        "hours": "9:30 AM to 7 PM"
      }
    ],
    "imageUrl": "https://lh3.googleusercontent.com/p/AF1QipMSCPUM0C2V2mykxxslXFMJ7ArAHjkVdrsG4oCp=w408-h306-k-no",
    "url": "https://www.google.com/maps/search/?api=1&query=Used%20Cars%20in%20Chandigarh&query_place_id=ChIJBTeZ89_tDzkRQm_Atlrs2ig"
  },
  {
    "title": "V.K CARS & CO",
    "categoryName": "Car dealer",
    "address": "Booth no. 3, Madhya Marg, Sector 7-C, Sector 7, Chandigarh, 160019, India",
    "neighborhood": "Sector 7-C, Sector 7",
    "street": "Booth no. 3, Madhya Marg",
    "city": "Chandigarh",
    "postalCode": "160019",
    "state": "Chandigarh",
    "countryCode": "IN",
    "website": "http://vkcars.in/",
    "phone": "+918054445434",
    "phoneUnformatted": "+918054445434",
    "location": {
      "lat": 30.731362,
      "lng": 76.7994807
    },
    "totalScore": 4.9,
    "permanentlyClosed": false,
    "temporarilyClosed": false,
    "placeId": "ChIJTQp3MhjtDzkRKgLKv7jIvps",
    "categories": [
      "Car dealer"
    ],
    "reviewsCount": 33,
    "imagesCount": 77,
    "openingHours": [
      {
        "day": "Monday",
        "hours": "10 AM to 7 PM"
      },
      {
        "day": "Tuesday",
        "hours": "10 AM to 7 PM"
      },
      {
        "day": "Wednesday",
        "hours": "10 AM to 7 PM"
      },
      {
        "day": "Thursday",
        "hours": "10 AM to 7 PM"
      },
      {
        "day": "Friday",
        "hours": "10 AM to 7 PM"
      },
      {
        "day": "Saturday",
        "hours": "10 AM to 7 PM"
      },
      {
        "day": "Sunday",
        "hours": "10 AM to 7 PM"
      }
    ],
    "imageUrl": "https://lh3.googleusercontent.com/p/AF1QipPaEHUUkZBYs5EkvMGB_nRzdJ081pPZG1G75bK2=w408-h306-k-no",
    "url": "https://www.google.com/maps/search/?api=1&query=V.K%20CARS%20%26%20CO&query_place_id=ChIJTQp3MhjtDzkRKgLKv7jIvps"
  },
  {
    "title": "Veera Car Rental",
    "categoryName": "Car rental agency",
    "address": "3327, Village Badheri, Paschim Vihar, Sector 40D, Chandigarh, 160036, India",
    "neighborhood": "Village Badheri, Paschim Vihar, Sector 40D",
    "street": "3327",
    "city": "Chandigarh",
    "postalCode": "160036",
    "state": "Chandigarh",
    "countryCode": "IN",
    "website": "https://www.chandigarhcarrentals.com/",
    "phone": "+918288060099",
    "phoneUnformatted": "+918288060099",
    "location": {
      "lat": 30.7313295,
      "lng": 76.7347495
    },
    "totalScore": 5,
    "permanentlyClosed": false,
    "temporarilyClosed": false,
    "placeId": "ChIJRT-rBDvtDzkRA54-0drkeqg",
    "categories": [
      "Car rental agency"
    ],
    "reviewsCount": 28,
    "imagesCount": 23,
    "openingHours": [
      {
        "day": "Monday",
        "hours": "7:30 AM to 10:30 PM"
      },
      {
        "day": "Tuesday",
        "hours": "7:30 AM to 10:30 PM"
      },
      {
        "day": "Wednesday",
        "hours": "7:30 AM to 10:30 PM"
      },
      {
        "day": "Thursday",
        "hours": "7:30 AM to 10:30 PM"
      },
      {
        "day": "Friday",
        "hours": "7:30 AM to 10:30 PM"
      },
      {
        "day": "Saturday",
        "hours": "7:30 AM to 10:30 PM"
      },
      {
        "day": "Sunday",
        "hours": "7:30 AM to 10:30 PM"
      }
    ],
    "imageUrl": "https://lh3.googleusercontent.com/p/AF1QipMN0QRtACLso03sSuGt-pdZVRJ1TrDvyc_Lb7aI=w408-h306-k-no",
    "url": "https://www.google.com/maps/search/?api=1&query=Veera%20Car%20Rental&query_place_id=ChIJRT-rBDvtDzkRA54-0drkeqg"
  },
  {
    "title": "WSL Jeep Chandigarh",
    "categoryName": "Jeep dealer",
    "address": "Plot Number 119, opposite Entrance of Hometel Hotel, Industrial Area Phase I, Chandigarh, 160002, India",
    "neighborhood": "Industrial Area Phase I",
    "street": "Plot Number 119, opposite Entrance of Hometel Hotel",
    "city": "Chandigarh",
    "postalCode": "160002",
    "state": "Chandigarh",
    "countryCode": "IN",
    "website": "https://wslautomobiles.jeep-india.com/",
    "phone": "+917574041111",
    "phoneUnformatted": "+917574041111",
    "location": {
      "lat": 30.7084212,
      "lng": 76.8031633
    },
    "totalScore": 4.7,
    "permanentlyClosed": false,
    "temporarilyClosed": false,
    "placeId": "ChIJMyPVVejsDzkRpzrX9haAYvU",
    "categories": [
      "Jeep dealer",
      "Auto repair shop",
      "Car dealer",
      "Dealer of Fiat Professional",
      "Fiat dealer"
    ],
    "reviewsCount": 538,
    "imagesCount": 91,
    "openingHours": [
      {
        "day": "Monday",
        "hours": "9:30 AM to 6:30 PM"
      },
      {
        "day": "Tuesday",
        "hours": "9:30 AM to 6:30 PM"
      },
      {
        "day": "Wednesday",
        "hours": "9:30 AM to 6:30 PM"
      },
      {
        "day": "Thursday",
        "hours": "9:30 AM to 6:30 PM"
      },
      {
        "day": "Friday",
        "hours": "9:30 AM to 6:30 PM"
      },
      {
        "day": "Saturday",
        "hours": "9:30 AM to 6:30 PM"
      },
      {
        "day": "Sunday",
        "hours": "11 AM to 6:30 PM"
      }
    ],
    "imageUrl": "https://lh3.googleusercontent.com/gps-cs-s/AG0ilSwQvkabk14v_ievY7WRXSfgUZLOk-E28LbDzkED8SuNCnNK1WxGVHD-SpHZLniNqKDdEN5HcmfGuncrMGwFBR1oa33dPfHhhu80y4fOSvG62HhnWNlfM4adEpA3qf42xs0Q0aNiVQ=w408-h306-k-no",
    "url": "https://www.google.com/maps/search/?api=1&query=WSL%20Jeep%20Chandigarh&query_place_id=ChIJMyPVVejsDzkRpzrX9haAYvU"
  },
  {
    "title": "Welcome Travels",
    "subTitle": "ਵੈਲਕਮ ਟਰੈਵਲਜ਼",
    "categoryName": "Car rental agency",
    "address": "Main Market, Opp: Sanatan Dharam Mandir Sector 23 C, Chandigarh 160023, India",
    "neighborhood": "23C, Sector 23",
    "street": "Main Market, Opp: Sanatan Dharam Mandir Sector 23 C",
    "city": "Chandigarh",
    "postalCode": "160023",
    "state": "Chandigarh",
    "countryCode": "IN",
    "phone": "+919217000019",
    "phoneUnformatted": "+919217000019",
    "location": {
      "lat": 30.7375127,
      "lng": 76.7664764
    },
    "totalScore": 3.7,
    "permanentlyClosed": false,
    "temporarilyClosed": false,
    "placeId": "ChIJBQ1s2yDtDzkRDrIJwWXCFdA",
    "categories": [
      "Car rental agency",
      "Car leasing service",
      "Taxi service"
    ],
    "reviewsCount": 12,
    "imagesCount": 17,
    "openingHours": [
      {
        "day": "Monday",
        "hours": "Open 24 hours"
      },
      {
        "day": "Tuesday",
        "hours": "Open 24 hours"
      },
      {
        "day": "Wednesday",
        "hours": "Open 24 hours"
      },
      {
        "day": "Thursday",
        "hours": "Open 24 hours"
      },
      {
        "day": "Friday",
        "hours": "Open 24 hours"
      },
      {
        "day": "Saturday",
        "hours": "Open 24 hours"
      },
      {
        "day": "Sunday",
        "hours": "Open 24 hours"
      }
    ],
    "imageUrl": "https://lh3.googleusercontent.com/gps-cs-s/AG0ilSxCsN2Zjsw5zkV3e_noF3shm9hsDx63x5PmzsQUZfQXam4CAS1g6RFCUff8lRmxMFZMNXdlOvINJBYtMCP5CqNuh5G_aOkyjHxvsqaYhiqWvRAgTx_a8h6yt4k45OkF8jTODeyQZw=w408-h306-k-no",
    "url": "https://www.google.com/maps/search/?api=1&query=Welcome%20Travels&query_place_id=ChIJBQ1s2yDtDzkRDrIJwWXCFdA"
  },
  {
    "title": "Wheels4drive",
    "categoryName": "Car rental agency",
    "address": "near ramlila ground, Sector 24C, Sector 24, Chandigarh, 160023, India",
    "neighborhood": "Sector 24C, Sector 24",
    "street": "near ramlila ground",
    "city": "Chandigarh",
    "postalCode": "160023",
    "state": "Chandigarh",
    "countryCode": "IN",
    "location": {
      "lat": 30.742332,
      "lng": 76.7589255
    },
    "permanentlyClosed": false,
    "temporarilyClosed": true,
    "placeId": "ChIJL85ef2_tDzkRDmqDmqHD6yc",
    "categories": [
      "Car rental agency"
    ],
    "imagesCount": 1,
    "openingHours": [],
    "imageUrl": "https://streetviewpixels-pa.googleapis.com/v1/thumbnail?panoid=gD86bKku8Oom9rv5L50ULQ&cb_client=search.gws-prod.gps&w=408&h=240&yaw=106.35155&pitch=0&thumbfov=100",
    "url": "https://www.google.com/maps/search/?api=1&query=Wheels4drive&query_place_id=ChIJL85ef2_tDzkRDmqDmqHD6yc"
  },
  {
    "title": "car&bike (by Mahindra First Choice) Harbir Automobile - Chandigarh",
    "categoryName": "Used car dealer",
    "address": "Mahindra Showroom, Plot No.182/2 Raman Square, opposit, Industrial Area Phase I, Chandigarh, 160002, India",
    "neighborhood": "Industrial Area Phase I",
    "street": "Mahindra Showroom, Plot No.182/2 Raman Square, opposit",
    "city": "Chandigarh",
    "postalCode": "160002",
    "state": "Chandigarh",
    "countryCode": "IN",
    "website": "https://www.carandbike.com/used/car-dealers/harbir-automobile-in-chandigarh-1693?utm_source=GMB",
    "phone": "+919875969830",
    "phoneUnformatted": "+919875969830",
    "location": {
      "lat": 30.703228,
      "lng": 76.7984757
    },
    "totalScore": 4.9,
    "permanentlyClosed": false,
    "temporarilyClosed": false,
    "placeId": "ChIJB5xAzJLtDzkRM0eYAfb-zM0",
    "categories": [
      "Used car dealer",
      "Auto broker",
      "Car dealer",
      "Motor vehicle dealer",
      "Vehicle inspection service"
    ],
    "reviewsCount": 68,
    "imagesCount": 77,
    "openingHours": [],
    "imageUrl": "https://lh3.googleusercontent.com/gps-cs-s/AG0ilSz3HIoCwkgAovPqfxyKt0aPEW0EHcaVtPSX1l80QYbJ1KSuxlLjJF9PlKG7dEX6rDDc_-p46TWiKc1SYmGMJCFFjdGgd644p7Y414KTmjXCTtBhXBjbb_BoDejwwzlY3Du-JvjZuQ=w408-h306-k-no",
    "url": "https://www.google.com/maps/search/?api=1&query=car%26bike%20(by%20Mahindra%20First%20Choice)%20Harbir%20Automobile%20-%20Chandigarh&query_place_id=ChIJB5xAzJLtDzkRM0eYAfb-zM0"
  },
  {
    "title": "classic car deals",
    "categoryName": "Used car dealer",
    "address": "Phase 1, plot no 4, Industrial Area Phase I, Chandigarh, 160002, India",
    "neighborhood": "Industrial Area Phase I",
    "street": "Phase 1, plot no 4",
    "city": "Chandigarh",
    "postalCode": "160002",
    "state": "Chandigarh",
    "countryCode": "IN",
    "location": {
      "lat": 30.7019309,
      "lng": 76.7978909
    },
    "totalScore": 3.7,
    "permanentlyClosed": false,
    "temporarilyClosed": false,
    "placeId": "ChIJDRLJy_XtDzkRJmv-CIBWbQg",
    "categories": [
      "Used car dealer"
    ],
    "reviewsCount": 6,
    "imagesCount": 21,
    "openingHours": [
      {
        "day": "Monday",
        "hours": "Open 24 hours"
      },
      {
        "day": "Tuesday",
        "hours": "Open 24 hours"
      },
      {
        "day": "Wednesday",
        "hours": "Open 24 hours"
      },
      {
        "day": "Thursday",
        "hours": "Open 24 hours"
      },
      {
        "day": "Friday",
        "hours": "Open 24 hours"
      },
      {
        "day": "Saturday",
        "hours": "Open 24 hours"
      },
      {
        "day": "Sunday",
        "hours": "Open 24 hours"
      }
    ],
    "imageUrl": "https://lh3.googleusercontent.com/p/AF1QipOgg8JN967rkfguig0KeMu0DfxDVKF4NEoxF-9i=w408-h306-k-no",
    "url": "https://www.google.com/maps/search/?api=1&query=classic%20car%20deals&query_place_id=ChIJDRLJy_XtDzkRJmv-CIBWbQg"
  },
  {
    "title": "𝐀𝐊 𝐋𝐔𝐗𝐔𝐑𝐘 𝐂𝐀𝐁𝐒 - Luxury Car Rental - Wedding Cars in Chandigarh - Airport Self Driven Cars",
    "categoryName": "Car rental agency",
    "address": "Taxi Stand, near Bobby Electronics, Sector 35D, Electronics Markit, Chandigarh, 160022, India",
    "neighborhood": "Sector 35D, Electronics Markit",
    "street": "Taxi Stand, near Bobby Electronics",
    "city": "Chandigarh",
    "postalCode": "160022",
    "state": "Chandigarh",
    "countryCode": "IN",
    "website": "https://akluxurycabs.com/",
    "phone": "+919464414242",
    "phoneUnformatted": "+919464414242",
    "location": {
      "lat": 30.7253823,
      "lng": 76.7591621
    },
    "totalScore": 4.7,
    "permanentlyClosed": false,
    "temporarilyClosed": false,
    "placeId": "ChIJVTARtSntDzkRyGj8rtQ5L78",
    "categories": [
      "Car rental agency",
      "Airport shuttle service",
      "Car leasing service",
      "Minibus taxi service",
      "Sightseeing tour agency",
      "Taxi service",
      "Tour operator"
    ],
    "reviewsCount": 145,
    "imagesCount": 114,
    "openingHours": [
      {
        "day": "Monday",
        "hours": "Open 24 hours"
      },
      {
        "day": "Tuesday",
        "hours": "Open 24 hours"
      },
      {
        "day": "Wednesday",
        "hours": "Open 24 hours"
      },
      {
        "day": "Thursday",
        "hours": "Open 24 hours"
      },
      {
        "day": "Friday",
        "hours": "Open 24 hours"
      },
      {
        "day": "Saturday",
        "hours": "Open 24 hours"
      },
      {
        "day": "Sunday",
        "hours": "5 AM to 11:30 PM"
      }
    ],
    "imageUrl": "https://lh3.googleusercontent.com/p/AF1QipMJHFiVGiWliyM4FDySAFyK6eQXxHyYDDyZa7I=w408-h544-k-no",
    "url": "https://www.google.com/maps/search/?api=1&query=%F0%9D%90%80%F0%9D%90%8A%20%F0%9D%90%8B%F0%9D%90%94%F0%9D%90%97%F0%9D%90%94%F0%9D%90%91%F0%9D%90%98%20%F0%9D%90%82%F0%9D%90%80%F0%9D%90%81%F0%9D%90%92%20-%20Luxury%20Car%20Rental%20-%20Wedding%20Cars%20in%20Chandigarh%20-%20Airport%20Self%20Driven%20Cars&query_place_id=ChIJVTARtSntDzkRyGj8rtQ5L78"
  }
]