[
  {
    "title": "ABHI CAR'S TRAVEL'S - Guntur",
    "categoryName": "Car rental agency",
    "address": "Mangaldas Nagar, Guntur, Andhra Pradesh 522002, India",
    "neighborhood": "Mangaldas Nagar",
    "city": "Guntur",
    "postalCode": "522002",
    "state": "Andhra Pradesh",
    "countryCode": "IN",
    "phone": "+917396846408",
    "phoneUnformatted": "+917396846408",
    "location": {
      "lat": 16.3109575,
      "lng": 80.4557065
    },
    "totalScore": 5,
    "permanentlyClosed": false,
    "temporarilyClosed": false,
    "placeId": "ChIJtUDXvKF1SjoRWfJxs4x3w70",
    "categories": [
      "Car rental agency"
    ],
    "reviewsCount": 6,
    "imagesCount": 14,
    "openingHours": [
      {
        "day": "Monday",
        "hours": "Open 24 hours"
      },
      {
        "day": "Tuesday",
        "hours": "Open 24 hours"
      },
      {
        "day": "Wednesday",
        "hours": "Open 24 hours"
      },
      {
        "day": "Thursday",
        "hours": "Open 24 hours"
      },
      {
        "day": "Friday",
        "hours": "Open 24 hours"
      },
      {
        "day": "Saturday",
        "hours": "Open 24 hours"
      },
      {
        "day": "Sunday",
        "hours": "Open 24 hours"
      }
    ],
    "imageUrl": "https://lh3.googleusercontent.com/p/AF1QipNbKVQW4yd7X_h4bfs5luWxIT5GcIYEdulymUna=w408-h725-k-no",
    "url": "https://www.google.com/maps/search/?api=1&query=ABHI%20CAR'S%20TRAVEL'S%20-%20Guntur&query_place_id=ChIJtUDXvKF1SjoRWfJxs4x3w70"
  },
  {
    "title": "Ambica Motors - used car showroom",
    "categoryName": "Car dealer",
    "address": "Chandramouli Nagar, Guntur, Andhra Pradesh 522007, India",
    "neighborhood": "Chandramouli Nagar",
    "city": "Guntur",
    "postalCode": "522007",
    "state": "Andhra Pradesh",
    "countryCode": "IN",
    "location": {
      "lat": 16.3154072,
      "lng": 80.4274287
    },
    "totalScore": 4.9,
    "permanentlyClosed": false,
    "temporarilyClosed": false,
    "placeId": "ChIJ9-bvgbp1SjoRSQeZjmXD6C8",
    "categories": [
      "Car dealer"
    ],
    "reviewsCount": 10,
    "imagesCount": 11,
    "openingHours": [
      {
        "day": "Monday",
        "hours": "9 AM to 10 PM"
      },
      {
        "day": "Tuesday",
        "hours": "9 AM to 10 PM"
      },
      {
        "day": "Wednesday",
        "hours": "9 AM to 10 PM"
      },
      {
        "day": "Thursday",
        "hours": "9 AM to 10 PM"
      },
      {
        "day": "Friday",
        "hours": "9 AM to 10 PM"
      },
      {
        "day": "Saturday",
        "hours": "9 AM to 10 PM"
      },
      {
        "day": "Sunday",
        "hours": "9 AM to 10 PM"
      }
    ],
    "imageUrl": "https://lh3.googleusercontent.com/p/AF1QipPph_nqxS9fW4uOzwuwvJIy7S3FlF5V1qFgLeiw=w408-h544-k-no",
    "url": "https://www.google.com/maps/search/?api=1&query=Ambica%20Motors%20-%20used%20car%20showroom&query_place_id=ChIJ9-bvgbp1SjoRSQeZjmXD6C8"
  },
  {
    "title": "Asha Self Drive Cars",
    "categoryName": "Car rental agency",
    "address": "Sudhapalli Donka Rd, Pathareddypalem, Old Guntur, Guntur, Andhra Pradesh 522001, India",
    "neighborhood": "Pathareddypalem, Old Guntur",
    "street": "Sudhapalli Donka Rd",
    "city": "Guntur",
    "postalCode": "522001",
    "state": "Andhra Pradesh",
    "countryCode": "IN",
    "location": {
      "lat": 16.2851558,
      "lng": 80.463012
    },
    "totalScore": 4.6,
    "permanentlyClosed": false,
    "temporarilyClosed": false,
    "placeId": "ChIJhe-SkTILSjoR6JD4cKUHXLg",
    "categories": [
      "Car rental agency"
    ],
    "reviewsCount": 8,
    "imagesCount": 17,
    "openingHours": [
      {
        "day": "Monday",
        "hours": "Open 24 hours"
      },
      {
        "day": "Tuesday",
        "hours": "Open 24 hours"
      },
      {
        "day": "Wednesday",
        "hours": "Open 24 hours"
      },
      {
        "day": "Thursday",
        "hours": "Open 24 hours"
      },
      {
        "day": "Friday",
        "hours": "Open 24 hours"
      },
      {
        "day": "Saturday",
        "hours": "Open 24 hours"
      },
      {
        "day": "Sunday",
        "hours": "Open 24 hours"
      }
    ],
    "imageUrl": "https://lh3.googleusercontent.com/p/AF1QipPg-fJc_HdBIj9LtEa27xnjPDwQElDWbckpAvM-=w408-h510-k-no",
    "url": "https://www.google.com/maps/search/?api=1&query=Asha%20Self%20Drive%20Cars&query_place_id=ChIJhe-SkTILSjoR6JD4cKUHXLg"
  },
  {
    "title": "Balu Car Travels (Car Travels In Guntur)",
    "subTitle": "బాలు కారు ట్రావెల్స్ (కారు ట్రావెల్స్ ఇన్ గుంటూరు)",
    "categoryName": "Car rental agency",
    "address": "Balaji Car Travels, 1st Ln, opp. Hanumayya Nagar Road, Lakshmipuram, Koritepadu, Guntur, Andhra Pradesh 522007, India",
    "neighborhood": "Lakshmipuram, Koritepadu",
    "street": "Balaji Car Travels, 1st Ln, opp. Hanumayya Nagar Road",
    "city": "Guntur",
    "postalCode": "522007",
    "state": "Andhra Pradesh",
    "countryCode": "IN",
    "website": "https://www.balucartravels.com/",
    "phone": "+919160989989",
    "phoneUnformatted": "+919160989989",
    "location": {
      "lat": 16.3120407,
      "lng": 80.4319567
    },
    "totalScore": 4.7,
    "permanentlyClosed": false,
    "temporarilyClosed": false,
    "placeId": "ChIJjRrmUXx1SjoRGSkBVqebkMU",
    "categories": [
      "Car rental agency",
      "Car leasing service",
      "Travel agency"
    ],
    "reviewsCount": 768,
    "imagesCount": 66,
    "openingHours": [
      {
        "day": "Monday",
        "hours": "Open 24 hours"
      },
      {
        "day": "Tuesday",
        "hours": "Open 24 hours"
      },
      {
        "day": "Wednesday",
        "hours": "Open 24 hours"
      },
      {
        "day": "Thursday",
        "hours": "Open 24 hours"
      },
      {
        "day": "Friday",
        "hours": "Open 24 hours"
      },
      {
        "day": "Saturday",
        "hours": "Open 24 hours"
      },
      {
        "day": "Sunday",
        "hours": "Open 24 hours"
      }
    ],
    "imageUrl": "https://lh3.googleusercontent.com/p/AF1QipOnYhVX2Trow0a0ocDkdpRGgtcCUMHTz-7hcloR=w532-h240-k-no",
    "url": "https://www.google.com/maps/search/?api=1&query=Balu%20Car%20Travels%20(Car%20Travels%20In%20Guntur)&query_place_id=ChIJjRrmUXx1SjoRGSkBVqebkMU"
  },
  {
    "title": "Charvith Travels",
    "categoryName": "Car leasing service",
    "address": "S1, 2nd floor, Sri Sai Complex, 5-87-34/A, Lakshmipuram Main Rd, Brodipet, Guntur, Andhra Pradesh 522006, India",
    "neighborhood": "Brodipet",
    "street": "S1, 2nd floor, Sri Sai Complex, 5-87-34/A, Lakshmipuram Main Rd",
    "city": "Guntur",
    "postalCode": "522006",
    "state": "Andhra Pradesh",
    "countryCode": "IN",
    "website": "https://charvithtravels.com/",
    "location": {
      "lat": 16.3149141,
      "lng": 80.4188749
    },
    "totalScore": 5,
    "permanentlyClosed": false,
    "temporarilyClosed": true,
    "placeId": "ChIJlY9E61x1SjoRv9hl_UjwEVE",
    "categories": [
      "Car leasing service"
    ],
    "reviewsCount": 4,
    "imagesCount": 3,
    "openingHours": [],
    "imageUrl": "https://streetviewpixels-pa.googleapis.com/v1/thumbnail?panoid=x7-P7pCiQfqVflb6tk_zJA&cb_client=search.gws-prod.gps&w=408&h=240&yaw=295.9897&pitch=0&thumbfov=100",
    "url": "https://www.google.com/maps/search/?api=1&query=Charvith%20Travels&query_place_id=ChIJlY9E61x1SjoRv9hl_UjwEVE"
  },
  {
    "title": "Chinni car travels guntur",
    "categoryName": "Car leasing service",
    "address": "gowthami nagar, 5th Line, Chaitanyapuri, Venugopalnagar, Koritepadu, Guntur, Andhra Pradesh 522007, India",
    "neighborhood": "Chaitanyapuri, Venugopalnagar, Koritepadu",
    "street": "gowthami nagar, 5th Line",
    "city": "Guntur",
    "postalCode": "522007",
    "state": "Andhra Pradesh",
    "countryCode": "IN",
    "phone": "+919398743332",
    "phoneUnformatted": "+919398743332",
    "location": {
      "lat": 16.3179246,
      "lng": 80.4337735
    },
    "totalScore": 5,
    "permanentlyClosed": false,
    "temporarilyClosed": false,
    "placeId": "ChIJee2YZgqLNToRyrj9NrwInfs",
    "categories": [
      "Car leasing service"
    ],
    "reviewsCount": 21,
    "imagesCount": 4,
    "openingHours": [
      {
        "day": "Monday",
        "hours": "Open 24 hours"
      },
      {
        "day": "Tuesday",
        "hours": "Open 24 hours"
      },
      {
        "day": "Wednesday",
        "hours": "Open 24 hours"
      },
      {
        "day": "Thursday",
        "hours": "Open 24 hours"
      },
      {
        "day": "Friday",
        "hours": "Open 24 hours"
      },
      {
        "day": "Saturday",
        "hours": "Open 24 hours"
      },
      {
        "day": "Sunday",
        "hours": "Open 24 hours"
      }
    ],
    "imageUrl": "https://lh3.googleusercontent.com/p/AF1QipPnvepV9zE-R9PVZ8p6O5rT-v5MP9xkCUKvnSDU=w420-h240-k-no",
    "url": "https://www.google.com/maps/search/?api=1&query=Chinni%20car%20travels%20guntur&query_place_id=ChIJee2YZgqLNToRyrj9NrwInfs"
  },
  {
    "title": "Go Panda Cars",
    "categoryName": "Car rental agency",
    "address": "Sai Baba Colony, 93-169/4, Gandhi Nagar, Guntur, Andhra Pradesh 522003, India",
    "neighborhood": "Gandhi Nagar",
    "street": "Sai Baba Colony, 93-169/4",
    "city": "Guntur",
    "postalCode": "522003",
    "state": "Andhra Pradesh",
    "countryCode": "IN",
    "website": "http://gopandacars.in/",
    "phone": "+919052017979",
    "phoneUnformatted": "+919052017979",
    "location": {
      "lat": 16.2797441,
      "lng": 80.4618636
    },
    "totalScore": 3.8,
    "permanentlyClosed": false,
    "temporarilyClosed": false,
    "placeId": "ChIJzdNMiuULSjoRON7U7hjrxQc",
    "categories": [
      "Car rental agency"
    ],
    "reviewsCount": 143,
    "imagesCount": 4,
    "openingHours": [
      {
        "day": "Monday",
        "hours": "6 AM to 11:30 PM"
      },
      {
        "day": "Tuesday",
        "hours": "6 AM to 11:30 PM"
      },
      {
        "day": "Wednesday",
        "hours": "6 AM to 11:30 PM"
      },
      {
        "day": "Thursday",
        "hours": "6 AM to 11:30 PM"
      },
      {
        "day": "Friday",
        "hours": "6 AM to 11:30 PM"
      },
      {
        "day": "Saturday",
        "hours": "6 AM to 11:30 PM"
      },
      {
        "day": "Sunday",
        "hours": "6 AM to 11:30 PM"
      }
    ],
    "imageUrl": "https://lh3.googleusercontent.com/p/AF1QipPMqDX9naeA3TPQAIFdy3Qb4Fx3xuD1lAKnUKhV=w408-h306-k-no",
    "url": "https://www.google.com/maps/search/?api=1&query=Go%20Panda%20Cars&query_place_id=ChIJzdNMiuULSjoRON7U7hjrxQc"
  },
  {
    "title": "GoGo Taxi | Guntur to Hyderabad Cabs | cab service in guntur | car rental guntur | taxi service in guntur | Tempo Traveller",
    "categoryName": "Car rental agency",
    "address": "Shop No. 2, 6th Ln, Pandaripuram, Brodipet, Guntur, Andhra Pradesh 522002, India",
    "neighborhood": "Pandaripuram, Brodipet",
    "street": "Shop No. 2, 6th Ln",
    "city": "Guntur",
    "postalCode": "522002",
    "state": "Andhra Pradesh",
    "countryCode": "IN",
    "phone": "+918008444542",
    "phoneUnformatted": "+918008444542",
    "location": {
      "lat": 16.30709,
      "lng": 80.429583
    },
    "totalScore": 4.9,
    "permanentlyClosed": false,
    "temporarilyClosed": false,
    "placeId": "ChIJj5U2UBZ1SjoRaZChC5IY6dg",
    "categories": [
      "Car rental agency",
      "Car leasing service",
      "Taxi service",
      "Minibus taxi service",
      "Tour agency",
      "Tour operator",
      "Travel agency"
    ],
    "reviewsCount": 15,
    "imagesCount": 24,
    "openingHours": [],
    "imageUrl": "https://lh3.googleusercontent.com/p/AF1QipNx8I6FJ7taHLFYYLeHl9vHdtoccvy23InRnsga=w426-h240-k-no",
    "url": "https://www.google.com/maps/search/?api=1&query=GoGo%20Taxi%20%7C%20Guntur%20to%20Hyderabad%20Cabs%20%7C%20cab%20service%20in%20guntur%20%7C%20car%20rental%20guntur%20%7C%20taxi%20service%20in%20guntur%20%7C%20Tempo%20Traveller&query_place_id=ChIJj5U2UBZ1SjoRaZChC5IY6dg"
  },
  {
    "title": "JBS Car Travels",
    "categoryName": "Car rental agency",
    "address": "41-1-159 Arundhati Nagar, 2nd Line, Guntur, Andhra Pradesh 522001, India",
    "neighborhood": "Arundhati Nagar, Mangaldas Nagar",
    "street": "41-1-159 Arundhati Nagar, 2nd Line",
    "city": "Guntur",
    "postalCode": "522001",
    "state": "Andhra Pradesh",
    "countryCode": "IN",
    "website": "http://www.jbscartravels.in/",
    "location": {
      "lat": 16.3066835,
      "lng": 80.4585957
    },
    "totalScore": 5,
    "permanentlyClosed": false,
    "temporarilyClosed": false,
    "placeId": "ChIJJTAlpMsLSjoRZxEDNYQliYk",
    "categories": [
      "Car rental agency"
    ],
    "reviewsCount": 8,
    "imagesCount": 28,
    "openingHours": [
      {
        "day": "Monday",
        "hours": "Open 24 hours"
      },
      {
        "day": "Tuesday",
        "hours": "Open 24 hours"
      },
      {
        "day": "Wednesday",
        "hours": "Open 24 hours"
      },
      {
        "day": "Thursday",
        "hours": "Open 24 hours"
      },
      {
        "day": "Friday",
        "hours": "Open 24 hours"
      },
      {
        "day": "Saturday",
        "hours": "Open 24 hours"
      },
      {
        "day": "Sunday",
        "hours": "Open 24 hours"
      }
    ],
    "imageUrl": "https://lh3.googleusercontent.com/p/AF1QipMB78NHuCZvRSHz018W8YuC2BrUDmmdEkgZ2cdI=w408-h306-k-no",
    "url": "https://www.google.com/maps/search/?api=1&query=JBS%20Car%20Travels&query_place_id=ChIJJTAlpMsLSjoRZxEDNYQliYk"
  },
  {
    "title": "Luxury Tours Travels",
    "subTitle": "లక్సరీ టూర్స్ ట్రావెల్స్",
    "categoryName": "Car leasing service",
    "address": "3-30, 15/1, Ring Rd, R.Agraharam, Guntur, Andhra Pradesh 522006, India",
    "neighborhood": "R.Agraharam",
    "street": "3-30, 15/1, Ring Rd",
    "city": "Guntur",
    "postalCode": "522006",
    "state": "Andhra Pradesh",
    "countryCode": "IN",
    "location": {
      "lat": 16.3180297,
      "lng": 80.418883
    },
    "totalScore": 5,
    "permanentlyClosed": false,
    "temporarilyClosed": false,
    "placeId": "ChIJD9JAt0iLNToR0sdN8T_f9Yg",
    "categories": [
      "Car leasing service",
      "Taxi service",
      "Corporate office",
      "Tour agency",
      "Transportation service",
      "Travel agency"
    ],
    "reviewsCount": 1,
    "imagesCount": 2,
    "openingHours": [],
    "imageUrl": "https://lh3.googleusercontent.com/p/AF1QipN4tVDxHeDyAoHH0N17IRgmUhV2sa3A9Ekj8Ag=w408-h272-k-no",
    "url": "https://www.google.com/maps/search/?api=1&query=Luxury%20Tours%20Travels&query_place_id=ChIJD9JAt0iLNToR0sdN8T_f9Yg"
  },
  {
    "title": "Malleswari tour&travels",
    "categoryName": "Car rental agency",
    "address": "Swasakthi Building, Nagarampalem, Guntur, Andhra Pradesh 522004, India",
    "neighborhood": "Nagarampalem",
    "street": "Swasakthi Building",
    "city": "Guntur",
    "postalCode": "522004",
    "state": "Andhra Pradesh",
    "countryCode": "IN",
    "location": {
      "lat": 16.2927648,
      "lng": 80.4297964
    },
    "totalScore": 4.8,
    "permanentlyClosed": false,
    "temporarilyClosed": false,
    "placeId": "ChIJnX9bCAB1SjoR5MLM6nw0tlM",
    "categories": [
      "Car rental agency"
    ],
    "reviewsCount": 38,
    "imagesCount": 42,
    "openingHours": [
      {
        "day": "Monday",
        "hours": "Open 24 hours"
      },
      {
        "day": "Tuesday",
        "hours": "Open 24 hours"
      },
      {
        "day": "Wednesday",
        "hours": "Open 24 hours"
      },
      {
        "day": "Thursday",
        "hours": "Open 24 hours"
      },
      {
        "day": "Friday",
        "hours": "Open 24 hours"
      },
      {
        "day": "Saturday",
        "hours": "Open 24 hours"
      },
      {
        "day": "Sunday",
        "hours": "Open 24 hours"
      }
    ],
    "imageUrl": "https://lh3.googleusercontent.com/gps-cs-s/AG0ilSyVL1U6MDGP1tzcW8hNPTm8y4UFdpYl82_pHvAkHfsoAZXLFjWEBiTlBAFCv2qAVpreXuhkTeSdHL5o6v7k7Qa51tBNREWqNneVBci857AtCzwTfW9haM_tU6BpHkwkifV3RgT8NtdiVGvB=w408-h914-k-no",
    "url": "https://www.google.com/maps/search/?api=1&query=Malleswari%20tour%26travels&query_place_id=ChIJnX9bCAB1SjoR5MLM6nw0tlM"
  },
  {
    "title": "PR Carz",
    "categoryName": "Car dealer",
    "address": "Devapuram 5th Ln, behind NTR Stadium, Brindavan Gardens, Guntur, Andhra Pradesh 522002, India",
    "neighborhood": "Brindavan Gardens",
    "street": "Devapuram 5th Ln, behind NTR Stadium",
    "city": "Guntur",
    "postalCode": "522002",
    "state": "Andhra Pradesh",
    "countryCode": "IN",
    "phone": "+917989952067",
    "phoneUnformatted": "+917989952067",
    "location": {
      "lat": 16.3108401,
      "lng": 80.4231663
    },
    "totalScore": 4.5,
    "permanentlyClosed": false,
    "temporarilyClosed": false,
    "placeId": "ChIJhQs-A8l1SjoR_k0t2uR5ctQ",
    "categories": [
      "Car dealer"
    ],
    "reviewsCount": 11,
    "imagesCount": 10,
    "openingHours": [
      {
        "day": "Monday",
        "hours": "8 AM to 9 PM"
      },
      {
        "day": "Tuesday",
        "hours": "8 AM to 9 PM"
      },
      {
        "day": "Wednesday",
        "hours": "8 AM to 9 PM"
      },
      {
        "day": "Thursday",
        "hours": "8 AM to 9 PM"
      },
      {
        "day": "Friday",
        "hours": "8 AM to 9 PM"
      },
      {
        "day": "Saturday",
        "hours": "8 AM to 9 PM"
      },
      {
        "day": "Sunday",
        "hours": "8 AM to 9 PM"
      }
    ],
    "imageUrl": "https://lh3.googleusercontent.com/p/AF1QipOzuXTtbsEWySHouLuWug5duqz_OcxWVC5s6tU=w425-h240-k-no",
    "url": "https://www.google.com/maps/search/?api=1&query=PR%20Carz&query_place_id=ChIJhQs-A8l1SjoR_k0t2uR5ctQ"
  },
  {
    "title": "SRI SAI CAR TRAVELS",
    "subTitle": "శ్రీ సాయి కారు ట్రావెల్స్",
    "categoryName": "Car leasing service",
    "address": "beside Oxford school, Brindavan Gardens, Guntur, Andhra Pradesh 522007, India",
    "neighborhood": "Brindavan Gardens",
    "street": "beside Oxford school",
    "city": "Guntur",
    "postalCode": "522007",
    "state": "Andhra Pradesh",
    "countryCode": "IN",
    "phone": "+919849207186",
    "phoneUnformatted": "+919849207186",
    "location": {
      "lat": 16.3156491,
      "lng": 80.4217645
    },
    "totalScore": 4.7,
    "permanentlyClosed": false,
    "temporarilyClosed": false,
    "placeId": "ChIJ_ab0XfN1SjoRAtaf6d__3no",
    "categories": [
      "Car leasing service"
    ],
    "reviewsCount": 16,
    "imagesCount": 109,
    "openingHours": [
      {
        "day": "Monday",
        "hours": "Open 24 hours"
      },
      {
        "day": "Tuesday",
        "hours": "Open 24 hours"
      },
      {
        "day": "Wednesday",
        "hours": "Open 24 hours"
      },
      {
        "day": "Thursday",
        "hours": "Open 24 hours"
      },
      {
        "day": "Friday",
        "hours": "Open 24 hours"
      },
      {
        "day": "Saturday",
        "hours": "Open 24 hours"
      },
      {
        "day": "Sunday",
        "hours": "Open 24 hours"
      }
    ],
    "imageUrl": "https://lh3.googleusercontent.com/p/AF1QipNqF8DjzjnN4Y1IHOC0DUST9lhawkuvzPinkyvJ=w408-h306-k-no",
    "url": "https://www.google.com/maps/search/?api=1&query=SRI%20SAI%20CAR%20TRAVELS&query_place_id=ChIJ_ab0XfN1SjoRAtaf6d__3no"
  },
  {
    "title": "Self Drive Car Rental Marketplace || Book Self Drive Cars Online - Drive and jive.",
    "categoryName": "Car rental agency",
    "address": "Third Floor, Backside of Rehmat Climic, 95 Collectorate Road Ward No - 26, Dr No - 137, Guntur, Andhra Pradesh 522004, India",
    "neighborhood": "Nagarampalem",
    "street": "Third Floor, Backside of Rehmat Climic, 95 Collectorate Road Ward No - 26, Dr No - 137",
    "city": "Guntur",
    "postalCode": "522004",
    "state": "Andhra Pradesh",
    "countryCode": "IN",
    "website": "https://driveandjive.com/",
    "location": {
      "lat": 16.3012784,
      "lng": 80.4267111
    },
    "permanentlyClosed": false,
    "temporarilyClosed": false,
    "placeId": "ChIJp2YCJvp1SjoRAYxf2VFdd2I",
    "categories": [
      "Car rental agency",
      "Car leasing service"
    ],
    "imagesCount": 6,
    "openingHours": [
      {
        "day": "Monday",
        "hours": "Open 24 hours"
      },
      {
        "day": "Tuesday",
        "hours": "Open 24 hours"
      },
      {
        "day": "Wednesday",
        "hours": "Open 24 hours"
      },
      {
        "day": "Thursday",
        "hours": "Open 24 hours"
      },
      {
        "day": "Friday",
        "hours": "Open 24 hours"
      },
      {
        "day": "Saturday",
        "hours": "Open 24 hours"
      },
      {
        "day": "Sunday",
        "hours": "Open 24 hours"
      }
    ],
    "imageUrl": "https://lh3.googleusercontent.com/p/AF1QipMUXjOifGOMH2GeexbFca1N3cl8qniTJ6ZxcNOK=w426-h240-k-no",
    "url": "https://www.google.com/maps/search/?api=1&query=Self%20Drive%20Car%20Rental%20Marketplace%20%7C%7C%20Book%20Self%20Drive%20Cars%20Online%20-%20Drive%20and%20jive.&query_place_id=ChIJp2YCJvp1SjoRAYxf2VFdd2I"
  },
  {
    "title": "Self drive cars Travels",
    "subTitle": "సెల్ఫ్ డ్రైవ్ కార్స్ ట్రావెల్స్",
    "categoryName": "Car dealer",
    "address": "Near Subhani Hotel, Srinivasarao Pet, Guntur, Andhra Pradesh 522004, India",
    "neighborhood": "Srinivasarao Pet",
    "street": "Near Subhani Hotel",
    "city": "Guntur",
    "postalCode": "522004",
    "state": "Andhra Pradesh",
    "countryCode": "IN",
    "phone": "+918555813257",
    "phoneUnformatted": "+918555813257",
    "location": {
      "lat": 16.2896465,
      "lng": 80.4333486
    },
    "totalScore": 5,
    "permanentlyClosed": false,
    "temporarilyClosed": false,
    "placeId": "ChIJpdGdanp1SjoRzI6bVJGa0aA",
    "categories": [
      "Car dealer",
      "Auto broker"
    ],
    "reviewsCount": 1,
    "imagesCount": 4,
    "openingHours": [
      {
        "day": "Monday",
        "hours": "Open 24 hours"
      },
      {
        "day": "Tuesday",
        "hours": "Open 24 hours"
      },
      {
        "day": "Wednesday",
        "hours": "Open 24 hours"
      },
      {
        "day": "Thursday",
        "hours": "Open 24 hours"
      },
      {
        "day": "Friday",
        "hours": "Open 24 hours"
      },
      {
        "day": "Saturday",
        "hours": "Open 24 hours"
      },
      {
        "day": "Sunday",
        "hours": "Open 24 hours"
      }
    ],
    "imageUrl": "https://lh3.googleusercontent.com/gps-cs-s/AG0ilSyn-Ba9I_mWM6TOkgY0ehogpdme7z4XNEDT0Ss4mXSVtDp7GlurHy8t770k70poGwPpDfrP8lojD03q-cHA7YXvjO00NW_QqaKPfCVn6pB2dmx7Fd4DQgUtYuoQv0x3qkuHufFhLA=w408-h305-k-no",
    "url": "https://www.google.com/maps/search/?api=1&query=Self%20drive%20cars%20Travels&query_place_id=ChIJpdGdanp1SjoRzI6bVJGa0aA"
  },
  {
    "title": "Self drive cars in guntur",
    "categoryName": "Car leasing service",
    "address": "Amaravathi Rd, near alla hospital, Bandlamudi Complex, Srinagar Colony, Guntur, Andhra Pradesh 522002, India",
    "neighborhood": "Bandlamudi Complex, Srinagar Colony",
    "street": "Amaravathi Rd, near alla hospital",
    "city": "Guntur",
    "postalCode": "522002",
    "state": "Andhra Pradesh",
    "countryCode": "IN",
    "phone": "+919666222783",
    "phoneUnformatted": "+919666222783",
    "location": {
      "lat": 16.3123831,
      "lng": 80.4373306
    },
    "totalScore": 4.8,
    "permanentlyClosed": false,
    "temporarilyClosed": false,
    "placeId": "ChIJv41jAWt1SjoRgEFlv5M9gv4",
    "categories": [
      "Car leasing service"
    ],
    "reviewsCount": 21,
    "imagesCount": 2,
    "openingHours": [
      {
        "day": "Monday",
        "hours": "Open 24 hours"
      },
      {
        "day": "Tuesday",
        "hours": "Open 24 hours"
      },
      {
        "day": "Wednesday",
        "hours": "Open 24 hours"
      },
      {
        "day": "Thursday",
        "hours": "Open 24 hours"
      },
      {
        "day": "Friday",
        "hours": "Open 24 hours"
      },
      {
        "day": "Saturday",
        "hours": "Open 24 hours"
      },
      {
        "day": "Sunday",
        "hours": "Open 24 hours"
      }
    ],
    "imageUrl": "https://streetviewpixels-pa.googleapis.com/v1/thumbnail?panoid=HRHnvY_KwPsK1Vv0feIJ_g&cb_client=search.gws-prod.gps&w=408&h=240&yaw=104.25211&pitch=0&thumbfov=100",
    "url": "https://www.google.com/maps/search/?api=1&query=Self%20drive%20cars%20in%20guntur&query_place_id=ChIJv41jAWt1SjoRgEFlv5M9gv4"
  },
  {
    "title": "Self drive cars in guntur-satish tours & travels",
    "categoryName": "Car rental agency",
    "address": "Lodge centre, Brodipet, Guntur, Andhra Pradesh 522007, India",
    "neighborhood": "Brodipet",
    "street": "Lodge centre",
    "city": "Guntur",
    "postalCode": "522007",
    "state": "Andhra Pradesh",
    "countryCode": "IN",
    "phone": "+917989163056",
    "phoneUnformatted": "+917989163056",
    "location": {
      "lat": 16.3081718,
      "lng": 80.4344441
    },
    "totalScore": 5,
    "permanentlyClosed": false,
    "temporarilyClosed": false,
    "placeId": "ChIJI2XiBG2LNToR_q5ehI6wlT8",
    "categories": [
      "Car rental agency"
    ],
    "reviewsCount": 28,
    "imagesCount": 16,
    "openingHours": [
      {
        "day": "Monday",
        "hours": "Open 24 hours"
      },
      {
        "day": "Tuesday",
        "hours": "Open 24 hours"
      },
      {
        "day": "Wednesday",
        "hours": "Open 24 hours"
      },
      {
        "day": "Thursday",
        "hours": "Open 24 hours"
      },
      {
        "day": "Friday",
        "hours": "Open 24 hours"
      },
      {
        "day": "Saturday",
        "hours": "Open 24 hours"
      },
      {
        "day": "Sunday",
        "hours": "Open 24 hours"
      }
    ],
    "imageUrl": "https://lh3.googleusercontent.com/p/AF1QipM-dIjOQZ9iWqySFSuK4fcfx4_CJO9iCE9fFZJF=w408-h725-k-no",
    "url": "https://www.google.com/maps/search/?api=1&query=Self%20drive%20cars%20in%20guntur-satish%20tours%20%26%20travels&query_place_id=ChIJI2XiBG2LNToR_q5ehI6wlT8"
  },
  {
    "title": "Srinivasa Car Bookings",
    "subTitle": "శ్రీనివాస కారు బుకింగ్స్",
    "categoryName": "Car rental agency",
    "address": "Pattabipuram, beside Krishna Mess, Krishna Nagar, Guntur, Andhra Pradesh 522006, India",
    "neighborhood": "Krishna Nagar",
    "street": "Pattabipuram, beside Krishna Mess",
    "city": "Guntur",
    "postalCode": "522006",
    "state": "Andhra Pradesh",
    "countryCode": "IN",
    "phone": "+919908978510",
    "phoneUnformatted": "+919908978510",
    "location": {
      "lat": 16.3086875,
      "lng": 80.4189717
    },
    "totalScore": 4.7,
    "permanentlyClosed": false,
    "temporarilyClosed": false,
    "placeId": "ChIJg8sVWsh1SjoRFPoUUnliiaI",
    "categories": [
      "Car rental agency",
      "Car leasing service",
      "Minibus taxi service",
      "Motoring club",
      "Taxi service"
    ],
    "reviewsCount": 141,
    "imagesCount": 26,
    "openingHours": [
      {
        "day": "Monday",
        "hours": "Open 24 hours"
      },
      {
        "day": "Tuesday",
        "hours": "Open 24 hours"
      },
      {
        "day": "Wednesday",
        "hours": "Open 24 hours"
      },
      {
        "day": "Thursday",
        "hours": "Open 24 hours"
      },
      {
        "day": "Friday",
        "hours": "Open 24 hours"
      },
      {
        "day": "Saturday",
        "hours": "Open 24 hours"
      },
      {
        "day": "Sunday",
        "hours": "Open 24 hours"
      }
    ],
    "imageUrl": "https://lh3.googleusercontent.com/gps-cs-s/AG0ilSy_MZ7auqB_np9gKE2ZSLUvQnSyd-YNPZ-hQIzTTx3jehHjp8YbMTT39ViZvKDby1vZ7z6DeELe9WW3tdQtB3rsSil4qoYgD6DqJP4UsXP0MIIGXDaQT0IE4s9txqKDQ3e--LQe=w425-h240-k-no",
    "url": "https://www.google.com/maps/search/?api=1&query=Srinivasa%20Car%20Bookings&query_place_id=ChIJg8sVWsh1SjoRFPoUUnliiaI"
  },
  {
    "title": "The Vip Cars (Travel & Rental)",
    "categoryName": "Car rental agency",
    "address": "VIP Grand, VIP Rd, Guntur, Andhra Pradesh 522004, India",
    "street": "VIP Grand, VIP Rd",
    "city": "Guntur",
    "postalCode": "522004",
    "state": "Andhra Pradesh",
    "countryCode": "IN",
    "website": "http://www.thevipcars.in/",
    "phone": "+919000251215",
    "phoneUnformatted": "+919000251215",
    "location": {
      "lat": 16.2798679,
      "lng": 80.4246323
    },
    "totalScore": 5,
    "permanentlyClosed": false,
    "temporarilyClosed": false,
    "placeId": "ChIJ88QzRLJ1SjoRgLc-gRLbnBk",
    "categories": [
      "Car rental agency"
    ],
    "reviewsCount": 13,
    "imagesCount": 11,
    "openingHours": [],
    "imageUrl": "https://lh3.googleusercontent.com/p/AF1QipMrlzAalK4g_7AUMBTj7gkeIDYLgbEvDMHKLRof=w408-h409-k-no",
    "url": "https://www.google.com/maps/search/?api=1&query=The%20Vip%20Cars%20(Travel%20%26%20Rental)&query_place_id=ChIJ88QzRLJ1SjoRgLc-gRLbnBk"
  },
  {
    "title": "VS SELF driving cars",
    "categoryName": "Car rental agency",
    "address": "5th Line, Ananda Theertha Agraharam, Guntur, Andhra Pradesh 522006, India",
    "neighborhood": "Ananda Theertha Agraharam",
    "street": "5th Line",
    "city": "Guntur",
    "postalCode": "522006",
    "state": "Andhra Pradesh",
    "countryCode": "IN",
    "phone": "+917013643340",
    "phoneUnformatted": "+917013643340",
    "location": {
      "lat": 16.3115276,
      "lng": 80.4171802
    },
    "totalScore": 3.7,
    "permanentlyClosed": false,
    "temporarilyClosed": false,
    "placeId": "ChIJhbk8jwJ1SjoRh48q1OqylJ0",
    "categories": [
      "Car rental agency"
    ],
    "reviewsCount": 11,
    "imagesCount": 16,
    "openingHours": [
      {
        "day": "Monday",
        "hours": "Open 24 hours"
      },
      {
        "day": "Tuesday",
        "hours": "Open 24 hours"
      },
      {
        "day": "Wednesday",
        "hours": "Open 24 hours"
      },
      {
        "day": "Thursday",
        "hours": "Open 24 hours"
      },
      {
        "day": "Friday",
        "hours": "Open 24 hours"
      },
      {
        "day": "Saturday",
        "hours": "Open 24 hours"
      },
      {
        "day": "Sunday",
        "hours": "Open 24 hours"
      }
    ],
    "imageUrl": "https://lh3.googleusercontent.com/gps-cs-s/AG0ilSx3yg3C3J64Zvvu7x_EUmYRQsgpYgvGIT0__RRtTMUg7KxL-dL972FdDQ9Y1pP7K7XqhnUtE0i07bgn_38aKAJFIDF5fbgtTQ5Z-9ELud6hKRaEwFTw_-Thn8j9_n4BZ3OzmlUQKw=w408-h544-k-no",
    "url": "https://www.google.com/maps/search/?api=1&query=VS%20SELF%20driving%20cars&query_place_id=ChIJhbk8jwJ1SjoRh48q1OqylJ0"
  }
]