[
  {
    "title": "Agrawal Tour & Travel",
    "subTitle": "अग्रवाल टूर & ट्रैवल",
    "categoryName": "Car rental agency",
    "address": "near Gurudwara, Shastri Nagar, Dadabari, Kota, Rajasthan 324009, India",
    "neighborhood": "Shastri Nagar, Dadabari",
    "street": "near Gurudwara",
    "city": "Kota",
    "postalCode": "324009",
    "state": "Rajasthan",
    "countryCode": "IN",
    "phone": "+919079830306",
    "phoneUnformatted": "+919079830306",
    "location": {
      "lat": 25.1589069,
      "lng": 75.8328315
    },
    "totalScore": 4.7,
    "permanentlyClosed": false,
    "temporarilyClosed": false,
    "placeId": "ChIJ4-_zgZaFbzkRTQ5kZANVXyg",
    "categories": [
      "Car rental agency",
      "Taxi service",
      "Tour operator",
      "Travel agency"
    ],
    "reviewsCount": 26,
    "imagesCount": 33,
    "openingHours": [],
    "imageUrl": "https://lh3.googleusercontent.com/p/AF1QipPQhm8gODUPeHRa_6GLgDkI3zkSPmzn-4o1A2Lr=w427-h240-k-no",
    "url": "https://www.google.com/maps/search/?api=1&query=Agrawal%20Tour%20%26%20Travel&query_place_id=ChIJ4-_zgZaFbzkRTQ5kZANVXyg"
  },
  {
    "title": "Aman Car Bazar | Aman Moto Deals",
    "subTitle": "अमन कार बाजार",
    "categoryName": "Used car dealer",
    "address": "Shop Number 5, Housing Board, near Bhandari Stationery, near Pioneer Academy, Ballabhbari, Gumanpura, Kota, Rajasthan 324007, India",
    "neighborhood": "Ballabhbari, Gumanpura",
    "street": "Shop Number 5, Housing Board, near Bhandari Stationery, near Pioneer Academy",
    "city": "Kota",
    "postalCode": "324007",
    "state": "Rajasthan",
    "countryCode": "IN",
    "phone": "+919829038331",
    "phoneUnformatted": "+919829038331",
    "location": {
      "lat": 25.1781412,
      "lng": 75.851823
    },
    "totalScore": 4.7,
    "permanentlyClosed": false,
    "temporarilyClosed": false,
    "placeId": "ChIJlfgs8CibbzkRmSXrBuo_oRE",
    "categories": [
      "Used car dealer",
      "Car finance and loan company"
    ],
    "reviewsCount": 75,
    "imagesCount": 85,
    "openingHours": [
      {
        "day": "Monday",
        "hours": "10 AM to 7 PM"
      },
      {
        "day": "Tuesday",
        "hours": "10 AM to 7 PM"
      },
      {
        "day": "Wednesday",
        "hours": "10 AM to 7 PM"
      },
      {
        "day": "Thursday",
        "hours": "10 AM to 7 PM"
      },
      {
        "day": "Friday",
        "hours": "10 AM to 7 PM"
      },
      {
        "day": "Saturday",
        "hours": "10 AM to 7 PM"
      },
      {
        "day": "Sunday",
        "hours": "10 AM to 5 PM"
      }
    ],
    "imageUrl": "https://lh3.googleusercontent.com/p/AF1QipN_b17Zgnmybey-Kher1-7T7NXSq88ok95UIZo7=w408-h306-k-no",
    "url": "https://www.google.com/maps/search/?api=1&query=Aman%20Car%20Bazar%20%7C%20Aman%20Moto%20Deals&query_place_id=ChIJlfgs8CibbzkRmSXrBuo_oRE"
  },
  {
    "title": "BDS Taxi Service | Taxi Service in Kota | Taxi in Kota | Car on Rent",
    "subTitle": "बीडीएस टैक्सी सर्विस | टैक्सी सर्विस इन कोटा | टैक्सी इन कोटा | कार ऑन रेंट",
    "categoryName": "Car leasing service",
    "address": "Opposite LIC Building, Under Chawani Flyover, Chawani, Gumanpura, Kota, Rajasthan 324007, India",
    "neighborhood": "Mohan Bhawan, Gumanpura",
    "street": "Opposite LIC Building, Under Chawani Flyover, Chawani",
    "city": "Kota",
    "postalCode": "324007",
    "state": "Rajasthan",
    "countryCode": "IN",
    "location": {
      "lat": 25.1727252,
      "lng": 75.8520455
    },
    "totalScore": 5,
    "permanentlyClosed": false,
    "temporarilyClosed": false,
    "placeId": "ChIJa9QexH2bbzkRz9p8T-bRZ6U",
    "categories": [
      "Car leasing service",
      "Taxi service",
      "Minibus taxi service"
    ],
    "reviewsCount": 2,
    "imagesCount": 3,
    "openingHours": [],
    "imageUrl": "https://lh3.googleusercontent.com/p/AF1QipO6jwCsdzrf5Iz9frxsWgfVkNwkCH9xhcZsbqPI=w425-h240-k-no",
    "url": "https://www.google.com/maps/search/?api=1&query=BDS%20Taxi%20Service%20%7C%20Taxi%20Service%20in%20Kota%20%7C%20Taxi%20in%20Kota%20%7C%20Car%20on%20Rent&query_place_id=ChIJa9QexH2bbzkRz9p8T-bRZ6U"
  },
  {
    "title": "CARS24 - Kaka Car Bazar | Sell Used Cars in Kota",
    "subTitle": "कार्स24 - काका कार बाजार | सेल यूज्ड कार्स इन कोटा",
    "categoryName": "Used car dealer",
    "address": "Kaka Complex, 148, Kotri Rd, Ballabhbari, Gumanpura, Kota, Rajasthan 324007, India",
    "neighborhood": "Ballabhbari, Gumanpura",
    "street": "Kaka Complex, 148, Kotri Rd",
    "city": "Kota",
    "postalCode": "324007",
    "state": "Rajasthan",
    "countryCode": "IN",
    "website": "https://www.cars24.com/",
    "phone": "+918929759586",
    "phoneUnformatted": "+918929759586",
    "location": {
      "lat": 25.1769386,
      "lng": 75.8500073
    },
    "totalScore": 4.8,
    "permanentlyClosed": false,
    "temporarilyClosed": false,
    "placeId": "ChIJvbffvcKbbzkR81mchF06nNg",
    "categories": [
      "Used car dealer",
      "Audi dealer",
      "BMW dealer",
      "Car finance and loan company",
      "Honda dealer",
      "Hyundai dealer",
      "Jeep dealer",
      "Kia dealer",
      "Suzuki dealer",
      "Toyota dealer"
    ],
    "reviewsCount": 113,
    "imagesCount": 53,
    "openingHours": [
      {
        "day": "Monday",
        "hours": "10 AM to 7 PM"
      },
      {
        "day": "Tuesday",
        "hours": "10 AM to 7 PM"
      },
      {
        "day": "Wednesday",
        "hours": "10 AM to 7 PM"
      },
      {
        "day": "Thursday",
        "hours": "10 AM to 7 PM"
      },
      {
        "day": "Friday",
        "hours": "10 AM to 7 PM"
      },
      {
        "day": "Saturday",
        "hours": "10 AM to 7 PM"
      },
      {
        "day": "Sunday",
        "hours": "10 AM to 7 PM"
      }
    ],
    "imageUrl": "https://lh3.googleusercontent.com/p/AF1QipNBSDbir1a_eJXk-dxKdbKBxH_wN9hwfExu3SDm=w408-h271-k-no",
    "url": "https://www.google.com/maps/search/?api=1&query=CARS24%20-%20Kaka%20Car%20Bazar%20%7C%20Sell%20Used%20Cars%20in%20Kota&query_place_id=ChIJvbffvcKbbzkR81mchF06nNg"
  },
  {
    "title": "Car Assure Automotive Private Limited",
    "subTitle": "कार अस्शोर ऑटोमोटिव प्राइवेट लिमिटेड",
    "categoryName": "Used car dealer",
    "address": "B-8, opp. D.A.V. Public School, Ambedkar Colony, Ambedkar Nagar, Talwandi, Kota, Rajasthan 324005, India",
    "neighborhood": "Ambedkar Colony, Ambedkar Nagar, Talwandi",
    "street": "B-8, opp. D.A.V. Public School",
    "city": "Kota",
    "postalCode": "324005",
    "state": "Rajasthan",
    "countryCode": "IN",
    "phone": "+918306238463",
    "phoneUnformatted": "+918306238463",
    "location": {
      "lat": 25.1503037,
      "lng": 75.8453164
    },
    "totalScore": 4.7,
    "permanentlyClosed": false,
    "temporarilyClosed": false,
    "placeId": "ChIJGSXxyg6FbzkRhOklXalp-yM",
    "categories": [
      "Used car dealer"
    ],
    "reviewsCount": 19,
    "imagesCount": 14,
    "openingHours": [
      {
        "day": "Monday",
        "hours": "10 AM to 8 PM"
      },
      {
        "day": "Tuesday",
        "hours": "10 AM to 8 PM"
      },
      {
        "day": "Wednesday",
        "hours": "10 AM to 8 PM"
      },
      {
        "day": "Thursday",
        "hours": "10 AM to 8 PM"
      },
      {
        "day": "Friday",
        "hours": "10 AM to 8 PM"
      },
      {
        "day": "Saturday",
        "hours": "10 AM to 8 PM"
      },
      {
        "day": "Sunday",
        "hours": "10 AM to 8 PM"
      }
    ],
    "imageUrl": "https://lh3.googleusercontent.com/p/AF1QipOt3uGX7-8mjJ1yEXwY8ATTfLxl53NXrbzkUJg=w408-h306-k-no",
    "url": "https://www.google.com/maps/search/?api=1&query=Car%20Assure%20Automotive%20Private%20Limited&query_place_id=ChIJGSXxyg6FbzkRhOklXalp-yM"
  },
  {
    "title": "Carzmax India Self Drive Car Rental / Car Hire - Kota",
    "subTitle": "कार्जमैक्स इंडिया सेल्फ ड्राइव कार रेंटल / कार हीरे - कोटा",
    "categoryName": "Car rental agency",
    "address": "Shop No.- 13, Rajpoot Colony, Kansuwa, Kota, Rajasthan 324004, India",
    "neighborhood": "Kansuwa, Kota Industrial Area",
    "street": "Shop No.- 13, Rajpoot Colony",
    "city": "Kota",
    "postalCode": "324004",
    "state": "Rajasthan",
    "countryCode": "IN",
    "website": "http://carzmaxindia.com/",
    "phone": "+918000850457",
    "phoneUnformatted": "+918000850457",
    "location": {
      "lat": 25.1435457,
      "lng": 75.8795151
    },
    "totalScore": 4.1,
    "permanentlyClosed": false,
    "temporarilyClosed": false,
    "placeId": "ChIJrQuUf_2FbzkRgo4kA9sp8WE",
    "categories": [
      "Car rental agency"
    ],
    "reviewsCount": 16,
    "imagesCount": 31,
    "openingHours": [
      {
        "day": "Monday",
        "hours": "Open 24 hours"
      },
      {
        "day": "Tuesday",
        "hours": "Open 24 hours"
      },
      {
        "day": "Wednesday",
        "hours": "Open 24 hours"
      },
      {
        "day": "Thursday",
        "hours": "Open 24 hours"
      },
      {
        "day": "Friday",
        "hours": "Open 24 hours"
      },
      {
        "day": "Saturday",
        "hours": "Open 24 hours"
      },
      {
        "day": "Sunday",
        "hours": "Open 24 hours"
      }
    ],
    "imageUrl": "https://lh3.googleusercontent.com/p/AF1QipNt2kfPFgCzGiteA81tSs6MmzrCKT34vdipwORP=w408-h544-k-no",
    "url": "https://www.google.com/maps/search/?api=1&query=Carzmax%20India%20Self%20Drive%20Car%20Rental%20%2F%20Car%20Hire%20-%20Kota&query_place_id=ChIJrQuUf_2FbzkRgo4kA9sp8WE"
  },
  {
    "title": "Divyanshi Tour & Travels, Car Rental Service in Kota, Driver Service in Kota",
    "subTitle": "दिव्यांशी टूर & ट्रेवल्स, कार रेंटल सर्विस इन कोटा, ड्राइवर सर्विस इन कोटा",
    "categoryName": "Car rental agency",
    "address": "House No. 66, Baran Rd, Borkhera, Kota, Rajasthan 324001, India",
    "neighborhood": "Borkhera",
    "street": "House No. 66, Baran Rd",
    "city": "Kota",
    "postalCode": "324001",
    "state": "Rajasthan",
    "countryCode": "IN",
    "phone": "+919001933641",
    "phoneUnformatted": "+919001933641",
    "location": {
      "lat": 25.1798171,
      "lng": 75.8615305
    },
    "totalScore": 4.2,
    "permanentlyClosed": false,
    "temporarilyClosed": false,
    "placeId": "ChIJuRRe-V6bbzkRedqQgZFKHf4",
    "categories": [
      "Car rental agency",
      "Taxi service"
    ],
    "reviewsCount": 45,
    "imagesCount": 1,
    "openingHours": [],
    "imageUrl": "https://streetviewpixels-pa.googleapis.com/v1/thumbnail?panoid=JhdjDTOBJcnr3h4er9tMRA&cb_client=search.gws-prod.gps&w=408&h=240&yaw=57.92998&pitch=0&thumbfov=100",
    "url": "https://www.google.com/maps/search/?api=1&query=Divyanshi%20Tour%20%26%20Travels%2C%20Car%20Rental%20Service%20in%20Kota%2C%20Driver%20Service%20in%20Kota&query_place_id=ChIJuRRe-V6bbzkRedqQgZFKHf4"
  },
  {
    "title": "Galaxy car rental",
    "subTitle": "गैलेक्सी कार रेंटल",
    "categoryName": "Car rental agency",
    "address": "Om tower, Sector 1, Talwandi, Kota, Rajasthan 324001, India",
    "neighborhood": "Sector 1, Talwandi",
    "street": "Om tower",
    "city": "Kota",
    "postalCode": "324001",
    "state": "Rajasthan",
    "countryCode": "IN",
    "phone": "+917427060456",
    "phoneUnformatted": "+917427060456",
    "location": {
      "lat": 25.1455064,
      "lng": 75.8422939
    },
    "totalScore": 5,
    "permanentlyClosed": false,
    "temporarilyClosed": false,
    "placeId": "ChIJcRxBmG-FbzkRSHHB00WfB6g",
    "categories": [
      "Car rental agency"
    ],
    "reviewsCount": 11,
    "imagesCount": 9,
    "openingHours": [
      {
        "day": "Monday",
        "hours": "Open 24 hours"
      },
      {
        "day": "Tuesday",
        "hours": "Open 24 hours"
      },
      {
        "day": "Wednesday",
        "hours": "Open 24 hours"
      },
      {
        "day": "Thursday",
        "hours": "Open 24 hours"
      },
      {
        "day": "Friday",
        "hours": "Open 24 hours"
      },
      {
        "day": "Saturday",
        "hours": "Open 24 hours"
      },
      {
        "day": "Sunday",
        "hours": "Open 24 hours"
      }
    ],
    "imageUrl": "https://lh3.googleusercontent.com/p/AF1QipMh8GG6Smw_QbdS0zSYwPmCQ_2Y_aYyFpEMUxJx=w408-h354-k-no",
    "url": "https://www.google.com/maps/search/?api=1&query=Galaxy%20car%20rental&query_place_id=ChIJcRxBmG-FbzkRSHHB00WfB6g"
  },
  {
    "title": "Harmeet Jeep Kota",
    "subTitle": "हरमीत जीप कोटा",
    "categoryName": "Car dealer",
    "address": "Automobile Zone, G10, Road No.5, Dakaniya main road, Kota Industrial Area, Kota, Rajasthan 324005, India",
    "neighborhood": "Kota Industrial Area",
    "street": "Automobile Zone, G10, Road No.5, Dakaniya main road",
    "city": "Kota",
    "postalCode": "324005",
    "state": "Rajasthan",
    "countryCode": "IN",
    "website": "https://harmeet.jeep-india.com/",
    "phone": "+917665012387",
    "phoneUnformatted": "+917665012387",
    "location": {
      "lat": 25.1337483,
      "lng": 75.8651167
    },
    "totalScore": 4.3,
    "permanentlyClosed": false,
    "temporarilyClosed": false,
    "placeId": "ChIJfUdECBCFbzkRGyBCHyhCJJ0",
    "categories": [
      "Car dealer"
    ],
    "reviewsCount": 179,
    "imagesCount": 89,
    "openingHours": [
      {
        "day": "Monday",
        "hours": "10 AM to 7 PM"
      },
      {
        "day": "Tuesday",
        "hours": "10 AM to 7 PM"
      },
      {
        "day": "Wednesday",
        "hours": "10 AM to 7 PM"
      },
      {
        "day": "Thursday",
        "hours": "10 AM to 7 PM"
      },
      {
        "day": "Friday",
        "hours": "10 AM to 7 PM"
      },
      {
        "day": "Saturday",
        "hours": "10 AM to 7 PM"
      },
      {
        "day": "Sunday",
        "hours": "Closed"
      }
    ],
    "imageUrl": "https://lh3.googleusercontent.com/gps-cs-s/AG0ilSz_XeztH8JZQwNJNJ7J6m6VMSukC0-vaMRr1QtW8zKFjWLZ7N6QQlOhRpaUVG3BfLT7TQoIpp3ho1F2ibKtqaQ2wcK8Lzb6zqcPGDjXBjxpF_uYCYXA99JLOh1RzH38tamC_IqQ=w408-h306-k-no",
    "url": "https://www.google.com/maps/search/?api=1&query=Harmeet%20Jeep%20Kota&query_place_id=ChIJfUdECBCFbzkRGyBCHyhCJJ0"
  },
  {
    "title": "JDSN Tour and Travels",
    "subTitle": "जेडीएसएन टूर एंड ट्रैवल्स",
    "categoryName": "Car rental agency",
    "address": "Plot No 13, Bajrang Dham, Raipura, Kota, Rajasthan 324004, India",
    "neighborhood": "Raipura",
    "street": "Plot No 13, Bajrang Dham",
    "city": "Kota",
    "postalCode": "324004",
    "state": "Rajasthan",
    "countryCode": "IN",
    "phone": "+919694628123",
    "phoneUnformatted": "+919694628123",
    "location": {
      "lat": 25.1473848,
      "lng": 75.8914359
    },
    "totalScore": 4.9,
    "permanentlyClosed": false,
    "temporarilyClosed": true,
    "placeId": "ChIJoQrI6zybbzkRyl9G6oBAtGU",
    "categories": [
      "Car rental agency",
      "Tour agency"
    ],
    "reviewsCount": 54,
    "imagesCount": 1,
    "openingHours": [],
    "imageUrl": "https://streetviewpixels-pa.googleapis.com/v1/thumbnail?panoid=L-0OwaJzEWvw9YgaI0Y0MQ&cb_client=search.gws-prod.gps&w=408&h=240&yaw=20.60206&pitch=0&thumbfov=100",
    "url": "https://www.google.com/maps/search/?api=1&query=JDSN%20Tour%20and%20Travels&query_place_id=ChIJoQrI6zybbzkRyl9G6oBAtGU"
  },
  {
    "title": "Jagdish Enterprises - Luxury Sofa | Mattress | Car Seat Covers | Curtains | Cushioning Works",
    "subTitle": "जगदीश इंटरप्राइजेज",
    "categoryName": "Car accessories store",
    "address": "5RCX+F8V Shopping center, 121, 121, Gumanpura, Kota, Rajasthan 324007, India",
    "neighborhood": "Gumanpura",
    "street": "5RCX+F8V Shopping center, 121, 121",
    "city": "Kota",
    "postalCode": "324007",
    "state": "Rajasthan",
    "countryCode": "IN",
    "phone": "+919351269123",
    "phoneUnformatted": "+919351269123",
    "location": {
      "lat": 25.1712908,
      "lng": 75.8483457
    },
    "totalScore": 4.7,
    "permanentlyClosed": false,
    "temporarilyClosed": false,
    "placeId": "ChIJ_9Ww5CubbzkRo138Mflxpow",
    "categories": [
      "Car accessories store",
      "Furniture maker"
    ],
    "reviewsCount": 11,
    "imagesCount": 11,
    "openingHours": [
      {
        "day": "Monday",
        "hours": "10:30 AM to 8 PM"
      },
      {
        "day": "Tuesday",
        "hours": "10:30 AM to 8 PM"
      },
      {
        "day": "Wednesday",
        "hours": "10:30 AM to 8 PM"
      },
      {
        "day": "Thursday",
        "hours": "10:30 AM to 8 PM"
      },
      {
        "day": "Friday",
        "hours": "10:30 AM to 8 PM"
      },
      {
        "day": "Saturday",
        "hours": "10:30 AM to 8 PM"
      },
      {
        "day": "Sunday",
        "hours": "Closed"
      }
    ],
    "imageUrl": "https://lh3.googleusercontent.com/p/AF1QipN55THh7uhCgzPdE0zpIol1GXwKiGv4CCU8qmxm=w408-h544-k-no",
    "url": "https://www.google.com/maps/search/?api=1&query=Jagdish%20Enterprises%20-%20Luxury%20Sofa%20%7C%20Mattress%20%7C%20Car%20Seat%20Covers%20%7C%20Curtains%20%7C%20Cushioning%20Works&query_place_id=ChIJ_9Ww5CubbzkRo138Mflxpow"
  },
  {
    "title": "Kota carz self drive & car rental kota",
    "subTitle": "कोटा कार्ज़ सेल्फ ड्राइव & कार रेंटल कोटा",
    "categoryName": "Car rental agency",
    "address": "Unnamed Road, Indraprastha Industrial Area, Kota, Rajasthan 324005, India",
    "neighborhood": "Indraprastha Industrial Area",
    "street": "Unnamed Road",
    "city": "Kota",
    "postalCode": "324005",
    "state": "Rajasthan",
    "countryCode": "IN",
    "phone": "+917296983702",
    "phoneUnformatted": "+917296983702",
    "location": {
      "lat": 25.1358974,
      "lng": 75.8551381
    },
    "totalScore": 4.7,
    "permanentlyClosed": false,
    "temporarilyClosed": false,
    "placeId": "ChIJ3ch7QimFbzkR9EeWymskcIs",
    "categories": [
      "Car rental agency",
      "Car leasing service"
    ],
    "reviewsCount": 43,
    "imagesCount": 20,
    "openingHours": [
      {
        "day": "Monday",
        "hours": "Open 24 hours"
      },
      {
        "day": "Tuesday",
        "hours": "Open 24 hours"
      },
      {
        "day": "Wednesday",
        "hours": "Open 24 hours"
      },
      {
        "day": "Thursday",
        "hours": "Open 24 hours"
      },
      {
        "day": "Friday",
        "hours": "Open 24 hours"
      },
      {
        "day": "Saturday",
        "hours": "Open 24 hours"
      },
      {
        "day": "Sunday",
        "hours": "Open 24 hours"
      }
    ],
    "imageUrl": "https://lh3.googleusercontent.com/p/AF1QipOrRO1Mas0DFVsUEy50nQIlIRourGr2O3EzRmF8=w408-h544-k-no",
    "url": "https://www.google.com/maps/search/?api=1&query=Kota%20carz%20self%20drive%20%26%20car%20rental%20kota&query_place_id=ChIJ3ch7QimFbzkR9EeWymskcIs"
  },
  {
    "title": "NEXA (Bhatia and Company, Kota, Aerodrome Circle)",
    "subTitle": "नेक्सा (भाटिया एंड कंपनी, कोटा, एरोड्रम सर्किल)",
    "categoryName": "Car dealer",
    "address": "Plot No. 7 & 8, Motor Market Scheme, Aerodrome Cir, Kota, Rajasthan 324007, India",
    "neighborhood": "Dhanmandi",
    "street": "Plot No. 7 & 8, Motor Market Scheme, Aerodrome Cir",
    "city": "Kota",
    "postalCode": "324007",
    "state": "Rajasthan",
    "countryCode": "IN",
    "website": "https://www.nexaofaerodromecircle.com/?utm_source=gmb&utm_medium=google&utm_campaign=seo-local",
    "phone": "+918062216934",
    "phoneUnformatted": "+918062216934",
    "location": {
      "lat": 25.1677293,
      "lng": 75.8523959
    },
    "totalScore": 4.8,
    "permanentlyClosed": false,
    "temporarilyClosed": false,
    "placeId": "ChIJn_q0vSqbbzkR1E-x3HLcmV4",
    "categories": [
      "Car dealer"
    ],
    "reviewsCount": 2043,
    "imagesCount": 416,
    "openingHours": [
      {
        "day": "Monday",
        "hours": "9:30 AM to 9 PM"
      },
      {
        "day": "Tuesday",
        "hours": "9:30 AM to 9 PM"
      },
      {
        "day": "Wednesday",
        "hours": "9:30 AM to 9 PM"
      },
      {
        "day": "Thursday",
        "hours": "9:30 AM to 9 PM"
      },
      {
        "day": "Friday",
        "hours": "9:30 AM to 9 PM"
      },
      {
        "day": "Saturday",
        "hours": "9:30 AM to 9 PM"
      },
      {
        "day": "Sunday",
        "hours": "9:30 AM to 9 PM"
      }
    ],
    "imageUrl": "https://lh3.googleusercontent.com/gps-cs-s/AG0ilSxL1-g68ahIhiOZTNcHJ0lDHOA_Ip39JUnfZnuoAp0iXkJpbd07-s2s7Ey6QFFoGJpFpExtUjeNuWbZRS1VGmQ0IQJhQHV7quPhvQWXOgLo5S6NaiDCLkSdKrTPm2Q5Ym85034a=w523-h240-k-no",
    "url": "https://www.google.com/maps/search/?api=1&query=NEXA%20(Bhatia%20and%20Company%2C%20Kota%2C%20Aerodrome%20Circle)&query_place_id=ChIJn_q0vSqbbzkR1E-x3HLcmV4"
  },
  {
    "title": "Oppa cars used car dealer",
    "subTitle": "ओप्पा कार्स यूज्ड कार डीलर",
    "categoryName": "Used car dealer",
    "address": "5V3M+3F5, Ummed Sagar, Kota, Rajasthan 324003, India",
    "neighborhood": "Ummed Sagar",
    "street": "5V3M+3F5",
    "city": "Kota",
    "postalCode": "324003",
    "state": "Rajasthan",
    "countryCode": "IN",
    "location": {
      "lat": 25.153311,
      "lng": 75.883098
    },
    "permanentlyClosed": false,
    "temporarilyClosed": false,
    "placeId": "ChIJjd1ZYgCFbzkRbdpELjaLt-4",
    "categories": [
      "Used car dealer"
    ],
    "openingHours": [],
    "url": "https://www.google.com/maps/search/?api=1&query=Oppa%20cars%20used%20car%20dealer&query_place_id=ChIJjd1ZYgCFbzkRbdpELjaLt-4"
  },
  {
    "title": "Rathore Tour And Travel",
    "subTitle": "राठौर टूर एंड ट्रैवल",
    "categoryName": "Car rental agency",
    "address": "Shop No 3, near Mansapurn Mata Mandir, Vistar Yojna, Mahaveer Nagar Extension, Mahaveer Nagar, Kota, Rajasthan 324005, India",
    "neighborhood": "Vistar Yojna, Mahaveer Nagar Extension, Mahaveer Nagar",
    "street": "Shop No 3, near Mansapurn Mata Mandir",
    "city": "Kota",
    "postalCode": "324005",
    "state": "Rajasthan",
    "countryCode": "IN",
    "website": "https://www.rathoretourandtravel.com/",
    "phone": "+917689891838",
    "phoneUnformatted": "+917689891838",
    "location": {
      "lat": 25.1402049,
      "lng": 75.8304422
    },
    "totalScore": 4.9,
    "permanentlyClosed": false,
    "temporarilyClosed": false,
    "placeId": "ChIJ5XwqEa-FbzkRnXgSxLoY2os",
    "categories": [
      "Car rental agency",
      "Taxi service"
    ],
    "reviewsCount": 246,
    "imagesCount": 21,
    "openingHours": [],
    "imageUrl": "https://lh3.googleusercontent.com/gps-cs-s/AG0ilSyVtT8IlQHBLIqut0-fLg9mp601IV43lxXliEgwn4el4MNQasQneX69dpk0m7GkIp39lrqfLmyvKqaxPxRppwMG-SdPl4yX0s7FGZip0IH-pNB5kS3b8JaB2tpQFQKu8AfSlQBmmQ=w408-h307-k-no",
    "url": "https://www.google.com/maps/search/?api=1&query=Rathore%20Tour%20And%20Travel&query_place_id=ChIJ5XwqEa-FbzkRnXgSxLoY2os"
  },
  {
    "title": "Safarnama Tour and Travels | Best taxi service in kota | Travel agency | One way taxi service",
    "subTitle": "सफरनामा टूर एंड ट्रैवल्स | बेस्ट टैक्सी सर्विस इन कोटा | ट्रैवल एजेंसी | वन वे टैक्सी सर्विस",
    "categoryName": "Car leasing service",
    "address": "small scale industrial area, Rajasthan Patrika, B-3, Road, Ramchandrapura, Dhanmandi, Kota, Rajasthan 324005, India",
    "neighborhood": "Ramchandrapura, Dhanmandi",
    "street": "small scale industrial area, Rajasthan Patrika, B-3, Road",
    "city": "Kota",
    "postalCode": "324005",
    "state": "Rajasthan",
    "countryCode": "IN",
    "phone": "+917014361840",
    "phoneUnformatted": "+917014361840",
    "location": {
      "lat": 25.1650208,
      "lng": 75.8606953
    },
    "totalScore": 5,
    "permanentlyClosed": false,
    "temporarilyClosed": false,
    "placeId": "ChIJ7-Z18l2FbzkRpi3ir4UQ7tY",
    "categories": [
      "Car leasing service",
      "Taxi service",
      "Travel agency"
    ],
    "reviewsCount": 85,
    "imagesCount": 34,
    "openingHours": [],
    "imageUrl": "https://lh3.googleusercontent.com/p/AF1QipO7C6aT2Rk40KUCz6afhbiEzcFiQG35AOthHE6Q=w408-h544-k-no",
    "url": "https://www.google.com/maps/search/?api=1&query=Safarnama%20Tour%20and%20Travels%20%7C%20Best%20taxi%20service%20in%20kota%20%7C%20Travel%20agency%20%7C%20One%20way%20taxi%20service&query_place_id=ChIJ7-Z18l2FbzkRpi3ir4UQ7tY"
  },
  {
    "title": "Self Drive Car rental (Shree Nath Shivam)",
    "subTitle": "सेल्फ ड्राइव कार रेंटल (श्री नाथ शिवम)",
    "categoryName": "Car rental agency",
    "address": "choraya, near anand hotel, Ramchandrapura, Chawani, Kota, Rajasthan 324007, India",
    "neighborhood": "Ramchandrapura, Chawani",
    "street": "choraya, near anand hotel",
    "city": "Kota",
    "postalCode": "324007",
    "state": "Rajasthan",
    "countryCode": "IN",
    "phone": "+919251065166",
    "phoneUnformatted": "+919251065166",
    "location": {
      "lat": 25.1714181,
      "lng": 75.8523301
    },
    "totalScore": 4.8,
    "permanentlyClosed": false,
    "temporarilyClosed": false,
    "placeId": "ChIJlYO66ZebbzkR5qLkuiFPfmI",
    "categories": [
      "Car rental agency",
      "Car leasing service",
      "Taxi service"
    ],
    "reviewsCount": 63,
    "imagesCount": 13,
    "openingHours": [
      {
        "day": "Monday",
        "hours": "6 AM to 9 PM"
      },
      {
        "day": "Tuesday",
        "hours": "6 AM to 9 PM"
      },
      {
        "day": "Wednesday",
        "hours": "6 AM to 9 PM"
      },
      {
        "day": "Thursday",
        "hours": "6 AM to 9 PM"
      },
      {
        "day": "Friday",
        "hours": "6 AM to 9 PM"
      },
      {
        "day": "Saturday",
        "hours": "6 AM to 9 PM"
      },
      {
        "day": "Sunday",
        "hours": "6 AM to 9 PM"
      }
    ],
    "imageUrl": "https://lh3.googleusercontent.com/p/AF1QipP4pmO6mozOReYTKLGrGonD8nv6QYX1CBZfh0si=w408-h544-k-no",
    "url": "https://www.google.com/maps/search/?api=1&query=Self%20Drive%20Car%20rental%20(Shree%20Nath%20Shivam)&query_place_id=ChIJlYO66ZebbzkR5qLkuiFPfmI"
  },
  {
    "title": "Sharma taxi services",
    "subTitle": "शर्मा टैक्सी सर्विसेस",
    "categoryName": "Car rental agency",
    "address": "link road, Gandhi Colony, Borkhera, Kota, Rajasthan 324001, India",
    "neighborhood": "Gandhi Colony, Borkhera",
    "street": "link road",
    "city": "Kota",
    "postalCode": "324001",
    "state": "Rajasthan",
    "countryCode": "IN",
    "website": "http://sharmataxiservices998.com/",
    "phone": "+919079329522",
    "phoneUnformatted": "+919079329522",
    "location": {
      "lat": 25.1957232,
      "lng": 75.8870047
    },
    "totalScore": 4.9,
    "permanentlyClosed": false,
    "temporarilyClosed": false,
    "placeId": "ChIJiZ-jW0KbbzkRdPRh6g9EJk8",
    "categories": [
      "Car rental agency",
      "Taxi service"
    ],
    "reviewsCount": 158,
    "imagesCount": 16,
    "openingHours": [],
    "imageUrl": "https://lh3.googleusercontent.com/p/AF1QipPk2tuSZTI0-ihPc5L7sj-koFquH3kMqXYRiRQn=w408-h408-k-no",
    "url": "https://www.google.com/maps/search/?api=1&query=Sharma%20taxi%20services&query_place_id=ChIJiZ-jW0KbbzkRdPRh6g9EJk8"
  },
  {
    "title": "Shree Ji Tour and travel",
    "subTitle": "श्री जी टूर एंड ट्रैवल",
    "categoryName": "Car rental agency",
    "address": "37, Deoli Arab Rd, near shubham Resort, Pratap Nagar, Borkhera, Kota, Rajasthan 324001, India",
    "neighborhood": "Pratap Nagar, Borkhera",
    "street": "37, Deoli Arab Rd, near shubham Resort",
    "city": "Kota",
    "postalCode": "324001",
    "state": "Rajasthan",
    "countryCode": "IN",
    "phone": "+917734068858",
    "phoneUnformatted": "+917734068858",
    "location": {
      "lat": 25.1764305,
      "lng": 75.885235
    },
    "totalScore": 4.9,
    "permanentlyClosed": false,
    "temporarilyClosed": false,
    "placeId": "ChIJ-WLy1m-bbzkRj8MeqI-0NEk",
    "categories": [
      "Car rental agency",
      "Car leasing service",
      "Taxi service"
    ],
    "reviewsCount": 50,
    "imagesCount": 23,
    "openingHours": [],
    "imageUrl": "https://lh3.googleusercontent.com/p/AF1QipOQOC4fbH7iBXjoUDHPUx-ThEXpfwdknA_FIKSP=w408-h544-k-no",
    "url": "https://www.google.com/maps/search/?api=1&query=Shree%20Ji%20Tour%20and%20travel&query_place_id=ChIJ-WLy1m-bbzkRj8MeqI-0NEk"
  },
  {
    "title": "Shree Sawariya Car Rentals",
    "subTitle": "श्री सावरिया कार रेंटल्स",
    "categoryName": "Car rental agency",
    "address": "538, Mahaveer Nagar Housing Board Colony, Mahaveer Nagar, Kota, Rajasthan 324005, India",
    "neighborhood": "Mahaveer Nagar Housing Board Colony, Mahaveer Nagar",
    "street": "538",
    "city": "Kota",
    "postalCode": "324005",
    "state": "Rajasthan",
    "countryCode": "IN",
    "phone": "+919571232902",
    "phoneUnformatted": "+919571232902",
    "location": {
      "lat": 25.1398383,
      "lng": 75.842666
    },
    "totalScore": 5,
    "permanentlyClosed": false,
    "temporarilyClosed": false,
    "placeId": "ChIJr4VYYlyFbzkRvXBYo0Smczs",
    "categories": [
      "Car rental agency"
    ],
    "reviewsCount": 92,
    "imagesCount": 8,
    "openingHours": [
      {
        "day": "Monday",
        "hours": "Open 24 hours"
      },
      {
        "day": "Tuesday",
        "hours": "Open 24 hours"
      },
      {
        "day": "Wednesday",
        "hours": "Open 24 hours"
      },
      {
        "day": "Thursday",
        "hours": "Open 24 hours"
      },
      {
        "day": "Friday",
        "hours": "Open 24 hours"
      },
      {
        "day": "Saturday",
        "hours": "Open 24 hours"
      },
      {
        "day": "Sunday",
        "hours": "Open 24 hours"
      }
    ],
    "imageUrl": "https://lh3.googleusercontent.com/p/AF1QipMDNmwQzw_M2DH9_HFgQt0EtMltJSurU2iE18Db=w408-h544-k-no",
    "url": "https://www.google.com/maps/search/?api=1&query=Shree%20Sawariya%20Car%20Rentals&query_place_id=ChIJr4VYYlyFbzkRvXBYo0Smczs"
  },
  {
    "title": "The Luxury Car Modified",
    "subTitle": "द लक्जरी कार मोडिफाइड",
    "categoryName": "Car accessories store",
    "address": "B-4, 80, Fit Link Road, opposite Bajaj Gold Loan, Atwal Nagar, Gordhanpura, Kota, Rajasthan 324001, India",
    "neighborhood": "Atwal Nagar, Gordhanpura",
    "street": "B-4, 80, Fit Link Road, opposite Bajaj Gold Loan",
    "city": "Kota",
    "postalCode": "324001",
    "state": "Rajasthan",
    "countryCode": "IN",
    "location": {
      "lat": 25.1790183,
      "lng": 75.8715429
    },
    "totalScore": 5,
    "permanentlyClosed": false,
    "temporarilyClosed": true,
    "placeId": "ChIJB7NldDqbbzkRocMQwUmtPC0",
    "categories": [
      "Car accessories store",
      "Car wash"
    ],
    "reviewsCount": 2,
    "imagesCount": 1,
    "openingHours": [],
    "imageUrl": "https://streetviewpixels-pa.googleapis.com/v1/thumbnail?panoid=C1ZDigihLbVwb1idwMLChw&cb_client=search.gws-prod.gps&w=408&h=240&yaw=263.81085&pitch=0&thumbfov=100",
    "url": "https://www.google.com/maps/search/?api=1&query=The%20Luxury%20Car%20Modified&query_place_id=ChIJB7NldDqbbzkRocMQwUmtPC0"
  },
  {
    "title": "Used cars in Kota",
    "subTitle": "यूज्ड कार्स इन कोटा",
    "categoryName": "Used car dealer",
    "address": "41 A, near Gobariya Bawdi Circle, Vishwakarma Nagar, Transport Nagar, Rangbari, Kota, Rajasthan 324005, India",
    "neighborhood": "Vishwakarma Nagar, Transport Nagar, Rangbari",
    "street": "41 A, near Gobariya Bawdi Circle",
    "city": "Kota",
    "postalCode": "324005",
    "state": "Rajasthan",
    "countryCode": "IN",
    "phone": "+919930565555",
    "phoneUnformatted": "+919930565555",
    "location": {
      "lat": 25.130444,
      "lng": 75.8523781
    },
    "totalScore": 4.3,
    "permanentlyClosed": false,
    "temporarilyClosed": false,
    "placeId": "ChIJn5wI_M6FbzkRwLtLAYNRt58",
    "categories": [
      "Used car dealer",
      "Auto broker",
      "Car dealer",
      "Motor vehicle dealer",
      "Vehicle inspection service"
    ],
    "reviewsCount": 6,
    "imagesCount": 60,
    "openingHours": [
      {
        "day": "Monday",
        "hours": "10 AM to 7 PM"
      },
      {
        "day": "Tuesday",
        "hours": "10 AM to 7 PM"
      },
      {
        "day": "Wednesday",
        "hours": "10 AM to 7 PM"
      },
      {
        "day": "Thursday",
        "hours": "10 AM to 7 PM"
      },
      {
        "day": "Friday",
        "hours": "10 AM to 7 PM"
      },
      {
        "day": "Saturday",
        "hours": "10 AM to 7 PM"
      },
      {
        "day": "Sunday",
        "hours": "10 AM to 7 PM"
      }
    ],
    "imageUrl": "https://lh3.googleusercontent.com/gps-cs-s/AG0ilSzwuYX_l5zhgf6hq-_T_dA9yaUcsubpx61l4-N9Kc8ewDq1WUqx185nI_xM-VFmF3uutHg3z91LpjBIza7ADFJpGPIbBvq5gkoIxs2N9ZDQZrBCReev-lXsXjEL9mGwzaFK5NjO=w508-h240-k-no",
    "url": "https://www.google.com/maps/search/?api=1&query=Used%20cars%20in%20Kota&query_place_id=ChIJn5wI_M6FbzkRwLtLAYNRt58"
  },
  {
    "title": "car&bike (by Mahindra First Choice) Evergreen Motors - Kota",
    "subTitle": "कार&बाइक (बाय महिंद्रा फर्स्ट चॉइस) एवरग्रीन मोटर्स - कोटा",
    "categoryName": "Used car dealer",
    "address": "C-164, Rd Number 5, near Shree Ji Hospital, Indraprastha Industrial Area, Kota, Rajasthan 324005, India",
    "neighborhood": "Indraprastha Industrial Area",
    "street": "C-164, Rd Number 5, near Shree Ji Hospital",
    "city": "Kota",
    "postalCode": "324005",
    "state": "Rajasthan",
    "countryCode": "IN",
    "website": "https://www.carandbike.com/used/car-dealers/evergreen-motors-in-kota-4568/buy?utm_source=GMB",
    "phone": "+919873862814",
    "phoneUnformatted": "+919873862814",
    "location": {
      "lat": 25.1317668,
      "lng": 75.860701
    },
    "totalScore": 4.1,
    "permanentlyClosed": false,
    "temporarilyClosed": false,
    "placeId": "ChIJo1Q9NB6FbzkROVwZqXh5wDs",
    "categories": [
      "Used car dealer",
      "Auto broker",
      "Car dealer",
      "Motor vehicle dealer",
      "Vehicle inspection service"
    ],
    "reviewsCount": 40,
    "imagesCount": 108,
    "openingHours": [
      {
        "day": "Monday",
        "hours": "10 AM to 8 PM"
      },
      {
        "day": "Tuesday",
        "hours": "10 AM to 8 PM"
      },
      {
        "day": "Wednesday",
        "hours": "10 AM to 8 PM"
      },
      {
        "day": "Thursday",
        "hours": "10 AM to 8 PM"
      },
      {
        "day": "Friday",
        "hours": "10 AM to 8 PM"
      },
      {
        "day": "Saturday",
        "hours": "10 AM to 8 PM"
      },
      {
        "day": "Sunday",
        "hours": "10:30 AM to 5:30 PM"
      }
    ],
    "imageUrl": "https://lh3.googleusercontent.com/gps-cs-s/AG0ilSwRRTaxyFWWypN7dH6rUt8VJCAAlttchF3yIc-OKQf54LUD8B_9kuQ3eKa4rw16mUkxxXnOoMnaBygsWJGKFSPV3Ul4No8yfbi-Jg6oz402bxjJlLqdCVhZ1id8Q3iKPwrSClHy=w408-h725-k-no",
    "url": "https://www.google.com/maps/search/?api=1&query=car%26bike%20(by%20Mahindra%20First%20Choice)%20Evergreen%20Motors%20-%20Kota&query_place_id=ChIJo1Q9NB6FbzkROVwZqXh5wDs"
  }
]