[
  {
    "title": "Best Taxi Service Blue Taxi Moradabad - Best Car rental / Car On Hire / Cab on Rent in Moradabad",
    "subTitle": "बेस्ट टैक्सी सर्विस ब्लू टैक्सी मुरादाबाद - बेस्ट कार रेंटल / कार ऑन हीरे / कैब ऑन रेंट इन मुरादाबाद",
    "categoryName": "Car rental agency",
    "address": "118, Mannat Hotel Street, Gandhi Nagar, Moradabad, Uttar Pradesh 244001, India",
    "neighborhood": "Gandhi Nagar",
    "street": "118, Mannat Hotel Street",
    "city": "Moradabad",
    "postalCode": "244001",
    "state": "Uttar Pradesh",
    "countryCode": "IN",
    "phone": "+917300928181",
    "phoneUnformatted": "+917300928181",
    "location": {
      "lat": 28.826487,
      "lng": 78.7740464
    },
    "totalScore": 4.8,
    "permanentlyClosed": false,
    "temporarilyClosed": false,
    "placeId": "ChIJTXmqJyaJTmsRTClc9OxsMMI",
    "categories": [
      "Car rental agency",
      "Car leasing service",
      "Taxi service"
    ],
    "reviewsCount": 54,
    "imagesCount": 22,
    "openingHours": [],
    "imageUrl": "https://lh3.googleusercontent.com/p/AF1QipMeEWU6U6ygRs-PKQ36EveVtqyqtGGWmtoc2VVT=w408-h306-k-no",
    "url": "https://www.google.com/maps/search/?api=1&query=Best%20Taxi%20Service%20Blue%20Taxi%20Moradabad%20-%20Best%20Car%20rental%20%2F%20Car%20On%20Hire%20%2F%20Cab%20on%20Rent%20in%20Moradabad&query_place_id=ChIJTXmqJyaJTmsRTClc9OxsMMI"
  },
  {
    "title": "CARS 4U",
    "subTitle": "कार्स 4यू",
    "categoryName": "Used car dealer",
    "address": "Saroj Cinema Complex, Budh Bazaar, Moradabad, Uttar Pradesh 244001, India",
    "neighborhood": "Budh Bazaar",
    "street": "Saroj Cinema Complex",
    "city": "Moradabad",
    "postalCode": "244001",
    "state": "Uttar Pradesh",
    "countryCode": "IN",
    "location": {
      "lat": 28.832797,
      "lng": 78.768873
    },
    "totalScore": 5,
    "permanentlyClosed": false,
    "temporarilyClosed": true,
    "placeId": "ChIJf0N9Fxn7CjkR-EWILg6jUvE",
    "categories": [
      "Used car dealer"
    ],
    "reviewsCount": 10,
    "imagesCount": 24,
    "openingHours": [],
    "imageUrl": "https://lh3.googleusercontent.com/p/AF1QipMR_y1ySsEav2doPZgt7Pg1zUP6x0V-KAF8hP9p=w408-h306-k-no",
    "url": "https://www.google.com/maps/search/?api=1&query=CARS%204U&query_place_id=ChIJf0N9Fxn7CjkR-EWILg6jUvE"
  },
  {
    "title": "Car Hero - Doorstep Car Wash",
    "subTitle": "कार हीरो - डोरस्टेप कार वाश",
    "categoryName": "Car wash",
    "address": "Jigar Colony, Moradabad, Uttar Pradesh 244001, India",
    "neighborhood": "Jigar Colony",
    "city": "Moradabad",
    "postalCode": "244001",
    "state": "Uttar Pradesh",
    "countryCode": "IN",
    "website": "https://www.carhero.in/",
    "phone": "+919012384000",
    "phoneUnformatted": "+919012384000",
    "location": {
      "lat": 28.8537363,
      "lng": 78.7710702
    },
    "totalScore": 4.9,
    "permanentlyClosed": false,
    "temporarilyClosed": false,
    "placeId": "ChIJc3WdE6f7CjkRO7QFtCyaeCg",
    "categories": [
      "Car wash"
    ],
    "reviewsCount": 32,
    "imagesCount": 14,
    "openingHours": [
      {
        "day": "Monday",
        "hours": "10:30 AM to 7:30 PM"
      },
      {
        "day": "Tuesday",
        "hours": "10:30 AM to 7:30 PM"
      },
      {
        "day": "Wednesday",
        "hours": "10:30 AM to 7:30 PM"
      },
      {
        "day": "Thursday",
        "hours": "10:30 AM to 7:30 PM"
      },
      {
        "day": "Friday",
        "hours": "10:30 AM to 7:30 PM"
      },
      {
        "day": "Saturday",
        "hours": "10:30 AM to 7:30 PM"
      },
      {
        "day": "Sunday",
        "hours": "Closed"
      }
    ],
    "imageUrl": "https://lh3.googleusercontent.com/gps-cs-s/AG0ilSzIwo1LcpsiH5Hcp6Ee49oQoQdynNhbLqkoD-1gvnkl51vNTjz1ASrIrR9xISQ1wqo-BJ2v42qTQSVpKtL2kCyBUIl3b4P5grxz64NyU_X24sZBApP6uowRFy9HeXXY-Zx9diJP=w408-h306-k-no",
    "url": "https://www.google.com/maps/search/?api=1&query=Car%20Hero%20-%20Doorstep%20Car%20Wash&query_place_id=ChIJc3WdE6f7CjkRO7QFtCyaeCg"
  },
  {
    "title": "Car Rentals",
    "subTitle": "कार रेंटल्स",
    "categoryName": "Car leasing service",
    "address": "Kashiram Nagar, Moradabad, Uttar Pradesh 244103, India",
    "neighborhood": "Kashiram Nagar",
    "city": "Moradabad",
    "postalCode": "244103",
    "state": "Uttar Pradesh",
    "countryCode": "IN",
    "location": {
      "lat": 28.8500859,
      "lng": 78.7428243
    },
    "totalScore": 4.9,
    "permanentlyClosed": false,
    "temporarilyClosed": false,
    "placeId": "ChIJLed8yCz9CjkRmFnwSb5bg-4",
    "categories": [
      "Car leasing service"
    ],
    "reviewsCount": 15,
    "imagesCount": 1,
    "openingHours": [
      {
        "day": "Monday",
        "hours": "Open 24 hours"
      },
      {
        "day": "Tuesday",
        "hours": "Open 24 hours"
      },
      {
        "day": "Wednesday",
        "hours": "Open 24 hours"
      },
      {
        "day": "Thursday",
        "hours": "Open 24 hours"
      },
      {
        "day": "Friday",
        "hours": "Open 24 hours"
      },
      {
        "day": "Saturday",
        "hours": "Open 24 hours"
      },
      {
        "day": "Sunday",
        "hours": "Open 24 hours"
      }
    ],
    "imageUrl": "https://streetviewpixels-pa.googleapis.com/v1/thumbnail?panoid=gFqapMsjz1-fjBniW7Sd0Q&cb_client=search.gws-prod.gps&w=408&h=240&yaw=218.61731&pitch=0&thumbfov=100",
    "url": "https://www.google.com/maps/search/?api=1&query=Car%20Rentals&query_place_id=ChIJLed8yCz9CjkRmFnwSb5bg-4"
  },
  {
    "title": "Cars Club",
    "subTitle": "कार्स क्लब",
    "categoryName": "Car accessories store",
    "address": "Gagan, Delhi Rd, Moradabad, Uttar Pradesh 244103, India",
    "neighborhood": "Buddhi Vihar",
    "street": "Gagan, Delhi Rd",
    "city": "Moradabad",
    "postalCode": "244103",
    "state": "Uttar Pradesh",
    "countryCode": "IN",
    "phone": "+919412840636",
    "phoneUnformatted": "+919412840636",
    "location": {
      "lat": 28.827903,
      "lng": 78.7237968
    },
    "totalScore": 4.1,
    "permanentlyClosed": false,
    "temporarilyClosed": false,
    "placeId": "ChIJ953y83P9CjkRG7bVn_bflME",
    "categories": [
      "Car accessories store"
    ],
    "reviewsCount": 75,
    "imagesCount": 13,
    "openingHours": [
      {
        "day": "Monday",
        "hours": "10:30 AM to 8:30 PM"
      },
      {
        "day": "Tuesday",
        "hours": "10:30 AM to 8:30 PM"
      },
      {
        "day": "Wednesday",
        "hours": "10:30 AM to 8:30 PM"
      },
      {
        "day": "Thursday",
        "hours": "10:30 AM to 8:30 PM"
      },
      {
        "day": "Friday",
        "hours": "10:30 AM to 8:30 PM"
      },
      {
        "day": "Saturday",
        "hours": "10:30 AM to 8:30 PM"
      },
      {
        "day": "Sunday",
        "hours": "10:30 AM to 8:30 PM"
      }
    ],
    "imageUrl": "https://lh3.googleusercontent.com/gps-cs-s/AG0ilSwq6zZOQbLbcl9AOPsb_H3A9TWG_MrZJYa1NURGL6nBB8BrJvIV9FhwYgmwC56yJ9Dc5QkDecxDjhgdxcNr_2kkEvHLa_DkX48G8og6y2pUDD98lJmvZFhrFCPuDZkoZtYFK2q_tQ=w426-h240-k-no",
    "url": "https://www.google.com/maps/search/?api=1&query=Cars%20Club&query_place_id=ChIJ953y83P9CjkRG7bVn_bflME"
  },
  {
    "title": "GO CABS mbd",
    "subTitle": "गो कैब्स एमबीडी",
    "categoryName": "Car rental agency",
    "address": "Parsvnath plaza 2, Delhi Rd, opposite TMIMT college, Mansarover Colony, Line Par, Moradabad, Uttar Pradesh 244103, India",
    "neighborhood": "Mansarover Colony, Line Par",
    "street": "Parsvnath plaza 2, Delhi Rd, opposite TMIMT college",
    "city": "Moradabad",
    "postalCode": "244103",
    "state": "Uttar Pradesh",
    "countryCode": "IN",
    "phone": "+919690004080",
    "phoneUnformatted": "+919690004080",
    "location": {
      "lat": 28.8372735,
      "lng": 78.7493106
    },
    "totalScore": 4.6,
    "permanentlyClosed": false,
    "temporarilyClosed": false,
    "placeId": "ChIJVQdihCT7CjkRCIWUpdPPSjw",
    "categories": [
      "Car rental agency",
      "Car leasing service",
      "Taxi service"
    ],
    "reviewsCount": 33,
    "imagesCount": 67,
    "openingHours": [
      {
        "day": "Monday",
        "hours": "Open 24 hours"
      },
      {
        "day": "Tuesday",
        "hours": "Open 24 hours"
      },
      {
        "day": "Wednesday",
        "hours": "Open 24 hours"
      },
      {
        "day": "Thursday",
        "hours": "Open 24 hours"
      },
      {
        "day": "Friday",
        "hours": "Open 24 hours"
      },
      {
        "day": "Saturday",
        "hours": "Open 24 hours"
      },
      {
        "day": "Sunday",
        "hours": "Open 24 hours"
      }
    ],
    "imageUrl": "https://lh3.googleusercontent.com/p/AF1QipOoeghnEcvlUxrmEma5ozkVZz1n-Shz5Xs0n7Ar=w408-h432-k-no",
    "url": "https://www.google.com/maps/search/?api=1&query=GO%20CABS%20mbd&query_place_id=ChIJVQdihCT7CjkRCIWUpdPPSjw"
  },
  {
    "title": "Kia Car Showroom - Global Kia, Delhi Road",
    "subTitle": "किआ कार शोरूम - ग्लोबल किया, दिल्ली रोड",
    "categoryName": "Car dealer",
    "address": "Ground Floor, Delhi Rd, opposite Modern Public School, Majhola, Moradabad, Uttar Pradesh 244103, India",
    "neighborhood": "Majhola",
    "street": "Ground Floor, Delhi Rd, opposite Modern Public School",
    "city": "Moradabad",
    "postalCode": "244103",
    "state": "Uttar Pradesh",
    "countryCode": "IN",
    "website": "https://kiaindia-dealers.com/kia-car-showroom-global-kia-delhi-road-global-kia-car-dealer-delhi-road-moradabad-335052/Home?utm_source=locator&utm_medium=googleplaces",
    "phone": "+918879058174",
    "phoneUnformatted": "+918879058174",
    "location": {
      "lat": 28.827581,
      "lng": 78.7267408
    },
    "totalScore": 4.7,
    "permanentlyClosed": false,
    "temporarilyClosed": false,
    "placeId": "ChIJ0UTvllL7CjkR2iknjWB28_o",
    "categories": [
      "Car dealer",
      "Auto parts store",
      "Car accessories store",
      "Electric vehicle charging station",
      "Kia dealer"
    ],
    "reviewsCount": 1092,
    "imagesCount": 141,
    "openingHours": [
      {
        "day": "Monday",
        "hours": "9:30 AM to 7 PM"
      },
      {
        "day": "Tuesday",
        "hours": "9:30 AM to 7 PM"
      },
      {
        "day": "Wednesday",
        "hours": "9:30 AM to 7 PM"
      },
      {
        "day": "Thursday",
        "hours": "9:30 AM to 7 PM"
      },
      {
        "day": "Friday",
        "hours": "9:30 AM to 7 PM"
      },
      {
        "day": "Saturday",
        "hours": "Closed"
      },
      {
        "day": "Sunday",
        "hours": "9:30 AM to 7 PM"
      }
    ],
    "imageUrl": "https://lh3.googleusercontent.com/gps-cs-s/AG0ilSzb8_juSWplcJrQuE0Zx8YHn1uH1boco6cTOVU_e9P8wShAOPsV6kyCtXLxY2VgQMrJ09S1FckFNe9JhzU7d_pYI7x45ZiMmpka7MfZwDD9_5Ej3pJUB9LoG0FXxAMXdJXz6_U=w531-h240-k-no",
    "url": "https://www.google.com/maps/search/?api=1&query=Kia%20Car%20Showroom%20-%20Global%20Kia%2C%20Delhi%20Road&query_place_id=ChIJ0UTvllL7CjkR2iknjWB28_o"
  },
  {
    "title": "Moradabad Tour & Travels",
    "subTitle": "मुरादाबाद टूर & ट्रैवल्स",
    "categoryName": "Car leasing service",
    "address": "Himgiri Colony, Sonakpur, Harthala, Moradabad, Uttar Pradesh 244105, India",
    "neighborhood": "Sonakpur, Harthala",
    "street": "Himgiri Colony",
    "city": "Moradabad",
    "postalCode": "244105",
    "state": "Uttar Pradesh",
    "countryCode": "IN",
    "phone": "+918630328119",
    "phoneUnformatted": "+918630328119",
    "location": {
      "lat": 28.8693123,
      "lng": 78.7404694
    },
    "totalScore": 5,
    "permanentlyClosed": false,
    "temporarilyClosed": false,
    "placeId": "ChIJSUK2ERz_CjkRCsKQeG-xrR4",
    "categories": [
      "Car leasing service",
      "Air taxi",
      "Taxi service",
      "Tour operator",
      "Travel agency"
    ],
    "reviewsCount": 25,
    "imagesCount": 16,
    "openingHours": [],
    "imageUrl": "https://lh3.googleusercontent.com/p/AF1QipN2l5Fl_leumsOoVDtqsdBgLAif1fOe7D50Omho=w408-h544-k-no",
    "url": "https://www.google.com/maps/search/?api=1&query=Moradabad%20Tour%20%26%20Travels&query_place_id=ChIJSUK2ERz_CjkRCsKQeG-xrR4"
  },
  {
    "title": "NEXA (Akanksha Automobiles, Moradabad, Gaagan Square)",
    "subTitle": "नेक्सा (आकांक्षा ऑटोमोबाइल्स, मुरादाबाद, गागन स्क्वायर)",
    "categoryName": "Car dealer",
    "address": "RPGC+PH4, Gaagan chauraha, Delhi Rd, gagan chouraha, Moradabad, Uttar Pradesh 244103, India",
    "neighborhood": "gagan chouraha",
    "street": "RPGC+PH4, Gaagan chauraha, Delhi Rd",
    "city": "Moradabad",
    "postalCode": "244103",
    "state": "Uttar Pradesh",
    "countryCode": "IN",
    "website": "https://www.nexaofgaagansquare.com/?utm_source=gmb&utm_medium=google&utm_campaign=seo-local",
    "phone": "+918062511375",
    "phoneUnformatted": "+918062511375",
    "location": {
      "lat": 28.8268458,
      "lng": 78.7218559
    },
    "totalScore": 4.5,
    "permanentlyClosed": false,
    "temporarilyClosed": false,
    "placeId": "ChIJRaRAhkD8CjkRCiv_mFt_N-Q",
    "categories": [
      "Car dealer"
    ],
    "reviewsCount": 1131,
    "imagesCount": 300,
    "openingHours": [
      {
        "day": "Monday",
        "hours": "9:30 AM to 6:30 PM"
      },
      {
        "day": "Tuesday",
        "hours": "9:30 AM to 6:30 PM"
      },
      {
        "day": "Wednesday",
        "hours": "9:30 AM to 6:30 PM"
      },
      {
        "day": "Thursday",
        "hours": "9:30 AM to 6:30 PM"
      },
      {
        "day": "Friday",
        "hours": "9:30 AM to 6:30 PM"
      },
      {
        "day": "Saturday",
        "hours": "Closed"
      },
      {
        "day": "Sunday",
        "hours": "9:30 AM to 6:30 PM"
      }
    ],
    "imageUrl": "https://lh3.googleusercontent.com/gps-cs-s/AG0ilSy9VhCMSv-04e-BQqnLdgCnpnAhYtYCUpUjJNzFMN4IEL4UxQpjpiGJjHXENWk4O60S6TKmFcH6QvKpwc1gOtcQXlN2H5IR_8C4Ggc0MQ56B971xTRgajl_EH75d1S3aILzOr4x=w408-h306-k-no",
    "url": "https://www.google.com/maps/search/?api=1&query=NEXA%20(Akanksha%20Automobiles%2C%20Moradabad%2C%20Gaagan%20Square)&query_place_id=ChIJRaRAhkD8CjkRCiv_mFt_N-Q"
  },
  {
    "title": "Om Sai tour and travels",
    "subTitle": "ओम साई टूर एंड ट्रैवल्स",
    "categoryName": "Car rental agency",
    "address": "Wave Green, E 29, Chakkar Ki Milak, Moradabad, Uttar Pradesh 244001, India",
    "neighborhood": "Chakkar Ki Milak",
    "street": "Wave Green, E 29",
    "city": "Moradabad",
    "postalCode": "244001",
    "state": "Uttar Pradesh",
    "countryCode": "IN",
    "location": {
      "lat": 28.8660199,
      "lng": 78.7613787
    },
    "totalScore": 5,
    "permanentlyClosed": false,
    "temporarilyClosed": false,
    "placeId": "ChIJS-gp2fH5CjkRBvVbe6QiXEE",
    "categories": [
      "Car rental agency",
      "Car leasing service",
      "Taxi service",
      "Tour agency"
    ],
    "reviewsCount": 7,
    "imagesCount": 13,
    "openingHours": [],
    "imageUrl": "https://lh3.googleusercontent.com/p/AF1QipNYpN10w80KQyxWKnym2C2HW0q32Nqz_mrGKPQc=w408-h536-k-no",
    "url": "https://www.google.com/maps/search/?api=1&query=Om%20Sai%20tour%20and%20travels&query_place_id=ChIJS-gp2fH5CjkRBvVbe6QiXEE"
  },
  {
    "title": "Shyama Tour & Travels",
    "subTitle": "श्यामा टूर & ट्रैवल्स",
    "categoryName": "Car rental agency",
    "address": "Nera Pihu Collection, Dehri Gaon Road, Govind Nagar Rd, Katghar, Moradabad, Uttar Pradesh 244001, India",
    "neighborhood": "Katghar",
    "street": "Nera Pihu Collection, Dehri Gaon Road, Govind Nagar Rd",
    "city": "Moradabad",
    "postalCode": "244001",
    "state": "Uttar Pradesh",
    "countryCode": "IN",
    "phone": "+919897282699",
    "phoneUnformatted": "+919897282699",
    "location": {
      "lat": 28.8175218,
      "lng": 78.7867016
    },
    "totalScore": 5,
    "permanentlyClosed": false,
    "temporarilyClosed": false,
    "placeId": "ChIJ--iQVyf7CjkRFHCzIjdyXLQ",
    "categories": [
      "Car rental agency",
      "Car leasing service",
      "Tour agency",
      "Taxi service",
      "Travel agency"
    ],
    "reviewsCount": 1,
    "imagesCount": 55,
    "openingHours": [
      {
        "day": "Monday",
        "hours": "Open 24 hours"
      },
      {
        "day": "Tuesday",
        "hours": "Open 24 hours"
      },
      {
        "day": "Wednesday",
        "hours": "Open 24 hours"
      },
      {
        "day": "Thursday",
        "hours": "Open 24 hours"
      },
      {
        "day": "Friday",
        "hours": "Open 24 hours"
      },
      {
        "day": "Saturday",
        "hours": "Open 24 hours"
      },
      {
        "day": "Sunday",
        "hours": "Open 24 hours"
      }
    ],
    "imageUrl": "https://lh3.googleusercontent.com/gps-cs-s/AG0ilSwHmq7qkJQKjWarZ3ofUnDquIpNdIiZ1kBP3zzTBe0uRs_VwiUIOkI_cipkzQ_6rR3sFmn9CNTPFfWzmWWW01U4NhrEB3E-AsBuycu6E9FJJQR_Fym2aR2unTbXWQmPaJty0rlEkggCQmoU=w408-h725-k-no",
    "url": "https://www.google.com/maps/search/?api=1&query=Shyama%20Tour%20%26%20Travels&query_place_id=ChIJ--iQVyf7CjkRFHCzIjdyXLQ"
  },
  {
    "title": "Teeksha Travels Taxi service",
    "subTitle": "तीक्षा ट्रैवल्स टैक्सी सर्विस",
    "categoryName": "Car rental agency",
    "address": "Khushhalpur, Moradabad, Uttar Pradesh 244103, India",
    "neighborhood": "Khushhalpur",
    "city": "Moradabad",
    "postalCode": "244103",
    "state": "Uttar Pradesh",
    "countryCode": "IN",
    "website": "http://www.teekshatravels.com/",
    "phone": "+919756666005",
    "phoneUnformatted": "+919756666005",
    "location": {
      "lat": 28.8371118,
      "lng": 78.7443572
    },
    "totalScore": 4.7,
    "permanentlyClosed": false,
    "temporarilyClosed": false,
    "placeId": "ChIJ3S-0B9D9CjkR8GTNsZfhfR0",
    "categories": [
      "Car rental agency",
      "Car leasing service"
    ],
    "reviewsCount": 35,
    "imagesCount": 14,
    "openingHours": [
      {
        "day": "Monday",
        "hours": "Open 24 hours"
      },
      {
        "day": "Tuesday",
        "hours": "Open 24 hours"
      },
      {
        "day": "Wednesday",
        "hours": "Open 24 hours"
      },
      {
        "day": "Thursday",
        "hours": "Open 24 hours"
      },
      {
        "day": "Friday",
        "hours": "Open 24 hours"
      },
      {
        "day": "Saturday",
        "hours": "Open 24 hours"
      },
      {
        "day": "Sunday",
        "hours": "Open 24 hours"
      }
    ],
    "imageUrl": "https://lh3.googleusercontent.com/p/AF1QipOVW7MCyZa6Taq77q0cILNSJb_hVSnhl8oweZN0=w408-h544-k-no",
    "url": "https://www.google.com/maps/search/?api=1&query=Teeksha%20Travels%20Taxi%20service&query_place_id=ChIJ3S-0B9D9CjkR8GTNsZfhfR0"
  },
  {
    "title": "The Car Company",
    "subTitle": "द कार कंपनी",
    "categoryName": "Car dealer",
    "address": "Select Hospital, Near, Lakri Fazalpur Rd, Moradabad, Uttar Pradesh 244103, India",
    "street": "Select Hospital, Near, Lakri Fazalpur Rd",
    "city": "Moradabad",
    "postalCode": "244103",
    "state": "Uttar Pradesh",
    "countryCode": "IN",
    "location": {
      "lat": 28.8026722,
      "lng": 78.7522391
    },
    "totalScore": 5,
    "permanentlyClosed": false,
    "temporarilyClosed": false,
    "placeId": "ChIJm9Rv6Sr7CjkRA6oIikxpfqA",
    "categories": [
      "Car dealer"
    ],
    "reviewsCount": 53,
    "imagesCount": 19,
    "openingHours": [
      {
        "day": "Monday",
        "hours": "Open 24 hours"
      },
      {
        "day": "Tuesday",
        "hours": "Open 24 hours"
      },
      {
        "day": "Wednesday",
        "hours": "Open 24 hours"
      },
      {
        "day": "Thursday",
        "hours": "Open 24 hours"
      },
      {
        "day": "Friday",
        "hours": "Open 24 hours"
      },
      {
        "day": "Saturday",
        "hours": "Open 24 hours"
      },
      {
        "day": "Sunday",
        "hours": "Open 24 hours"
      }
    ],
    "imageUrl": "https://lh3.googleusercontent.com/p/AF1QipM2_FRKcUCmu0UrtTdecr3oR-kOswV3gjGIvGtX=w408-h306-k-no",
    "url": "https://www.google.com/maps/search/?api=1&query=The%20Car%20Company&query_place_id=ChIJm9Rv6Sr7CjkRA6oIikxpfqA"
  }
]