[
  {
    "title": "Al_arz car self drive",
    "subTitle": "ಅಲ್_ಆರ್ಜ್ ಕಾರ್ ಸೆಲ್ಫ್ ಡ್ರೈವ್",
    "categoryName": "Car rental agency",
    "address": "loyal world, Bannimantap 14th main road hudco, opposite road, near Balaji theatre, Bannimantap A Layout, Bannimantap, Mysuru, Karnataka 570015, India",
    "neighborhood": "Bannimantap A Layout, Bannimantap",
    "street": "loyal world, Bannimantap 14th main road hudco, opposite road, near Balaji theatre",
    "city": "Mysuru",
    "postalCode": "570015",
    "state": "Karnataka",
    "countryCode": "IN",
    "website": "https://alarzselfdrive.com/",
    "phone": "+918904440805",
    "phoneUnformatted": "+918904440805",
    "location": {
      "lat": 12.3417241,
      "lng": 76.6474005
    },
    "totalScore": 4.4,
    "permanentlyClosed": false,
    "temporarilyClosed": false,
    "placeId": "ChIJ2zpnFSZxrzsR-1EGqjELEjk",
    "categories": [
      "Car rental agency"
    ],
    "reviewsCount": 225,
    "imagesCount": 44,
    "openingHours": [
      {
        "day": "Monday",
        "hours": "Open 24 hours"
      },
      {
        "day": "Tuesday",
        "hours": "Open 24 hours"
      },
      {
        "day": "Wednesday",
        "hours": "Open 24 hours"
      },
      {
        "day": "Thursday",
        "hours": "Open 24 hours"
      },
      {
        "day": "Friday",
        "hours": "Open 24 hours"
      },
      {
        "day": "Saturday",
        "hours": "Open 24 hours"
      },
      {
        "day": "Sunday",
        "hours": "Open 24 hours"
      }
    ],
    "imageUrl": "https://lh3.googleusercontent.com/p/AF1QipNTMkZxpNZ5w3h65RgYUmHxaM0g5iABdWbDlJHU=w408-h306-k-no",
    "url": "https://www.google.com/maps/search/?api=1&query=Al_arz%20car%20self%20drive&query_place_id=ChIJ2zpnFSZxrzsR-1EGqjELEjk"
  },
  {
    "title": "BLCK Luxury",
    "categoryName": "Car rental agency",
    "address": "405/A, A, D Devaraj Urs Rd, Devaraja Mohalla, Yadavagiri, Mysuru, Karnataka 570004, India",
    "neighborhood": "Devaraja Mohalla, Yadavagiri",
    "street": "405/A, A, D Devaraj Urs Rd",
    "city": "Mysuru",
    "postalCode": "570004",
    "state": "Karnataka",
    "countryCode": "IN",
    "website": "https://blckluxury.com/",
    "phone": "+919900085611",
    "phoneUnformatted": "+919900085611",
    "location": {
      "lat": 12.3092764,
      "lng": 76.6489376
    },
    "totalScore": 5,
    "permanentlyClosed": false,
    "temporarilyClosed": false,
    "placeId": "ChIJHfl-RwxwrzsRkgHJlMchmLc",
    "categories": [
      "Car rental agency"
    ],
    "reviewsCount": 2,
    "imagesCount": 2,
    "openingHours": [],
    "imageUrl": "https://lh3.googleusercontent.com/gps-cs-s/AG0ilSw1gbZBIY-UmoqHTLHshLUJlg626CR5T0VNgBBj_HiuAWkAIketcDlKtGxVJ-97j2eMFglbH25WyiFb-XPrQdFQ6UTQd_EiHYrcRgiYMOTFs2qkS4YVRmv0CkcmXQtPTMFzb2tINg=w408-h544-k-no",
    "url": "https://www.google.com/maps/search/?api=1&query=BLCK%20Luxury&query_place_id=ChIJHfl-RwxwrzsRkgHJlMchmLc"
  },
  {
    "title": "Bairava Cars",
    "categoryName": "Car dealer",
    "address": "S.No, 28/2B, 1/A, Vishwamanava Jodi Road, near Andolana Circle, Ramakrishnanagar, Mysuru, Karnataka 570022, India",
    "neighborhood": "Block A, MUDA Employees Layout, Ramakrishnanagar",
    "street": "S.No, 28/2B, 1/A, Vishwamanava Jodi Road, near Andolana Circle",
    "city": "Mysuru",
    "postalCode": "570022",
    "state": "Karnataka",
    "countryCode": "IN",
    "phone": "+917483243404",
    "phoneUnformatted": "+917483243404",
    "location": {
      "lat": 12.2869578,
      "lng": 76.6159237
    },
    "totalScore": 5,
    "permanentlyClosed": false,
    "temporarilyClosed": false,
    "placeId": "ChIJobKiGYxlrzsRnFkI0gu31u4",
    "categories": [
      "Car dealer"
    ],
    "reviewsCount": 13,
    "imagesCount": 6,
    "openingHours": [
      {
        "day": "Monday",
        "hours": "10 AM to 8 PM"
      },
      {
        "day": "Tuesday",
        "hours": "10 AM to 8 PM"
      },
      {
        "day": "Wednesday",
        "hours": "10 AM to 8 PM"
      },
      {
        "day": "Thursday",
        "hours": "10 AM to 8 PM"
      },
      {
        "day": "Friday",
        "hours": "10 AM to 8 PM"
      },
      {
        "day": "Saturday",
        "hours": "10 AM to 8 PM"
      },
      {
        "day": "Sunday",
        "hours": "9 AM to 2 PM"
      }
    ],
    "imageUrl": "https://lh3.googleusercontent.com/p/AF1QipNugxheyhLkJpZSF6Q1uCjDe2JS0DqEu-4tNLtE=w408-h306-k-no",
    "url": "https://www.google.com/maps/search/?api=1&query=Bairava%20Cars&query_place_id=ChIJobKiGYxlrzsRnFkI0gu31u4"
  },
  {
    "title": "Bajarangi travels",
    "categoryName": "Car rental agency",
    "address": "#15, A block, Jyothi Nagar, Mysuru, Karnataka 570011, India",
    "neighborhood": "Jyothi Nagar, Chamundi Vihar Layout",
    "street": "#15, A block",
    "city": "Mysuru",
    "postalCode": "570011",
    "state": "Karnataka",
    "countryCode": "IN",
    "phone": "+919590608011",
    "phoneUnformatted": "+919590608011",
    "location": {
      "lat": 12.3122431,
      "lng": 76.6772727
    },
    "totalScore": 4.8,
    "permanentlyClosed": false,
    "temporarilyClosed": false,
    "placeId": "ChIJTTxPIqBxrzsRAnYTqtoQCsk",
    "categories": [
      "Car rental agency"
    ],
    "reviewsCount": 77,
    "imagesCount": 53,
    "openingHours": [
      {
        "day": "Monday",
        "hours": "Open 24 hours"
      },
      {
        "day": "Tuesday",
        "hours": "Open 24 hours"
      },
      {
        "day": "Wednesday",
        "hours": "Open 24 hours"
      },
      {
        "day": "Thursday",
        "hours": "Open 24 hours"
      },
      {
        "day": "Friday",
        "hours": "Open 24 hours"
      },
      {
        "day": "Saturday",
        "hours": "Open 24 hours"
      },
      {
        "day": "Sunday",
        "hours": "Open 24 hours"
      }
    ],
    "imageUrl": "https://lh3.googleusercontent.com/p/AF1QipO_N6i12MADWGjmA0T-tnJiMp_xXWFMUVZWoQG9=w427-h240-k-no",
    "url": "https://www.google.com/maps/search/?api=1&query=Bajarangi%20travels&query_place_id=ChIJTTxPIqBxrzsRAnYTqtoQCsk"
  },
  {
    "title": "CAR MERIDIAN - Pre - owned Car Showroom",
    "categoryName": "Used car dealer",
    "address": "8MJ3+RFJ, Bannimantap, Mysuru, Karnataka 570015, India",
    "neighborhood": "Bannimantap",
    "street": "8MJ3+RFJ",
    "city": "Mysuru",
    "postalCode": "570015",
    "state": "Karnataka",
    "countryCode": "IN",
    "phone": "+918880807010",
    "phoneUnformatted": "+918880807010",
    "location": {
      "lat": 12.3320875,
      "lng": 76.6536406
    },
    "totalScore": 4.6,
    "permanentlyClosed": false,
    "temporarilyClosed": false,
    "placeId": "ChIJs2eKEwBxrzsRDmA4kBTKUBg",
    "categories": [
      "Used car dealer"
    ],
    "reviewsCount": 10,
    "imagesCount": 12,
    "openingHours": [
      {
        "day": "Monday",
        "hours": "9:30 AM to 9:30 PM"
      },
      {
        "day": "Tuesday",
        "hours": "9:30 AM to 9:30 PM"
      },
      {
        "day": "Wednesday",
        "hours": "9:30 AM to 9:30 PM"
      },
      {
        "day": "Thursday",
        "hours": "9:30 AM to 9:30 PM"
      },
      {
        "day": "Friday",
        "hours": "9:30 AM to 9:30 PM"
      },
      {
        "day": "Saturday",
        "hours": "9:30 AM to 9:30 PM"
      },
      {
        "day": "Sunday",
        "hours": "9:30 AM to 9:30 PM"
      }
    ],
    "imageUrl": "https://lh3.googleusercontent.com/gps-cs-s/AG0ilSzFwSuX1InbYRYNFhTJf5-cw13KlpDfOjO9kX-HUbznTdXBNe_gE31X-O_tNgUgjPbQUJLGqLxEN5XbMObbeGBuKxN-dSlUNs-uz4PVe8StgxsZ-VMMICFS8euyjbP44WaM1io=w408-h544-k-no",
    "url": "https://www.google.com/maps/search/?api=1&query=CAR%20MERIDIAN%20-%20Pre%20-%20owned%20Car%20Showroom&query_place_id=ChIJs2eKEwBxrzsRDmA4kBTKUBg"
  },
  {
    "title": "Car Universe",
    "categoryName": "Used car dealer",
    "address": "558/A, New Kantharaj Urs Rd, Kuvempunagara North, Kuvempu Nagara, Mysuru, Karnataka 570023, India",
    "neighborhood": "Kuvempunagara North, Kuvempu Nagara",
    "street": "558/A, New Kantharaj Urs Rd",
    "city": "Mysuru",
    "postalCode": "570023",
    "state": "Karnataka",
    "countryCode": "IN",
    "website": "https://www.caruniversemysore.com/",
    "phone": "+919916586655",
    "phoneUnformatted": "+919916586655",
    "location": {
      "lat": 12.2959043,
      "lng": 76.6233282
    },
    "totalScore": 4.5,
    "permanentlyClosed": false,
    "temporarilyClosed": false,
    "placeId": "ChIJIXUilnl7rzsRWkgHd-Rlnw8",
    "categories": [
      "Used car dealer"
    ],
    "reviewsCount": 38,
    "imagesCount": 31,
    "openingHours": [
      {
        "day": "Monday",
        "hours": "9:30 AM to 7:30 PM"
      },
      {
        "day": "Tuesday",
        "hours": "9:30 AM to 7:30 PM"
      },
      {
        "day": "Wednesday",
        "hours": "9:30 AM to 7:30 PM"
      },
      {
        "day": "Thursday",
        "hours": "9:30 AM to 7:30 PM"
      },
      {
        "day": "Friday",
        "hours": "9:30 AM to 7:30 PM"
      },
      {
        "day": "Saturday",
        "hours": "9:30 AM to 7:30 PM"
      },
      {
        "day": "Sunday",
        "hours": "9:30 AM to 7:30 PM"
      }
    ],
    "imageUrl": "https://lh3.googleusercontent.com/p/AF1QipMFStD8O31CoC7Q-wokZWcvL4D-ZBkV4-D41yyB=w415-h240-k-no",
    "url": "https://www.google.com/maps/search/?api=1&query=Car%20Universe&query_place_id=ChIJIXUilnl7rzsRWkgHd-Rlnw8"
  },
  {
    "title": "Car nation Mysore",
    "categoryName": "Used car dealer",
    "address": "Jayaram Building, 2203/49, Sayyaji Rao Rd, Bamboo Bazar, Tilak Nagar, Mysuru, Karnataka 570001, India",
    "neighborhood": "Bamboo Bazar, Tilak Nagar",
    "street": "Jayaram Building, 2203/49, Sayyaji Rao Rd",
    "city": "Mysuru",
    "postalCode": "570001",
    "state": "Karnataka",
    "countryCode": "IN",
    "location": {
      "lat": 12.3271789,
      "lng": 76.6444613
    },
    "totalScore": 5,
    "permanentlyClosed": false,
    "temporarilyClosed": false,
    "placeId": "ChIJUSV05l1xrzsROxLRDxkxU8M",
    "categories": [
      "Used car dealer",
      "Auto broker"
    ],
    "reviewsCount": 7,
    "imagesCount": 34,
    "openingHours": [
      {
        "day": "Monday",
        "hours": "10 AM to 8:30 PM"
      },
      {
        "day": "Tuesday",
        "hours": "10 AM to 8:30 PM"
      },
      {
        "day": "Wednesday",
        "hours": "10 AM to 8:30 PM"
      },
      {
        "day": "Thursday",
        "hours": "10 AM to 8:30 PM"
      },
      {
        "day": "Friday",
        "hours": "10 AM to 8:30 PM"
      },
      {
        "day": "Saturday",
        "hours": "10 AM to 8:30 PM"
      },
      {
        "day": "Sunday",
        "hours": "10 AM to 8:30 PM"
      }
    ],
    "imageUrl": "https://lh3.googleusercontent.com/gps-cs-s/AG0ilSx2iDFdxY7vDOAWnUkH_dXDLSEkmg3Oj6VFSjaxYY1aPOFdOS72Vgj4syuOqEDl8xkkqW9Cupoppx8DcWAmwUvGQee32ZjAoxjHlR-mSstR_VW6wSLa-FNc7oDOcYPCQ7v_KGKxDg=w408-h544-k-no",
    "url": "https://www.google.com/maps/search/?api=1&query=Car%20nation%20Mysore&query_place_id=ChIJUSV05l1xrzsROxLRDxkxU8M"
  },
  {
    "title": "CarMax",
    "categoryName": "Used car dealer",
    "address": "8th Cross Rd, Sunnadakeri, Rahmania Mohalla, Mysuru, Karnataka 570004, India",
    "neighborhood": "Sunnadakeri, Rahmania Mohalla",
    "street": "8th Cross Rd",
    "city": "Mysuru",
    "postalCode": "570004",
    "state": "Karnataka",
    "countryCode": "IN",
    "website": "https://www.carmax.com/",
    "phone": "+918951510909",
    "phoneUnformatted": "+918951510909",
    "location": {
      "lat": 12.2987136,
      "lng": 76.6458714
    },
    "totalScore": 4.7,
    "permanentlyClosed": false,
    "temporarilyClosed": false,
    "placeId": "ChIJ4ZWmEGFxrzsRUTft12ctjX4",
    "categories": [
      "Used car dealer"
    ],
    "reviewsCount": 66,
    "imagesCount": 235,
    "openingHours": [
      {
        "day": "Monday",
        "hours": "9 AM to 8 PM"
      },
      {
        "day": "Tuesday",
        "hours": "9 AM to 8 PM"
      },
      {
        "day": "Wednesday",
        "hours": "9 AM to 8 PM"
      },
      {
        "day": "Thursday",
        "hours": "9 AM to 8 PM"
      },
      {
        "day": "Friday",
        "hours": "9 AM to 8 PM"
      },
      {
        "day": "Saturday",
        "hours": "9 AM to 8 PM"
      },
      {
        "day": "Sunday",
        "hours": "9 AM to 2 PM"
      }
    ],
    "imageUrl": "https://lh3.googleusercontent.com/gps-cs-s/AG0ilSyfGNCrsQwdfeWhkBW9hCJ--1kW2UB2SGiwzj7nJN_pqVwTKiY5aMlACSdM9j6yzgufOLzK7a7LkWt3PWzxCBjS2DJGLWvnGOCN2jQ69Nd7Wyz-i4-hvQlP4jXg0fJGbR5Lf77w=w408-h306-k-no",
    "url": "https://www.google.com/maps/search/?api=1&query=CarMax&query_place_id=ChIJ4ZWmEGFxrzsRUTft12ctjX4"
  },
  {
    "title": "City Cars",
    "subTitle": "ಸಿಟಿ ಕಾರ್ಸ್",
    "categoryName": "Car dealer",
    "address": "Tilak Nagar, Mysuru, Karnataka 570001, India",
    "neighborhood": "Tilak Nagar",
    "city": "Mysuru",
    "postalCode": "570001",
    "state": "Karnataka",
    "countryCode": "IN",
    "phone": "+919739738384",
    "phoneUnformatted": "+919739738384",
    "location": {
      "lat": 12.3256507,
      "lng": 76.6450713
    },
    "totalScore": 4.5,
    "permanentlyClosed": false,
    "temporarilyClosed": false,
    "placeId": "ChIJfffcxnlwrzsRGX7NSjtSIU4",
    "categories": [
      "Car dealer"
    ],
    "reviewsCount": 10,
    "imagesCount": 11,
    "openingHours": [
      {
        "day": "Monday",
        "hours": "10 AM to 8:45 PM"
      },
      {
        "day": "Tuesday",
        "hours": "10 AM to 8:45 PM"
      },
      {
        "day": "Wednesday",
        "hours": "10 AM to 8:45 PM"
      },
      {
        "day": "Thursday",
        "hours": "10 AM to 8:45 PM"
      },
      {
        "day": "Friday",
        "hours": "10 AM to 8:45 PM"
      },
      {
        "day": "Saturday",
        "hours": "10 AM to 8:45 PM"
      },
      {
        "day": "Sunday",
        "hours": "10 AM to 2:45 PM"
      }
    ],
    "imageUrl": "https://lh3.googleusercontent.com/gps-cs-s/AG0ilSy-3uwohXHXURVEwUeT5TKrJn0lzdgk9c2xXr3WWlJL9SdqCihI6PWkzo1DOiElqKqrZEFko3hJuFPEMjjtdhJbiKCRBEtSMfYC_HYN3p0YhrHJE3i9j_yqshlIfOzfCIN36Oz5=w408-h906-k-no",
    "url": "https://www.google.com/maps/search/?api=1&query=City%20Cars&query_place_id=ChIJfffcxnlwrzsRGX7NSjtSIU4"
  },
  {
    "title": "Classic Cars Mysore",
    "categoryName": "Car rental agency",
    "address": "No 653, B layout, S S Nagar, Shivarathreeshwara Nagar, Bannimantap, Mysuru, Karnataka 570015, India",
    "neighborhood": "S S Nagar, Shivarathreeshwara Nagar, Bannimantap",
    "street": "No 653, B layout",
    "city": "Mysuru",
    "postalCode": "570015",
    "state": "Karnataka",
    "countryCode": "IN",
    "website": "http://www.classiccarsmysore.autos/",
    "phone": "+917026444447",
    "phoneUnformatted": "+917026444447",
    "location": {
      "lat": 12.347465,
      "lng": 76.6528784
    },
    "totalScore": 5,
    "permanentlyClosed": false,
    "temporarilyClosed": false,
    "placeId": "ChIJXz8NM9lxrzsRhYmyLTmhju0",
    "categories": [
      "Car rental agency"
    ],
    "reviewsCount": 10,
    "imagesCount": 42,
    "openingHours": [
      {
        "day": "Monday",
        "hours": "8 AM to 11 PM"
      },
      {
        "day": "Tuesday",
        "hours": "8 AM to 11 PM"
      },
      {
        "day": "Wednesday",
        "hours": "8 AM to 11 PM"
      },
      {
        "day": "Thursday",
        "hours": "8 AM to 11 PM"
      },
      {
        "day": "Friday",
        "hours": "8 AM to 11 PM"
      },
      {
        "day": "Saturday",
        "hours": "8 AM to 11 PM"
      },
      {
        "day": "Sunday",
        "hours": "8 AM to 11 PM"
      }
    ],
    "imageUrl": "https://lh3.googleusercontent.com/p/AF1QipPePdkHZf26_9FmM0YL_Z7wQODW-delioAJBYzM=w408-h291-k-no",
    "url": "https://www.google.com/maps/search/?api=1&query=Classic%20Cars%20Mysore&query_place_id=ChIJXz8NM9lxrzsRhYmyLTmhju0"
  },
  {
    "title": "Classic car rentals",
    "categoryName": "Car rental agency",
    "address": "908, near by JSS dental college, Shivarathreeshwara Nagar, Bannimantap, Mysuru, Karnataka 570015, India",
    "neighborhood": "Shivarathreeshwara Nagar, Bannimantap",
    "street": "908, near by JSS dental college",
    "city": "Mysuru",
    "postalCode": "570015",
    "state": "Karnataka",
    "countryCode": "IN",
    "website": "https://classiccarrentals.in/",
    "phone": "+919036444477",
    "phoneUnformatted": "+919036444477",
    "location": {
      "lat": 12.3461989,
      "lng": 76.6482981
    },
    "totalScore": 4.5,
    "permanentlyClosed": false,
    "temporarilyClosed": false,
    "placeId": "ChIJqZMhwRFxrzsRZlJQ11Qm8ss",
    "categories": [
      "Car rental agency"
    ],
    "reviewsCount": 250,
    "imagesCount": 80,
    "openingHours": [
      {
        "day": "Monday",
        "hours": "Open 24 hours"
      },
      {
        "day": "Tuesday",
        "hours": "Open 24 hours"
      },
      {
        "day": "Wednesday",
        "hours": "Open 24 hours"
      },
      {
        "day": "Thursday",
        "hours": "Open 24 hours"
      },
      {
        "day": "Friday",
        "hours": "Open 24 hours"
      },
      {
        "day": "Saturday",
        "hours": "Open 24 hours"
      },
      {
        "day": "Sunday",
        "hours": "Open 24 hours"
      }
    ],
    "imageUrl": "https://lh3.googleusercontent.com/p/AF1QipO0dv1REuqotlQDA9UtcoLFccBk-vn3GG62kqap=w408-h401-k-no",
    "url": "https://www.google.com/maps/search/?api=1&query=Classic%20car%20rentals&query_place_id=ChIJqZMhwRFxrzsRZlJQ11Qm8ss"
  },
  {
    "title": "Elite Cars",
    "categoryName": "Used car dealer",
    "address": "6, Nelson Mandela Road, next to Bank of Baroda, Devaraja Mohalla, Bannimantap A Layout, Yadavagiri, Mysuru, Karnataka 570001, India",
    "neighborhood": "Devaraja Mohalla, Bannimantap A Layout, Yadavagiri",
    "street": "6, Nelson Mandela Road, next to Bank of Baroda",
    "city": "Mysuru",
    "postalCode": "570001",
    "state": "Karnataka",
    "countryCode": "IN",
    "phone": "+919980532607",
    "phoneUnformatted": "+919980532607",
    "location": {
      "lat": 12.3132092,
      "lng": 76.6504961
    },
    "totalScore": 5,
    "permanentlyClosed": false,
    "temporarilyClosed": false,
    "placeId": "ChIJa0tG6nxwrzsRvxXUb2-zA7s",
    "categories": [
      "Used car dealer"
    ],
    "reviewsCount": 6,
    "imagesCount": 20,
    "openingHours": [
      {
        "day": "Monday",
        "hours": "Closed"
      },
      {
        "day": "Tuesday",
        "hours": "Closed"
      },
      {
        "day": "Wednesday",
        "hours": "Closed"
      },
      {
        "day": "Thursday",
        "hours": "Closed"
      },
      {
        "day": "Friday",
        "hours": "Closed"
      },
      {
        "day": "Saturday",
        "hours": "Closed"
      },
      {
        "day": "Sunday",
        "hours": "10 AM to 9 PM"
      }
    ],
    "imageUrl": "https://lh3.googleusercontent.com/p/AF1QipNUySJ2aXfoMntKbU5kM_-c6KmvpfA9Js8z8lM8=w408-h306-k-no",
    "url": "https://www.google.com/maps/search/?api=1&query=Elite%20Cars&query_place_id=ChIJa0tG6nxwrzsRvxXUb2-zA7s"
  },
  {
    "title": "Evershine Motors",
    "subTitle": "ಎವರ್‌ಶೈನ್ ಮೋಟರ್ಸ್",
    "categoryName": "Car dealer",
    "address": "#27/B, Gokulam Main Rd, Gokulam 2nd Stage, Vani Vilas Mohalla, Mysuru, Karnataka 570002, India",
    "neighborhood": "Gokulam 2nd Stage, Vani Vilas Mohalla",
    "street": "#27/B, Gokulam Main Rd",
    "city": "Mysuru",
    "postalCode": "570002",
    "state": "Karnataka",
    "countryCode": "IN",
    "phone": "+919945277067",
    "phoneUnformatted": "+919945277067",
    "location": {
      "lat": 12.3282552,
      "lng": 76.6289779
    },
    "totalScore": 4.2,
    "permanentlyClosed": false,
    "temporarilyClosed": false,
    "placeId": "ChIJ28fERI96rzsRBxKBnh-L-YE",
    "categories": [
      "Car dealer",
      "Consultant"
    ],
    "reviewsCount": 70,
    "imagesCount": 30,
    "openingHours": [
      {
        "day": "Monday",
        "hours": "11 AM to 8:30 PM"
      },
      {
        "day": "Tuesday",
        "hours": "11 AM to 8:30 PM"
      },
      {
        "day": "Wednesday",
        "hours": "11 AM to 8:30 PM"
      },
      {
        "day": "Thursday",
        "hours": "11 AM to 8:30 PM"
      },
      {
        "day": "Friday",
        "hours": "11 AM to 8:30 PM"
      },
      {
        "day": "Saturday",
        "hours": "11 AM to 8:30 PM"
      },
      {
        "day": "Sunday",
        "hours": "11 AM to 8:30 PM"
      }
    ],
    "imageUrl": "https://lh3.googleusercontent.com/gps-cs-s/AG0ilSxVYD6ElHBKOAYxRUK-dheY_Oo2z2CqBqcQmrcspvZ4q0s7XkMds1uCuHr1UIPlRzvXMWC-m_Gzs23RHWJVaAd7H4emp53ayTA_7q3cakUyoTN_nNpN9ijX_yv--_Z069Pdu_Qv=w426-h240-k-no",
    "url": "https://www.google.com/maps/search/?api=1&query=Evershine%20Motors&query_place_id=ChIJ28fERI96rzsRBxKBnh-L-YE"
  },
  {
    "title": "FABLOUS CARS",
    "categoryName": "Used car dealer",
    "address": "1116, Jhansi Rani Lakshmi Bai Rd, next to Karnataka bank, Chamundipuram, Vidyaranyapura, Mysuru, Karnataka 570008, India",
    "neighborhood": "Chamundipuram, Vidyaranyapura",
    "street": "1116, Jhansi Rani Lakshmi Bai Rd, next to Karnataka bank",
    "city": "Mysuru",
    "postalCode": "570008",
    "state": "Karnataka",
    "countryCode": "IN",
    "phone": "+919632013655",
    "phoneUnformatted": "+919632013655",
    "location": {
      "lat": 12.2867893,
      "lng": 76.6509027
    },
    "totalScore": 4.7,
    "permanentlyClosed": false,
    "temporarilyClosed": false,
    "placeId": "ChIJYwpXMz5vrzsRNCq2enhSjaM",
    "categories": [
      "Used car dealer",
      "Car dealer"
    ],
    "reviewsCount": 14,
    "imagesCount": 12,
    "openingHours": [
      {
        "day": "Monday",
        "hours": "9:30 AM to 7 PM"
      },
      {
        "day": "Tuesday",
        "hours": "9:30 AM to 7 PM"
      },
      {
        "day": "Wednesday",
        "hours": "9:30 AM to 7 PM"
      },
      {
        "day": "Thursday",
        "hours": "9:30 AM to 7 PM"
      },
      {
        "day": "Friday",
        "hours": "9:30 AM to 7 PM"
      },
      {
        "day": "Saturday",
        "hours": "9:30 AM to 7 PM"
      },
      {
        "day": "Sunday",
        "hours": "9:30 AM to 1 PM"
      }
    ],
    "imageUrl": "https://lh3.googleusercontent.com/gps-cs-s/AG0ilSwUNYLVWsAVIS8sTAgsmuFMYZHMd3VJjlY0mZzxLyO636kuPjSj7sTVGAMBDbefoFuHGjjTio1vASNq7OWjBdq1xieKp-5eP5ChSWzj0r5GLoFQ-6cPIfzGHPDDo1lbSd4_YIDW=w533-h240-k-no",
    "url": "https://www.google.com/maps/search/?api=1&query=FABLOUS%20CARS&query_place_id=ChIJYwpXMz5vrzsRNCq2enhSjaM"
  },
  {
    "title": "Galaxy Tours & Travels",
    "subTitle": "ಗ್ಯಾಲಕ್ಸಿ ಟೂರ್ಸ್ & ಟ್ರಾವೆಲ್ಸ್",
    "categoryName": "Car leasing service",
    "address": "4508, Maruthi Circle, 34/A, Bazaar Street, N R Mohalla, Rajendra Nagar, Mysuru, Karnataka 570007, India",
    "neighborhood": "N R Mohalla, Rajendra Nagar",
    "street": "4508, Maruthi Circle, 34/A, Bazaar Street",
    "city": "Mysuru",
    "postalCode": "570007",
    "state": "Karnataka",
    "countryCode": "IN",
    "phone": "+919980439786",
    "phoneUnformatted": "+919980439786",
    "location": {
      "lat": 12.3258077,
      "lng": 76.6647185
    },
    "totalScore": 4.8,
    "permanentlyClosed": false,
    "temporarilyClosed": false,
    "placeId": "ChIJ2fuvVl1wrzsRx7Aq5Z8UG3k",
    "categories": [
      "Car leasing service",
      "Airport shuttle service",
      "Taxi service",
      "Chauffeur service",
      "Limousine service",
      "Minibus taxi service",
      "Sightseeing tour agency",
      "Tour operator",
      "Transportation service",
      "Travel agency"
    ],
    "reviewsCount": 122,
    "imagesCount": 76,
    "openingHours": [],
    "imageUrl": "https://lh3.googleusercontent.com/p/AF1QipMQj8zNnOfJ5DpI790K8u_vUTxJLNS6TX2AUO9W=w408-h306-k-no",
    "url": "https://www.google.com/maps/search/?api=1&query=Galaxy%20Tours%20%26%20Travels&query_place_id=ChIJ2fuvVl1wrzsRx7Aq5Z8UG3k"
  },
  {
    "title": "GoDrive Self Car Rental",
    "categoryName": "Car rental agency",
    "address": "198, 1st Main Rd, next to knowledge tree preschool, Subhash Nagar, R.S.Naidu Nagar, Mysuru, Karnataka 570007, India",
    "neighborhood": "Subhash Nagar, R.S.Naidu Nagar",
    "street": "198, 1st Main Rd, next to knowledge tree preschool",
    "city": "Mysuru",
    "postalCode": "570007",
    "state": "Karnataka",
    "countryCode": "IN",
    "phone": "+919108424849",
    "phoneUnformatted": "+919108424849",
    "location": {
      "lat": 12.3361482,
      "lng": 76.658192
    },
    "totalScore": 4.8,
    "permanentlyClosed": false,
    "temporarilyClosed": false,
    "placeId": "ChIJN6Y3RfJxrzsR2XTvhuLBoyo",
    "categories": [
      "Car rental agency"
    ],
    "reviewsCount": 78,
    "imagesCount": 34,
    "openingHours": [
      {
        "day": "Monday",
        "hours": "Open 24 hours"
      },
      {
        "day": "Tuesday",
        "hours": "Open 24 hours"
      },
      {
        "day": "Wednesday",
        "hours": "Open 24 hours"
      },
      {
        "day": "Thursday",
        "hours": "Open 24 hours"
      },
      {
        "day": "Friday",
        "hours": "Open 24 hours"
      },
      {
        "day": "Saturday",
        "hours": "Open 24 hours"
      },
      {
        "day": "Sunday",
        "hours": "Open 24 hours"
      }
    ],
    "imageUrl": "https://lh3.googleusercontent.com/p/AF1QipNAnm2YR67524lOlWodu_Xs2Qq6iHdCMLEheIa9=w408-h725-k-no",
    "url": "https://www.google.com/maps/search/?api=1&query=GoDrive%20Self%20Car%20Rental&query_place_id=ChIJN6Y3RfJxrzsR2XTvhuLBoyo"
  },
  {
    "title": "Jain Autocars",
    "categoryName": "Used car dealer",
    "address": "480, Chithrabhanu Rd, Kuvempu Nagara, Mysuru, Karnataka 570023, India",
    "neighborhood": "Kuvempu Nagara",
    "street": "480, Chithrabhanu Rd",
    "city": "Mysuru",
    "postalCode": "570023",
    "state": "Karnataka",
    "countryCode": "IN",
    "website": "https://jainautocars.in/",
    "phone": "+919986619282",
    "phoneUnformatted": "+919986619282",
    "location": {
      "lat": 12.2877897,
      "lng": 76.6246513
    },
    "totalScore": 4.9,
    "permanentlyClosed": false,
    "temporarilyClosed": false,
    "placeId": "ChIJfXf3Y81lrzsRcMp1fB6SlEM",
    "categories": [
      "Used car dealer",
      "Car dealer"
    ],
    "reviewsCount": 114,
    "imagesCount": 86,
    "openingHours": [
      {
        "day": "Monday",
        "hours": "10 AM to 7 PM"
      },
      {
        "day": "Tuesday",
        "hours": "10 AM to 7 PM"
      },
      {
        "day": "Wednesday",
        "hours": "10 AM to 7 PM"
      },
      {
        "day": "Thursday",
        "hours": "10 AM to 7 PM"
      },
      {
        "day": "Friday",
        "hours": "10 AM to 7 PM"
      },
      {
        "day": "Saturday",
        "hours": "10 AM to 7 PM"
      },
      {
        "day": "Sunday",
        "hours": "10 AM to 1 PM"
      }
    ],
    "imageUrl": "https://lh3.googleusercontent.com/p/AF1QipMwc0TPh9x7E8mOaJ5aASutKF7fqj7KQu7lPIL-=w408-h544-k-no",
    "url": "https://www.google.com/maps/search/?api=1&query=Jain%20Autocars&query_place_id=ChIJfXf3Y81lrzsRcMp1fB6SlEM"
  },
  {
    "title": "Karthik Cars",
    "subTitle": "ಕಾರ್ತಿಕ್ ಕಾರುಗಳು",
    "categoryName": "Used car dealer",
    "address": "MIG 1, 17th Main Road, New Kantharaj Urs Rd, near Vijaya Bank, Kuvempu Nagara, Mysuru, Karnataka 570023, India",
    "neighborhood": "Kuvempu Nagara",
    "street": "MIG 1, 17th Main Road, New Kantharaj Urs Rd, near Vijaya Bank",
    "city": "Mysuru",
    "postalCode": "570023",
    "state": "Karnataka",
    "countryCode": "IN",
    "website": "https://karthikcars.com/",
    "phone": "+919845644882",
    "phoneUnformatted": "+919845644882",
    "location": {
      "lat": 12.2960696,
      "lng": 76.6269068
    },
    "totalScore": 4.7,
    "permanentlyClosed": false,
    "temporarilyClosed": false,
    "placeId": "ChIJH2OMgrF6rzsRK-ffyCBC0cc",
    "categories": [
      "Used car dealer",
      "Auto broker"
    ],
    "reviewsCount": 119,
    "imagesCount": 38,
    "openingHours": [],
    "imageUrl": "https://lh3.googleusercontent.com/p/AF1QipOSfYNWDLv-IfRAGy-WdAMiUfhrJqnBXmLfZ3bA=w408-h306-k-no",
    "url": "https://www.google.com/maps/search/?api=1&query=Karthik%20Cars&query_place_id=ChIJH2OMgrF6rzsRK-ffyCBC0cc"
  },
  {
    "title": "Metro Marvels",
    "categoryName": "Used car dealer",
    "address": "10, Vishwamanava Double Road, Kuvempunagara North, Saraswathipuram, Mysuru, Karnataka 570009, India",
    "neighborhood": "Kuvempunagara North, Saraswathipuram",
    "street": "10, Vishwamanava Double Road",
    "city": "Mysuru",
    "postalCode": "570009",
    "state": "Karnataka",
    "countryCode": "IN",
    "website": "https://metromarvels.com/",
    "phone": "+917760913336",
    "phoneUnformatted": "+917760913336",
    "location": {
      "lat": 12.3010424,
      "lng": 76.6261103
    },
    "totalScore": 4.3,
    "permanentlyClosed": false,
    "temporarilyClosed": false,
    "placeId": "ChIJQ7n4WOV7rzsR2z0LVqZQtvg",
    "categories": [
      "Used car dealer"
    ],
    "reviewsCount": 36,
    "imagesCount": 257,
    "openingHours": [
      {
        "day": "Monday",
        "hours": "10:30 AM to 7 PM"
      },
      {
        "day": "Tuesday",
        "hours": "10:30 AM to 7 PM"
      },
      {
        "day": "Wednesday",
        "hours": "10:30 AM to 7 PM"
      },
      {
        "day": "Thursday",
        "hours": "10:30 AM to 7 PM"
      },
      {
        "day": "Friday",
        "hours": "10:30 AM to 7 PM"
      },
      {
        "day": "Saturday",
        "hours": "10:30 AM to 7 PM"
      },
      {
        "day": "Sunday",
        "hours": "Closed"
      }
    ],
    "imageUrl": "https://lh3.googleusercontent.com/gps-cs-s/AG0ilSwt-f0XafbgDjH-1DRlzpwzV3Nfi48oqvEVqE6tZAu3DDc6ljayYVw3Lxy9wZFYR-G-qnU0TdICh5sPLsy1a5dNrSWoBx4jT4CtZ57yg--XSxglrmcR8c0UoYWYAsHHVVlTp9sj=w521-h240-k-no",
    "url": "https://www.google.com/maps/search/?api=1&query=Metro%20Marvels&query_place_id=ChIJQ7n4WOV7rzsR2z0LVqZQtvg"
  },
  {
    "title": "My Cars Gallery",
    "categoryName": "Used car dealer",
    "address": "003, Ring Rd, near NH Hospital, 2nd Stage, R.S.Naidu Nagar, Mysuru, Karnataka 570019, India",
    "neighborhood": "2nd Stage, R.S.Naidu Nagar",
    "street": "003, Ring Rd, near NH Hospital",
    "city": "Mysuru",
    "postalCode": "570019",
    "state": "Karnataka",
    "countryCode": "IN",
    "phone": "+918105788630",
    "phoneUnformatted": "+918105788630",
    "location": {
      "lat": 12.347884,
      "lng": 76.6695184
    },
    "totalScore": 4.8,
    "permanentlyClosed": false,
    "temporarilyClosed": false,
    "placeId": "ChIJa4iUrxpxrzsRoFe8iN-r4uM",
    "categories": [
      "Used car dealer"
    ],
    "reviewsCount": 18,
    "imagesCount": 28,
    "openingHours": [
      {
        "day": "Monday",
        "hours": "10 AM to 9 PM"
      },
      {
        "day": "Tuesday",
        "hours": "10 AM to 9 PM"
      },
      {
        "day": "Wednesday",
        "hours": "10 AM to 9 PM"
      },
      {
        "day": "Thursday",
        "hours": "10 AM to 9 PM"
      },
      {
        "day": "Friday",
        "hours": "10 AM to 9 PM"
      },
      {
        "day": "Saturday",
        "hours": "10 AM to 9 PM"
      },
      {
        "day": "Sunday",
        "hours": "10 AM to 2 PM"
      }
    ],
    "imageUrl": "https://lh3.googleusercontent.com/p/AF1QipPxzn9ttXZc7t0KSgHAzL5dA0Et-2m5mxFA-_4I=w408-h306-k-no",
    "url": "https://www.google.com/maps/search/?api=1&query=My%20Cars%20Gallery&query_place_id=ChIJa4iUrxpxrzsRoFe8iN-r4uM"
  },
  {
    "title": "Mysore City Travels",
    "subTitle": "ಮೈಸೂರು ಸಿಟಿ ಟ್ರಾವೆಲ್ಸ್",
    "categoryName": "Car rental agency",
    "address": "Hotel Pai Vista, 35/A, Bangalore Nilagiri Road, Mysuru, Karnataka 570004, India",
    "neighborhood": "Agrahara, Chamrajpura",
    "street": "Hotel Pai Vista, 35/A, Bangalore Nilagiri Road",
    "city": "Mysuru",
    "postalCode": "570004",
    "state": "Karnataka",
    "countryCode": "IN",
    "website": "http://mysorecitytravels.com/",
    "phone": "+919845442770",
    "phoneUnformatted": "+919845442770",
    "location": {
      "lat": 12.3016882,
      "lng": 76.6536338
    },
    "totalScore": 4.4,
    "permanentlyClosed": false,
    "temporarilyClosed": false,
    "placeId": "ChIJwc00UCd41zsRe6X5zqKkQKc",
    "categories": [
      "Car rental agency",
      "Travel agency",
      "Tour agency",
      "Tour operator"
    ],
    "reviewsCount": 21,
    "imagesCount": 10,
    "openingHours": [
      {
        "day": "Monday",
        "hours": "Open 24 hours"
      },
      {
        "day": "Tuesday",
        "hours": "Open 24 hours"
      },
      {
        "day": "Wednesday",
        "hours": "Open 24 hours"
      },
      {
        "day": "Thursday",
        "hours": "Open 24 hours"
      },
      {
        "day": "Friday",
        "hours": "Open 24 hours"
      },
      {
        "day": "Saturday",
        "hours": "Open 24 hours"
      },
      {
        "day": "Sunday",
        "hours": "Open 24 hours"
      }
    ],
    "imageUrl": "https://lh3.googleusercontent.com/p/AF1QipOhzf05gflJgaUt2TfF_jx77tDeiXDRctX8-WAb=w768-h240-k-no",
    "url": "https://www.google.com/maps/search/?api=1&query=Mysore%20City%20Travels&query_place_id=ChIJwc00UCd41zsRe6X5zqKkQKc"
  },
  {
    "title": "Mysore Trip Zone",
    "categoryName": "Car rental agency",
    "address": "1148, near Nimrah Masjid, 1st stage, Rajiv Nagar, Mysuru, Karnataka 570019, India",
    "neighborhood": "2nd Stage, 1st stage, Rajiv Nagar",
    "street": "1148, near Nimrah Masjid",
    "city": "Mysuru",
    "postalCode": "570019",
    "state": "Karnataka",
    "countryCode": "IN",
    "website": "http://www.mysoretripzone.com/",
    "phone": "+919880456344",
    "phoneUnformatted": "+919880456344",
    "location": {
      "lat": 12.3339736,
      "lng": 76.6838688
    },
    "totalScore": 4.8,
    "permanentlyClosed": false,
    "temporarilyClosed": false,
    "placeId": "ChIJjYcXT_pxrzsRlVSJrd5KLsA",
    "categories": [
      "Car rental agency",
      "Car leasing service",
      "Travel agency",
      "Taxi service",
      "Tour operator"
    ],
    "reviewsCount": 197,
    "imagesCount": 330,
    "openingHours": [
      {
        "day": "Monday",
        "hours": "9 AM to 10 PM"
      },
      {
        "day": "Tuesday",
        "hours": "9 AM to 10 PM"
      },
      {
        "day": "Wednesday",
        "hours": "9 AM to 10 PM"
      },
      {
        "day": "Thursday",
        "hours": "9 AM to 10 PM"
      },
      {
        "day": "Friday",
        "hours": "9 AM to 10 PM"
      },
      {
        "day": "Saturday",
        "hours": "9 AM to 10 PM"
      },
      {
        "day": "Sunday",
        "hours": "9 AM to 2 PM"
      }
    ],
    "imageUrl": "https://lh3.googleusercontent.com/p/AF1QipO1k7WxPLEk8jQFgll_Y2uKnw8D4PApRr6qAr_3=w517-h240-k-no",
    "url": "https://www.google.com/maps/search/?api=1&query=Mysore%20Trip%20Zone&query_place_id=ChIJjYcXT_pxrzsRlVSJrd5KLsA"
  },
  {
    "title": "Mysore self drive car Rentals",
    "categoryName": "Car leasing service",
    "address": "Bus Depot, 46, 2nd Cross Rd, opp. K S R T C, Bannimantap, Mysuru, Karnataka 570015, India",
    "neighborhood": "Bannimantap",
    "street": "Bus Depot, 46, 2nd Cross Rd, opp. K S R T C",
    "city": "Mysuru",
    "postalCode": "570015",
    "state": "Karnataka",
    "countryCode": "IN",
    "website": "http://mysorecarrentals.in/",
    "phone": "+919036304872",
    "phoneUnformatted": "+919036304872",
    "location": {
      "lat": 12.3314397,
      "lng": 76.6498859
    },
    "totalScore": 4.9,
    "permanentlyClosed": false,
    "temporarilyClosed": false,
    "placeId": "ChIJkxAxZ_VxrzsRt26f4UBxN9c",
    "categories": [
      "Car leasing service"
    ],
    "reviewsCount": 216,
    "imagesCount": 115,
    "openingHours": [
      {
        "day": "Monday",
        "hours": "Open 24 hours"
      },
      {
        "day": "Tuesday",
        "hours": "Open 24 hours"
      },
      {
        "day": "Wednesday",
        "hours": "Open 24 hours"
      },
      {
        "day": "Thursday",
        "hours": "Open 24 hours"
      },
      {
        "day": "Friday",
        "hours": "Open 24 hours"
      },
      {
        "day": "Saturday",
        "hours": "Open 24 hours"
      },
      {
        "day": "Sunday",
        "hours": "Open 24 hours"
      }
    ],
    "imageUrl": "https://lh3.googleusercontent.com/p/AF1QipOuhTw7r_5g1hTwDxkDarlJVx3q5K0s8ZfC7ahy=w408-h612-k-no",
    "url": "https://www.google.com/maps/search/?api=1&query=Mysore%20self%20drive%20car%20Rentals&query_place_id=ChIJkxAxZ_VxrzsRt26f4UBxN9c"
  },
  {
    "title": "MysoreCars - Used Cars in Mysore | Second hand Cars | #1 Used Car Dealer",
    "categoryName": "Car dealer",
    "address": "1555/3, Syed Abdul Rahman Rd, opp. Shabnam Function Hall, 2nd Stage, Rajiv Nagar, Mysuru, Karnataka 570019, India",
    "neighborhood": "2nd Stage, Rajiv Nagar",
    "street": "1555/3, Syed Abdul Rahman Rd, opp. Shabnam Function Hall",
    "city": "Mysuru",
    "postalCode": "570019",
    "state": "Karnataka",
    "countryCode": "IN",
    "phone": "+917411891339",
    "phoneUnformatted": "+917411891339",
    "location": {
      "lat": 12.3380771,
      "lng": 76.6748036
    },
    "totalScore": 4.8,
    "permanentlyClosed": false,
    "temporarilyClosed": false,
    "placeId": "ChIJq4Om1spxrzsRkzqxX1lJ8GU",
    "categories": [
      "Car dealer"
    ],
    "reviewsCount": 46,
    "imagesCount": 13,
    "openingHours": [
      {
        "day": "Monday",
        "hours": "Open 24 hours"
      },
      {
        "day": "Tuesday",
        "hours": "Open 24 hours"
      },
      {
        "day": "Wednesday",
        "hours": "Open 24 hours"
      },
      {
        "day": "Thursday",
        "hours": "Open 24 hours"
      },
      {
        "day": "Friday",
        "hours": "Open 24 hours"
      },
      {
        "day": "Saturday",
        "hours": "Open 24 hours"
      },
      {
        "day": "Sunday",
        "hours": "Open 24 hours"
      }
    ],
    "imageUrl": "https://lh3.googleusercontent.com/p/AF1QipMCOCzezQgTA5xadFiDNz2yw_8tR49_ecX8roac=w426-h240-k-no",
    "url": "https://www.google.com/maps/search/?api=1&query=MysoreCars%20-%20Used%20Cars%20in%20Mysore%20%7C%20Second%20hand%20Cars%20%7C%20%231%20Used%20Car%20Dealer&query_place_id=ChIJq4Om1spxrzsRkzqxX1lJ8GU"
  },
  {
    "title": "PALACE TOYOTA - MYSORE CITY",
    "categoryName": "Car dealer",
    "address": "Ground Floor, No. 1216, New Kantharaj Urs Rd, Krishnamurthy Puram, Mysuru, Karnataka 570014, India",
    "neighborhood": "Krishnamurthy Puram",
    "street": "Ground Floor, No. 1216, New Kantharaj Urs Rd",
    "city": "Mysuru",
    "postalCode": "570014",
    "state": "Karnataka",
    "countryCode": "IN",
    "website": "https://www.palacetoyota.com/",
    "phone": "+918214248222",
    "phoneUnformatted": "+918214248222",
    "location": {
      "lat": 12.2951762,
      "lng": 76.6409452
    },
    "totalScore": 3.6,
    "permanentlyClosed": false,
    "temporarilyClosed": false,
    "placeId": "ChIJ93UroABwrzsRugVaaL-3acc",
    "categories": [
      "Car dealer"
    ],
    "reviewsCount": 48,
    "imagesCount": 14,
    "openingHours": [
      {
        "day": "Monday",
        "hours": "9:30 AM to 6:30 PM"
      },
      {
        "day": "Tuesday",
        "hours": "9:30 AM to 6:30 PM"
      },
      {
        "day": "Wednesday",
        "hours": "9:30 AM to 12 AM"
      },
      {
        "day": "Thursday",
        "hours": "12 to 6:30 AM, 9:30 AM to 6:30 PM"
      },
      {
        "day": "Friday",
        "hours": "9:30 AM to 6:30 PM"
      },
      {
        "day": "Saturday",
        "hours": "9:30 AM to 6:30 PM"
      },
      {
        "day": "Sunday",
        "hours": "9:30 AM to 6:30 PM"
      }
    ],
    "imageUrl": "https://lh3.googleusercontent.com/gps-cs-s/AG0ilSyX-ssllYWLcbibA7Kr-xZHqKf_20M-Oxq9U9YHykzqG60t3I2C9Z85pnmcpLfNgGDixQNG_6lDbCZGNgVx3JFXdEEOTwWlJXM1Vx0eM5BtD9PP7vnOPEcCTlc7sV9C9xY2RGU=w408-h544-k-no",
    "url": "https://www.google.com/maps/search/?api=1&query=PALACE%20TOYOTA%20-%20MYSORE%20CITY&query_place_id=ChIJ93UroABwrzsRugVaaL-3acc"
  },
  {
    "title": "Palace Škoda Showroom",
    "categoryName": "Skoda dealer",
    "address": "559, New Kantharaj Urs Rd, Kuvempunagara North, Saraswathipuram, TK Layout, Mysuru, Karnataka 570023, India",
    "neighborhood": "Kuvempunagara North, Saraswathipuram, TK Layout",
    "street": "559, New Kantharaj Urs Rd",
    "city": "Mysuru",
    "postalCode": "570023",
    "state": "Karnataka",
    "countryCode": "IN",
    "website": "https://dealers.skoda-auto.co.in/palace-skoda-showroom-shribalaji-autoagency-mysore-pvt-ltd-car-dealer-tk-layout-mysore-105670/Home",
    "phone": "+919742208080",
    "phoneUnformatted": "+919742208080",
    "location": {
      "lat": 12.2959065,
      "lng": 76.6233294
    },
    "totalScore": 4.5,
    "permanentlyClosed": false,
    "temporarilyClosed": false,
    "placeId": "ChIJfUL8UT17rzsRbdsMiK1eFd0",
    "categories": [
      "Skoda dealer",
      "Car dealer"
    ],
    "reviewsCount": 316,
    "imagesCount": 44,
    "openingHours": [
      {
        "day": "Monday",
        "hours": "9 AM to 6 PM"
      },
      {
        "day": "Tuesday",
        "hours": "9 AM to 6 PM"
      },
      {
        "day": "Wednesday",
        "hours": "9 AM to 6 PM"
      },
      {
        "day": "Thursday",
        "hours": "9 AM to 6 PM"
      },
      {
        "day": "Friday",
        "hours": "9 AM to 6 PM"
      },
      {
        "day": "Saturday",
        "hours": "9 AM to 6 PM"
      },
      {
        "day": "Sunday",
        "hours": "9 AM to 6 PM"
      }
    ],
    "imageUrl": "https://lh3.googleusercontent.com/p/AF1QipPbWjo6XVA57Uc8qxqJBZpVfvQJ1wck-y6Rt593=w408-h271-k-no",
    "url": "https://www.google.com/maps/search/?api=1&query=Palace%20%C5%A0koda%20Showroom&query_place_id=ChIJfUL8UT17rzsRbdsMiK1eFd0"
  },
  {
    "title": "RC Exotic Rides [ Mysore's Prestigious Luxury Car Hire Services] Premium & Economy Car Rental Service in Mysore",
    "categoryName": "Car rental agency",
    "address": "13, behind ESI Hospital, Subhash Nagar, Mysuru, Karnataka 570007, India",
    "neighborhood": "Subhash Nagar, Rajendra Nagar",
    "street": "13, behind ESI Hospital",
    "city": "Mysuru",
    "postalCode": "570007",
    "state": "Karnataka",
    "countryCode": "IN",
    "location": {
      "lat": 12.3317919,
      "lng": 76.6588186
    },
    "permanentlyClosed": false,
    "temporarilyClosed": false,
    "placeId": "ChIJCxrrHOVxrzsR2myoee0oAjY",
    "categories": [
      "Car rental agency"
    ],
    "imagesCount": 1,
    "openingHours": [
      {
        "day": "Monday",
        "hours": "Open 24 hours"
      },
      {
        "day": "Tuesday",
        "hours": "Open 24 hours"
      },
      {
        "day": "Wednesday",
        "hours": "Open 24 hours"
      },
      {
        "day": "Thursday",
        "hours": "Open 24 hours"
      },
      {
        "day": "Friday",
        "hours": "Open 24 hours"
      },
      {
        "day": "Saturday",
        "hours": "Open 24 hours"
      },
      {
        "day": "Sunday",
        "hours": "Open 24 hours"
      }
    ],
    "imageUrl": "https://streetviewpixels-pa.googleapis.com/v1/thumbnail?panoid=JhUXso3gRjTjhwCJFxZ4pA&cb_client=search.gws-prod.gps&w=408&h=240&yaw=154.46535&pitch=0&thumbfov=100",
    "url": "https://www.google.com/maps/search/?api=1&query=RC%20Exotic%20Rides%20%5B%20Mysore's%20Prestigious%20Luxury%20Car%20Hire%20Services%5D%20Premium%20%26%20Economy%20Car%20Rental%20Service%20in%20Mysore&query_place_id=ChIJCxrrHOVxrzsR2myoee0oAjY"
  },
  {
    "title": "ROYAL CLASSIC SELF DRIVES CARS 24/7",
    "categoryName": "Car rental agency",
    "address": "749, near MMA HOSPITAL, 2nd Stage, RAJINAGAR, Mysuru, Karnataka 570015, India",
    "neighborhood": "Jayalakshmipuram, 2nd Stage, RAJINAGAR, Bannimantap",
    "street": "749, near MMA HOSPITAL",
    "city": "Mysuru",
    "postalCode": "570015",
    "state": "Karnataka",
    "countryCode": "IN",
    "phone": "+919686077827",
    "phoneUnformatted": "+919686077827",
    "location": {
      "lat": 12.3414333,
      "lng": 76.6534887
    },
    "totalScore": 3.8,
    "permanentlyClosed": false,
    "temporarilyClosed": false,
    "placeId": "ChIJuWxfFThxrzsR3LzTw4sJYAE",
    "categories": [
      "Car rental agency"
    ],
    "reviewsCount": 125,
    "imagesCount": 26,
    "openingHours": [
      {
        "day": "Monday",
        "hours": "Open 24 hours"
      },
      {
        "day": "Tuesday",
        "hours": "Open 24 hours"
      },
      {
        "day": "Wednesday",
        "hours": "Open 24 hours"
      },
      {
        "day": "Thursday",
        "hours": "Open 24 hours"
      },
      {
        "day": "Friday",
        "hours": "Open 24 hours"
      },
      {
        "day": "Saturday",
        "hours": "Open 24 hours"
      },
      {
        "day": "Sunday",
        "hours": "Open 24 hours"
      }
    ],
    "imageUrl": "https://lh3.googleusercontent.com/p/AF1QipMy1sFx2lrwibQ9GSrZU4scE1SGK6W_x0Xazj0C=w408-h544-k-no",
    "url": "https://www.google.com/maps/search/?api=1&query=ROYAL%20CLASSIC%20SELF%20DRIVES%20CARS%2024%2F7&query_place_id=ChIJuWxfFThxrzsR3LzTw4sJYAE"
  },
  {
    "title": "RS CAR DECOR",
    "categoryName": "Car stereo store",
    "address": "388: 18th cross, opposite Iskcon Temple, Jayanagar, Mysuru, Karnataka 570034, India",
    "neighborhood": "Jayanagar, Kuvempu Nagara",
    "street": "388: 18th cross, opposite Iskcon Temple",
    "city": "Mysuru",
    "postalCode": "570034",
    "state": "Karnataka",
    "countryCode": "IN",
    "website": "http://www.rscardecor.com/",
    "phone": "+918880670007",
    "phoneUnformatted": "+918880670007",
    "location": {
      "lat": 12.2859351,
      "lng": 76.6341081
    },
    "totalScore": 4.8,
    "permanentlyClosed": false,
    "temporarilyClosed": false,
    "placeId": "ChIJtdx3Zb9lrzsRFv8D_Ac5Yrk",
    "categories": [
      "Car stereo store",
      "Car security system installer"
    ],
    "reviewsCount": 120,
    "imagesCount": 545,
    "openingHours": [
      {
        "day": "Monday",
        "hours": "10:30 AM to 8 PM"
      },
      {
        "day": "Tuesday",
        "hours": "10:30 AM to 8 PM"
      },
      {
        "day": "Wednesday",
        "hours": "10:30 AM to 8 PM"
      },
      {
        "day": "Thursday",
        "hours": "10:30 AM to 8 PM"
      },
      {
        "day": "Friday",
        "hours": "10:30 AM to 8 PM"
      },
      {
        "day": "Saturday",
        "hours": "10:30 AM to 8 PM"
      },
      {
        "day": "Sunday",
        "hours": "10:30 AM to 3 PM"
      }
    ],
    "imageUrl": "https://lh3.googleusercontent.com/p/AF1QipNu-On01nxi0v7J1c5qasFjVDY6YPWZ5xh0-0en=w408-h544-k-no",
    "url": "https://www.google.com/maps/search/?api=1&query=RS%20CAR%20DECOR&query_place_id=ChIJtdx3Zb9lrzsRFv8D_Ac5Yrk"
  },
  {
    "title": "Raj Car's Mysore",
    "categoryName": "Used car dealer",
    "address": "1614, Adichunchanagiri Road, P and T Block, Jayanagar, Kuvempu Nagara, Mysuru, Karnataka 570023, India",
    "neighborhood": "P and T Block, Jayanagar, Kuvempu Nagara",
    "street": "1614, Adichunchanagiri Road",
    "city": "Mysuru",
    "postalCode": "570023",
    "state": "Karnataka",
    "countryCode": "IN",
    "phone": "+919342001989",
    "phoneUnformatted": "+919342001989",
    "location": {
      "lat": 12.2932361,
      "lng": 76.6314049
    },
    "totalScore": 4.2,
    "permanentlyClosed": false,
    "temporarilyClosed": false,
    "placeId": "ChIJExmcQzl7rzsRxOHID1kkrlU",
    "categories": [
      "Used car dealer",
      "Auto broker"
    ],
    "reviewsCount": 63,
    "imagesCount": 22,
    "openingHours": [
      {
        "day": "Monday",
        "hours": "10 AM to 8 PM"
      },
      {
        "day": "Tuesday",
        "hours": "10 AM to 8 PM"
      },
      {
        "day": "Wednesday",
        "hours": "10 AM to 8 PM"
      },
      {
        "day": "Thursday",
        "hours": "10 AM to 8 PM"
      },
      {
        "day": "Friday",
        "hours": "10 AM to 8 PM"
      },
      {
        "day": "Saturday",
        "hours": "10 AM to 8 PM"
      },
      {
        "day": "Sunday",
        "hours": "10 AM to 2 PM"
      }
    ],
    "imageUrl": "https://lh3.googleusercontent.com/gps-cs-s/AG0ilSyI1CCVbvSjGtGXnclf8R2xGAjQTKWZTWuWkMLICgXbyzSsZfGCU4p560puvUPs27bms4UAcG5FXCjBcM1ADM8b3ZrmLUBc6pXBe01ruGIvN56Gf2Xf7sqsVTR3ssuiWwfztt5g=w520-h240-k-no",
    "url": "https://www.google.com/maps/search/?api=1&query=Raj%20Car's%20Mysore&query_place_id=ChIJExmcQzl7rzsRxOHID1kkrlU"
  },
  {
    "title": "Revv Self Drive Car Rental",
    "subTitle": "ರೇವ್ ಸೆಲ್ಪ್ ಡ್ರೈವ್ ಕಾರ್ ರೆಂಟಲ್",
    "categoryName": "Car rental agency",
    "address": "Helipad road, opposite to Karun Trust, KC Layout, Mysuru, Karnataka 570028, India",
    "neighborhood": "KC Layout",
    "street": "Helipad road, opposite to Karun Trust",
    "city": "Mysuru",
    "postalCode": "570028",
    "state": "Karnataka",
    "countryCode": "IN",
    "website": "http://www.revv.co.in/",
    "phone": "+917428370014",
    "phoneUnformatted": "+917428370014",
    "location": {
      "lat": 12.3001621,
      "lng": 76.6867508
    },
    "totalScore": 4,
    "permanentlyClosed": false,
    "temporarilyClosed": false,
    "placeId": "ChIJdZ3H5hVwrzsRpMMMXRbm2nw",
    "categories": [
      "Car rental agency",
      "Car leasing service"
    ],
    "reviewsCount": 199,
    "imagesCount": 95,
    "openingHours": [],
    "imageUrl": "https://lh3.googleusercontent.com/gps-cs-s/AG0ilSzMyRr6XjQd1_yEFcwnVUoZdh30qNNWfbPlvkk_n1x-YIsFBsuvia57Ym-QIce4ewHIIWWFp7ma641zbwT2gbOC9LtavU_0aSUpBnBpigHr2rX9I5y5AyRCh_PF-mjS0obncmEpSw=w408-h544-k-no",
    "url": "https://www.google.com/maps/search/?api=1&query=Revv%20Self%20Drive%20Car%20Rental&query_place_id=ChIJdZ3H5hVwrzsRpMMMXRbm2nw"
  },
  {
    "title": "Royal Cars Sales and Service Mysore",
    "categoryName": "Used car dealer",
    "address": "M -8 /A Ummer Khayam Road , Eidgah Ground, Tilak Nagar, Mysuru, Karnataka 570001, India",
    "neighborhood": "Tilak Nagar",
    "street": "M -8 /A Ummer Khayam Road , Eidgah Ground",
    "city": "Mysuru",
    "postalCode": "570001",
    "state": "Karnataka",
    "countryCode": "IN",
    "phone": "+919880878235",
    "phoneUnformatted": "+919880878235",
    "location": {
      "lat": 12.3274595,
      "lng": 76.6445706
    },
    "totalScore": 4.8,
    "permanentlyClosed": false,
    "temporarilyClosed": false,
    "placeId": "ChIJCaDyx7dxrzsRz3CaOiDhonE",
    "categories": [
      "Used car dealer",
      "Auto broker",
      "Auto repair shop"
    ],
    "reviewsCount": 155,
    "imagesCount": 67,
    "openingHours": [
      {
        "day": "Monday",
        "hours": "9:30 AM to 8:30 PM"
      },
      {
        "day": "Tuesday",
        "hours": "9:30 AM to 8:30 PM"
      },
      {
        "day": "Wednesday",
        "hours": "9:30 AM to 8:30 PM"
      },
      {
        "day": "Thursday",
        "hours": "9:30 AM to 8:30 PM"
      },
      {
        "day": "Friday",
        "hours": "9:30 AM to 8:30 PM"
      },
      {
        "day": "Saturday",
        "hours": "9:30 AM to 8:30 PM"
      },
      {
        "day": "Sunday",
        "hours": "10 AM to 2 PM"
      }
    ],
    "imageUrl": "https://lh3.googleusercontent.com/p/AF1QipNqydaAmUaEdikbc9LQizT3gzNhYM_fkIt19bxl=w408-h306-k-no",
    "url": "https://www.google.com/maps/search/?api=1&query=Royal%20Cars%20Sales%20and%20Service%20Mysore&query_place_id=ChIJCaDyx7dxrzsRz3CaOiDhonE"
  },
  {
    "title": "SARA CABS",
    "categoryName": "Car rental agency",
    "address": "No 569, Giridarshini Layout 1st floor, T Narasipura Main Rd, Alanahalli, Mysuru, Karnataka 570028, India",
    "neighborhood": "Alanahalli, Giridarshini Layout",
    "street": "No 569, Giridarshini Layout 1st floor, T Narasipura Main Rd",
    "city": "Mysuru",
    "postalCode": "570028",
    "state": "Karnataka",
    "countryCode": "IN",
    "website": "https://sara.cab/",
    "phone": "+919900747576",
    "phoneUnformatted": "+919900747576",
    "location": {
      "lat": 12.2979685,
      "lng": 76.6984652
    },
    "totalScore": 4.8,
    "permanentlyClosed": false,
    "temporarilyClosed": false,
    "placeId": "ChIJdSUaA_MTrzsRcwS_pni4wzE",
    "categories": [
      "Car rental agency",
      "Car leasing service"
    ],
    "reviewsCount": 37,
    "imagesCount": 205,
    "openingHours": [
      {
        "day": "Monday",
        "hours": "Open 24 hours"
      },
      {
        "day": "Tuesday",
        "hours": "Open 24 hours"
      },
      {
        "day": "Wednesday",
        "hours": "Open 24 hours"
      },
      {
        "day": "Thursday",
        "hours": "Open 24 hours"
      },
      {
        "day": "Friday",
        "hours": "Open 24 hours"
      },
      {
        "day": "Saturday",
        "hours": "Open 24 hours"
      },
      {
        "day": "Sunday",
        "hours": "Open 24 hours"
      }
    ],
    "imageUrl": "https://lh3.googleusercontent.com/gps-cs-s/AG0ilSwLc0fK3hmykuPzA4_pDZYP8Uoy42dEuKmMI0IJsqIN9UACFJPxDudsMywzO-kz9SqOfSzTqJONsAnLFQ3NS5FHNL5vHE5za2knfnRVMGviwV3n4ip2d4K_WevOvxL0bqkO2IAvnQ=w408-h306-k-no",
    "url": "https://www.google.com/maps/search/?api=1&query=SARA%20CABS&query_place_id=ChIJdSUaA_MTrzsRcwS_pni4wzE"
  },
  {
    "title": "Self Drive cars Royal Tours &Travels Mysore",
    "categoryName": "Car rental agency",
    "address": "51 , 4th cross road, Siddiqui Nagar Main Road, B layout, Siddique Nagar, Bannimantap, Mysuru, Karnataka 570015, India",
    "neighborhood": "S S Nagar, B layout, Siddique Nagar, Bannimantap",
    "street": "51 , 4th cross road, Siddiqui Nagar Main Road",
    "city": "Mysuru",
    "postalCode": "570015",
    "state": "Karnataka",
    "countryCode": "IN",
    "phone": "+917676812497",
    "phoneUnformatted": "+917676812497",
    "location": {
      "lat": 12.348554,
      "lng": 76.6577329
    },
    "totalScore": 4.9,
    "permanentlyClosed": false,
    "temporarilyClosed": false,
    "placeId": "ChIJTf3zB1dxrzsRJszIAhAsZ2Y",
    "categories": [
      "Car rental agency",
      "Car leasing service"
    ],
    "reviewsCount": 9,
    "imagesCount": 26,
    "openingHours": [
      {
        "day": "Monday",
        "hours": "Open 24 hours"
      },
      {
        "day": "Tuesday",
        "hours": "Open 24 hours"
      },
      {
        "day": "Wednesday",
        "hours": "Open 24 hours"
      },
      {
        "day": "Thursday",
        "hours": "Open 24 hours"
      },
      {
        "day": "Friday",
        "hours": "Open 24 hours"
      },
      {
        "day": "Saturday",
        "hours": "Open 24 hours"
      },
      {
        "day": "Sunday",
        "hours": "Open 24 hours"
      }
    ],
    "imageUrl": "https://lh3.googleusercontent.com/p/AF1QipO-D1QMipfuvGrOwIp4u_XKHs71RZsjQWG28RSr=w408-h544-k-no",
    "url": "https://www.google.com/maps/search/?api=1&query=Self%20Drive%20cars%20Royal%20Tours%20%26Travels%20Mysore&query_place_id=ChIJTf3zB1dxrzsRJszIAhAsZ2Y"
  },
  {
    "title": "Silverline Automotive",
    "categoryName": "Used car dealer",
    "address": "best second hand car showroom in Mysore, 50, Highway Circle, New, Sayyaji Rao Rd, Mysuru, Karnataka 570001, India",
    "neighborhood": "Tilak Nagar",
    "street": "best second hand car showroom in Mysore, 50, Highway Circle, New, Sayyaji Rao Rd",
    "city": "Mysuru",
    "postalCode": "570001",
    "state": "Karnataka",
    "countryCode": "IN",
    "phone": "+919606677727",
    "phoneUnformatted": "+919606677727",
    "location": {
      "lat": 12.3303454,
      "lng": 76.6457778
    },
    "totalScore": 4.2,
    "permanentlyClosed": false,
    "temporarilyClosed": false,
    "placeId": "ChIJAfM6WXxwrzsRR00lOBOJfgw",
    "categories": [
      "Used car dealer",
      "Car dealer"
    ],
    "reviewsCount": 113,
    "imagesCount": 139,
    "openingHours": [
      {
        "day": "Monday",
        "hours": "10 AM to 9 PM"
      },
      {
        "day": "Tuesday",
        "hours": "10 AM to 9 PM"
      },
      {
        "day": "Wednesday",
        "hours": "10 AM to 9 PM"
      },
      {
        "day": "Thursday",
        "hours": "10 AM to 9 PM"
      },
      {
        "day": "Friday",
        "hours": "10 AM to 9 PM"
      },
      {
        "day": "Saturday",
        "hours": "10 AM to 9 PM"
      },
      {
        "day": "Sunday",
        "hours": "10 AM to 2:30 PM"
      }
    ],
    "imageUrl": "https://lh3.googleusercontent.com/p/AF1QipNHrbwsuukHlKLCZWOykvc_EBMxju0zNUbdTYQf=w408-h306-k-no",
    "url": "https://www.google.com/maps/search/?api=1&query=Silverline%20Automotive&query_place_id=ChIJAfM6WXxwrzsRR00lOBOJfgw"
  },
  {
    "title": "Sri ambari cabs mysuru",
    "subTitle": "ಶ್ರೀ ಅಂಬಾರಿ ಕ್ಯಾಬ್ಸ್ ಮೈಸೂರು",
    "categoryName": "Car rental agency",
    "address": "Near mysuru palac, Karnataka 570014, India",
    "neighborhood": "Jayanagar",
    "street": "Near mysuru palac",
    "city": "Mysuru",
    "postalCode": "570014",
    "state": "Karnataka",
    "countryCode": "IN",
    "phone": "+919900221146",
    "phoneUnformatted": "+919900221146",
    "location": {
      "lat": 12.2954101,
      "lng": 76.6393801
    },
    "totalScore": 4,
    "permanentlyClosed": false,
    "temporarilyClosed": false,
    "placeId": "ChIJtXyIgPN7rzsRYOUPr4wy-DA",
    "categories": [
      "Car rental agency",
      "Taxi service",
      "Travel agency"
    ],
    "reviewsCount": 1,
    "imagesCount": 27,
    "openingHours": [],
    "imageUrl": "https://lh3.googleusercontent.com/p/AF1QipNlmfXqCfJhBqhj70ZRqUtVyEgcJDnrqQZJ2nyf=w428-h240-k-no",
    "url": "https://www.google.com/maps/search/?api=1&query=Sri%20ambari%20cabs%20mysuru&query_place_id=ChIJtXyIgPN7rzsRYOUPr4wy-DA"
  },
  {
    "title": "Taxi Cabz Travels In Mysore. Mysore Cab. Tempo Traveler Rent.Bus Rent Mysore",
    "categoryName": "Car rental agency",
    "address": "DOOR NUMBER 21, 7TH MAIN, near Mysore One Office, Gokulam 3rd Stage, Gokulam, Mysuru, Karnataka 570002, India",
    "neighborhood": "Gokulam 3rd Stage, Gokulam",
    "street": "DOOR NUMBER 21, 7TH MAIN, near Mysore One Office",
    "city": "Mysuru",
    "postalCode": "570002",
    "state": "Karnataka",
    "countryCode": "IN",
    "website": "https://taxicabzmysore.com/index.html",
    "location": {
      "lat": 12.3342232,
      "lng": 76.6236287
    },
    "totalScore": 3,
    "permanentlyClosed": false,
    "temporarilyClosed": false,
    "placeId": "ChIJVwjEGgx7rzsRgnKMdby3a3I",
    "categories": [
      "Car rental agency",
      "Bus tour agency",
      "Minibus taxi service",
      "Sightseeing tour agency",
      "Taxi service",
      "Tour agency",
      "Tour operator",
      "Tourist attraction",
      "Travel agency",
      "Van rental agency"
    ],
    "reviewsCount": 2,
    "imagesCount": 111,
    "openingHours": [
      {
        "day": "Monday",
        "hours": "5 AM to 10 PM"
      },
      {
        "day": "Tuesday",
        "hours": "Open 24 hours"
      },
      {
        "day": "Wednesday",
        "hours": "Open 24 hours"
      },
      {
        "day": "Thursday",
        "hours": "Open 24 hours"
      },
      {
        "day": "Friday",
        "hours": "Open 24 hours"
      },
      {
        "day": "Saturday",
        "hours": "Open 24 hours"
      },
      {
        "day": "Sunday",
        "hours": "8:30 AM to 3 PM"
      }
    ],
    "imageUrl": "https://lh3.googleusercontent.com/p/AF1QipPyoWzc-8_7zhfrNmwdmhLlC-jD0ttOxBdZH5st=w408-h408-k-no",
    "url": "https://www.google.com/maps/search/?api=1&query=Taxi%20Cabz%20Travels%20In%20Mysore.%20Mysore%20Cab.%20Tempo%20Traveler%20Rent.Bus%20Rent%20Mysore&query_place_id=ChIJVwjEGgx7rzsRgnKMdby3a3I"
  },
  {
    "title": "The Best Cars",
    "categoryName": "Car dealer",
    "address": "Lakshmipuram, Mysuru, Karnataka 570004, India",
    "neighborhood": "Lakshmipuram",
    "city": "Mysuru",
    "state": "Karnataka",
    "countryCode": "IN",
    "location": {
      "lat": 12.298853,
      "lng": 76.6430044
    },
    "permanentlyClosed": false,
    "temporarilyClosed": false,
    "placeId": "ChIJ8QnqCwdwrzsRWVwwfNzlRx0",
    "categories": [
      "Car dealer"
    ],
    "imagesCount": 1,
    "openingHours": [],
    "imageUrl": "https://streetviewpixels-pa.googleapis.com/v1/thumbnail?panoid=9oL74Xl8qAmCb3kl4ZQl9A&cb_client=search.gws-prod.gps&w=408&h=240&yaw=173.8516&pitch=0&thumbfov=100",
    "url": "https://www.google.com/maps/search/?api=1&query=The%20Best%20Cars&query_place_id=ChIJ8QnqCwdwrzsRWVwwfNzlRx0"
  },
  {
    "title": "The Carz Galaxy",
    "categoryName": "Car dealer",
    "address": "38/3, 1st Main Rd, Gokulam 1st Stage, Gokulam, Mysuru, Karnataka 570002, India",
    "neighborhood": "Gokulam 1st Stage, Gokulam",
    "street": "38/3, 1st Main Rd",
    "city": "Mysuru",
    "postalCode": "570002",
    "state": "Karnataka",
    "countryCode": "IN",
    "phone": "+919538005351",
    "phoneUnformatted": "+919538005351",
    "location": {
      "lat": 12.329315,
      "lng": 76.6302291
    },
    "totalScore": 3.4,
    "permanentlyClosed": false,
    "temporarilyClosed": false,
    "placeId": "ChIJLweS_YV6rzsR1aL6lg9CMMM",
    "categories": [
      "Car dealer"
    ],
    "reviewsCount": 62,
    "imagesCount": 12,
    "openingHours": [
      {
        "day": "Monday",
        "hours": "8 AM to 8 PM"
      },
      {
        "day": "Tuesday",
        "hours": "8 AM to 8 PM"
      },
      {
        "day": "Wednesday",
        "hours": "8 AM to 8 PM"
      },
      {
        "day": "Thursday",
        "hours": "8 AM to 8 PM"
      },
      {
        "day": "Friday",
        "hours": "8 AM to 8 PM"
      },
      {
        "day": "Saturday",
        "hours": "8 AM to 8 PM"
      },
      {
        "day": "Sunday",
        "hours": "Closed"
      }
    ],
    "imageUrl": "https://lh3.googleusercontent.com/gps-cs-s/AG0ilSx30XgTWxZPP7qh3L1We0IBXSSgL1eYUtUZy_ov0EF2n00peiLmWG5gJOpc0_GKpWY1d2p0khH0L4Df_iL5Mf6Tjp3dZsvHyowiGui1mDBl9WIoxMSXiX6MfQhpF6rVPX-ZCKeL=w408-h345-k-no",
    "url": "https://www.google.com/maps/search/?api=1&query=The%20Carz%20Galaxy&query_place_id=ChIJLweS_YV6rzsR1aL6lg9CMMM"
  },
  {
    "title": "The Carz Galaxy Unit 2",
    "categoryName": "Used car dealer",
    "address": "$ 876 /7A, 876/7 ,New No CH -13, CH 13 / A, Vanivilasa Rd, Chamaraja Mohalla, Lakshmipuram, Mysuru, Karnataka 570004, India",
    "neighborhood": "Chamaraja Mohalla, Lakshmipuram",
    "street": "$ 876 /7A, 876/7 ,New No CH -13, CH 13 / A, Vanivilasa Rd",
    "city": "Mysuru",
    "postalCode": "570004",
    "state": "Karnataka",
    "countryCode": "IN",
    "phone": "+919538005351",
    "phoneUnformatted": "+919538005351",
    "location": {
      "lat": 12.2987796,
      "lng": 76.6432911
    },
    "totalScore": 4.7,
    "permanentlyClosed": false,
    "temporarilyClosed": false,
    "placeId": "ChIJfYXVM0ZxrzsRjItDUKzsm40",
    "categories": [
      "Used car dealer",
      "Auto broker"
    ],
    "reviewsCount": 270,
    "imagesCount": 297,
    "openingHours": [
      {
        "day": "Monday",
        "hours": "9 AM to 9 PM"
      },
      {
        "day": "Tuesday",
        "hours": "9 AM to 9 PM"
      },
      {
        "day": "Wednesday",
        "hours": "9 AM to 9 PM"
      },
      {
        "day": "Thursday",
        "hours": "9 AM to 9 PM"
      },
      {
        "day": "Friday",
        "hours": "9 AM to 9 PM"
      },
      {
        "day": "Saturday",
        "hours": "9 AM to 9 PM"
      },
      {
        "day": "Sunday",
        "hours": "10 AM to 5 PM"
      }
    ],
    "imageUrl": "https://lh3.googleusercontent.com/p/AF1QipNwyF6sfGKmv-HippWnTX5OSQm2aYRc5-IO8Q64=w408-h652-k-no",
    "url": "https://www.google.com/maps/search/?api=1&query=The%20Carz%20Galaxy%20Unit%202&query_place_id=ChIJfYXVM0ZxrzsRjItDUKzsm40"
  },
  {
    "title": "Travel Trendzz",
    "categoryName": "Car rental agency",
    "address": "Bangalore - Mysore Rd, opp. Loyal World, beside the Dawn Hotel, Jayalakshmipuram, Bannimantap A Layout, Bannimantap, Mysuru, Karnataka 570015, India",
    "neighborhood": "Jayalakshmipuram, Bannimantap A Layout, Bannimantap",
    "street": "Bangalore - Mysore Rd, opp. Loyal World, beside the Dawn Hotel",
    "city": "Mysuru",
    "postalCode": "570015",
    "state": "Karnataka",
    "countryCode": "IN",
    "website": "http://www.traveltrendzz.com/",
    "phone": "+919845580389",
    "phoneUnformatted": "+919845580389",
    "location": {
      "lat": 12.3417883,
      "lng": 76.6531525
    },
    "totalScore": 4.9,
    "permanentlyClosed": false,
    "temporarilyClosed": false,
    "placeId": "ChIJ163kTBNxrzsROudhv75nj5c",
    "categories": [
      "Car rental agency",
      "Bus tour agency",
      "Tour operator",
      "Pilgrimage place",
      "Sightseeing tour agency",
      "Taxi service",
      "Tour agency",
      "Travel agency"
    ],
    "reviewsCount": 667,
    "imagesCount": 364,
    "openingHours": [
      {
        "day": "Monday",
        "hours": "Open 24 hours"
      },
      {
        "day": "Tuesday",
        "hours": "Open 24 hours"
      },
      {
        "day": "Wednesday",
        "hours": "Open 24 hours"
      },
      {
        "day": "Thursday",
        "hours": "Open 24 hours"
      },
      {
        "day": "Friday",
        "hours": "Open 24 hours"
      },
      {
        "day": "Saturday",
        "hours": "Open 24 hours"
      },
      {
        "day": "Sunday",
        "hours": "Open 24 hours"
      }
    ],
    "imageUrl": "https://lh3.googleusercontent.com/gps-cs-s/AG0ilSwNhYqjtNt93WHAQhvbdxH9F8misTKu3QJFd8d-LcexiGVv4wW5w2Pfw4RAamBcy15P0DOwak7sTy3sMetSAFYjRAeFI3MlZrLwCcn7Q3VauvxHO3XzGjAVaEUSwlmV5eyEiLDk=w408-h306-k-no",
    "url": "https://www.google.com/maps/search/?api=1&query=Travel%20Trendzz&query_place_id=ChIJ163kTBNxrzsROudhv75nj5c"
  },
  {
    "title": "Travel view Taxi service in Mysore",
    "categoryName": "Car rental agency",
    "address": "Convent road, Lashkar Mohalla, Mandi Mohalla, Mysuru, Karnataka 570001, India",
    "neighborhood": "Lashkar Mohalla, Mandi Mohalla",
    "street": "Convent road",
    "city": "Mysuru",
    "postalCode": "570001",
    "state": "Karnataka",
    "countryCode": "IN",
    "website": "https://sites.google.com/view/travelviewmysore/home",
    "phone": "+917349666866",
    "phoneUnformatted": "+917349666866",
    "location": {
      "lat": 12.3194542,
      "lng": 76.6595846
    },
    "totalScore": 4.9,
    "permanentlyClosed": false,
    "temporarilyClosed": false,
    "placeId": "ChIJyYvX4LlxrzsRCXYFhGK1EXg",
    "categories": [
      "Car rental agency",
      "Car leasing service",
      "Taxi service",
      "Minibus taxi service",
      "Tour agency",
      "Tour operator",
      "Tourist attraction",
      "Tourist information center",
      "Transportation service",
      "Travel agency"
    ],
    "reviewsCount": 84,
    "imagesCount": 26,
    "openingHours": [],
    "imageUrl": "https://lh3.googleusercontent.com/p/AF1QipN9entAKbJwCRGpYt9iCgt4MTek31H3Xwja93Gy=w408-h408-k-no",
    "url": "https://www.google.com/maps/search/?api=1&query=Travel%20view%20Taxi%20service%20in%20Mysore&query_place_id=ChIJyYvX4LlxrzsRCXYFhGK1EXg"
  },
  {
    "title": "Travelsmart24 TOURS & TRAVELS",
    "categoryName": "Car rental agency",
    "address": "Shop # 3, 4th cross, Star Complex, Bannimantap Rd, in front of ICICI ATM, C Layout, Bannimantap, Mysuru, Karnataka 570015, India",
    "neighborhood": "C Layout, Bannimantap",
    "street": "Shop # 3, 4th cross, Star Complex, Bannimantap Rd, in front of ICICI ATM",
    "city": "Mysuru",
    "postalCode": "570015",
    "state": "Karnataka",
    "countryCode": "IN",
    "website": "http://www.travelsmart24.in/",
    "phone": "+919986833184",
    "phoneUnformatted": "+919986833184",
    "location": {
      "lat": 12.3378182,
      "lng": 76.6521878
    },
    "totalScore": 4.6,
    "permanentlyClosed": false,
    "temporarilyClosed": false,
    "placeId": "ChIJF5GP3YdwrzsRCGw-i5O8cvM",
    "categories": [
      "Car rental agency",
      "Travel agency"
    ],
    "reviewsCount": 20,
    "imagesCount": 7,
    "openingHours": [
      {
        "day": "Monday",
        "hours": "6:30 AM to 11:30 PM"
      },
      {
        "day": "Tuesday",
        "hours": "6:30 AM to 11:30 PM"
      },
      {
        "day": "Wednesday",
        "hours": "6:30 AM to 11:30 PM"
      },
      {
        "day": "Thursday",
        "hours": "6:30 AM to 11:30 PM"
      },
      {
        "day": "Friday",
        "hours": "6:30 AM to 11:30 PM"
      },
      {
        "day": "Saturday",
        "hours": "6:30 AM to 11:30 PM"
      },
      {
        "day": "Sunday",
        "hours": "6:30 AM to 11:30 PM"
      }
    ],
    "imageUrl": "https://lh3.googleusercontent.com/gps-cs-s/AG0ilSwrvZfUrhGNt1lLQkQ-xEYUnUyBgtbjL6SolJXWvGJACUq3pgwLYmlelM0jW69ogqVgH34llz4GJd7EJTnaTsCw0m9NOe9ib4ai81Yta0Fs4EkWNwKsGAhjtUkasR_RI7KQnxcv5HJX5-M5=w408-h268-k-no",
    "url": "https://www.google.com/maps/search/?api=1&query=Travelsmart24%20TOURS%20%26%20TRAVELS&query_place_id=ChIJF5GP3YdwrzsRCGw-i5O8cvM"
  },
  {
    "title": "Vintage tours and travels",
    "subTitle": "ವಿಂಟೇಜ್ ಟೂರ್ಸ್ ಮತ್ತು ಪ್ರವಾಸ",
    "categoryName": "Car rental agency",
    "address": "692, K15, 1st Cross, Thyagaraja Road, KR Mohalla, near Shri Saibaba Mandira, Mysuru, 570004, India",
    "neighborhood": "Agrahara, KR Mohalla",
    "street": "692, K15, 1st Cross, Thyagaraja Road, KR Mohalla, near Shri Saibaba Mandira",
    "city": "Mysuru",
    "postalCode": "570004",
    "state": "Karnataka",
    "countryCode": "IN",
    "phone": "+919972569669",
    "phoneUnformatted": "+919972569669",
    "location": {
      "lat": 12.3010424,
      "lng": 76.6517264
    },
    "totalScore": 4.3,
    "permanentlyClosed": false,
    "temporarilyClosed": false,
    "placeId": "ChIJC_C3QAVwrzsRfzggfxBDrRA",
    "categories": [
      "Car rental agency",
      "Airline ticket agency",
      "Bus ticket agency",
      "Tour agency",
      "Recreational vehicle rental agency",
      "Sightseeing tour agency",
      "Taxi service",
      "Tour operator",
      "Travel agency"
    ],
    "reviewsCount": 21,
    "imagesCount": 4,
    "openingHours": [
      {
        "day": "Monday",
        "hours": "7 AM to 10 PM"
      },
      {
        "day": "Tuesday",
        "hours": "7 AM to 10 PM"
      },
      {
        "day": "Wednesday",
        "hours": "7 AM to 10 PM"
      },
      {
        "day": "Thursday",
        "hours": "7 AM to 10 PM"
      },
      {
        "day": "Friday",
        "hours": "7 AM to 10 PM"
      },
      {
        "day": "Saturday",
        "hours": "7 AM to 10 PM"
      },
      {
        "day": "Sunday",
        "hours": "7 AM to 10 PM"
      }
    ],
    "imageUrl": "https://lh3.googleusercontent.com/p/AF1QipPfj9hjui-T2K0ko4I1xw980COurnh_-LZuEixC=w408-h306-k-no",
    "url": "https://www.google.com/maps/search/?api=1&query=Vintage%20tours%20and%20travels&query_place_id=ChIJC_C3QAVwrzsRfzggfxBDrRA"
  },
  {
    "title": "car planet mysore",
    "categoryName": "Used car dealer",
    "address": "464, Sarvodaya Road, Nimishamba Layout, Kuvempu Nagara, Mysuru, Karnataka 570023, India",
    "neighborhood": "Kuvempu Nagar 1st Stage, Kuvempu Nagara",
    "street": "464, Sarvodaya Road, Nimishamba Layout",
    "city": "Mysuru",
    "postalCode": "570023",
    "state": "Karnataka",
    "countryCode": "IN",
    "phone": "+919980665004",
    "phoneUnformatted": "+919980665004",
    "location": {
      "lat": 12.2848609,
      "lng": 76.6234407
    },
    "totalScore": 4.8,
    "permanentlyClosed": false,
    "temporarilyClosed": false,
    "placeId": "ChIJfdONuU9lrzsRL73gPV9EPgo",
    "categories": [
      "Used car dealer",
      "Auto broker"
    ],
    "reviewsCount": 86,
    "imagesCount": 31,
    "openingHours": [
      {
        "day": "Monday",
        "hours": "9:30 AM to 8 PM"
      },
      {
        "day": "Tuesday",
        "hours": "9:30 AM to 8 PM"
      },
      {
        "day": "Wednesday",
        "hours": "9:30 AM to 8 PM"
      },
      {
        "day": "Thursday",
        "hours": "9:30 AM to 8:30 PM"
      },
      {
        "day": "Friday",
        "hours": "9:30 AM to 8:30 PM"
      },
      {
        "day": "Saturday",
        "hours": "9:30 AM to 8:30 PM"
      },
      {
        "day": "Sunday",
        "hours": "9:30 AM to 2 PM"
      }
    ],
    "imageUrl": "https://lh3.googleusercontent.com/p/AF1QipOqjpamSV31b1doAup8RfF960FydV-rsT-SrxPd=w408-h306-k-no",
    "url": "https://www.google.com/maps/search/?api=1&query=car%20planet%20mysore&query_place_id=ChIJfdONuU9lrzsRL73gPV9EPgo"
  },
  {
    "title": "ctc cars - best used cars in mysore since 1992",
    "subTitle": "ಸಿಟಿಸಿ ಕಾರ್ಸ್",
    "categoryName": "Used car dealer",
    "address": "3629, 3rd Main Rd, Tilak Nagar, Mysuru, Karnataka 570001, India",
    "neighborhood": "Tilak Nagar",
    "street": "3629, 3rd Main Rd",
    "city": "Mysuru",
    "postalCode": "570001",
    "state": "Karnataka",
    "countryCode": "IN",
    "website": "http://ctccars.com/",
    "phone": "+919141113111",
    "phoneUnformatted": "+919141113111",
    "location": {
      "lat": 12.328751,
      "lng": 76.6451871
    },
    "totalScore": 4.9,
    "permanentlyClosed": false,
    "temporarilyClosed": false,
    "placeId": "ChIJN6DtuvhxrzsRlmo8vci8Ags",
    "categories": [
      "Used car dealer",
      "Auto broker"
    ],
    "reviewsCount": 513,
    "imagesCount": 3524,
    "openingHours": [
      {
        "day": "Monday",
        "hours": "9 AM to 9 PM"
      },
      {
        "day": "Tuesday",
        "hours": "9 AM to 9 PM"
      },
      {
        "day": "Wednesday",
        "hours": "9 AM to 9 PM"
      },
      {
        "day": "Thursday",
        "hours": "9 AM to 9 PM"
      },
      {
        "day": "Friday",
        "hours": "9 AM to 9 PM"
      },
      {
        "day": "Saturday",
        "hours": "9 AM to 9 PM"
      },
      {
        "day": "Sunday",
        "hours": "9 AM to 3 PM"
      }
    ],
    "imageUrl": "https://lh3.googleusercontent.com/p/AF1QipNV6NZ73yiRhk1-hwPZRCnUY9XRDyYp4eqAbm5M=w408-h529-k-no",
    "url": "https://www.google.com/maps/search/?api=1&query=ctc%20cars%20-%20best%20used%20cars%20in%20mysore%20since%201992&query_place_id=ChIJN6DtuvhxrzsRlmo8vci8Ags"
  }
]