[
  {
    "title": "Comfort Drive - Car Rental in Madurai | Self drive cars in Madurai | Car Rentals",
    "categoryName": "Car rental agency",
    "address": "10/358, 10/358, Airport Rd, meivazhi salai, Perungudi, Tamil Nadu 625022, India",
    "neighborhood": "meivazhi salai",
    "street": "10/358, 10/358, Airport Rd",
    "city": "Perungudi",
    "postalCode": "625022",
    "state": "Tamil Nadu",
    "countryCode": "IN",
    "website": "https://comfortdrive.in/",
    "phone": "+917449116111",
    "phoneUnformatted": "+917449116111",
    "location": {
      "lat": 9.8459086,
      "lng": 78.0944832
    },
    "totalScore": 4,
    "permanentlyClosed": false,
    "temporarilyClosed": false,
    "placeId": "ChIJbyQTPXzFADsRy9__NjBoAxQ",
    "categories": [
      "Car rental agency",
      "Car leasing service"
    ],
    "reviewsCount": 178,
    "imagesCount": 235,
    "openingHours": [
      {
        "day": "Monday",
        "hours": "Open 24 hours"
      },
      {
        "day": "Tuesday",
        "hours": "Open 24 hours"
      },
      {
        "day": "Wednesday",
        "hours": "Open 24 hours"
      },
      {
        "day": "Thursday",
        "hours": "Open 24 hours"
      },
      {
        "day": "Friday",
        "hours": "Open 24 hours"
      },
      {
        "day": "Saturday",
        "hours": "Open 24 hours"
      },
      {
        "day": "Sunday",
        "hours": "Open 24 hours"
      }
    ],
    "imageUrl": "https://lh3.googleusercontent.com/p/AF1QipN02vBv9xWs2u86EsMBjrd85rk1IWyK6F_W3Pv6=w408-h408-k-no",
    "url": "https://www.google.com/maps/search/?api=1&query=Comfort%20Drive%20-%20Car%20Rental%20in%20Madurai%20%7C%20Self%20drive%20cars%20in%20Madurai%20%7C%20Car%20Rentals&query_place_id=ChIJbyQTPXzFADsRy9__NjBoAxQ"
  },
  {
    "title": "Onroadz Car Rental Madurai",
    "categoryName": "Car rental agency",
    "address": "106/107, anbalagan nagar, near nila mineral water plan, Mandela Nagar, Perungudi, Tamil Nadu 625022, India",
    "neighborhood": "Mandela Nagar",
    "street": "106/107, anbalagan nagar, near nila mineral water plan",
    "city": "Perungudi",
    "postalCode": "625022",
    "state": "Tamil Nadu",
    "countryCode": "IN",
    "website": "https://onroadz.com/self-drive-cars-madurai/",
    "phone": "+919655214888",
    "phoneUnformatted": "+919655214888",
    "location": {
      "lat": 9.8450181,
      "lng": 78.0987057
    },
    "totalScore": 4.2,
    "permanentlyClosed": false,
    "temporarilyClosed": false,
    "placeId": "ChIJAbUBsd_FADsR5Qq9VgwJ0MI",
    "categories": [
      "Car rental agency",
      "Car leasing service",
      "Transportation service",
      "Travel agency"
    ],
    "reviewsCount": 1217,
    "imagesCount": 437,
    "openingHours": [
      {
        "day": "Monday",
        "hours": "Open 24 hours"
      },
      {
        "day": "Tuesday",
        "hours": "Open 24 hours"
      },
      {
        "day": "Wednesday",
        "hours": "Open 24 hours"
      },
      {
        "day": "Thursday",
        "hours": "Open 24 hours"
      },
      {
        "day": "Friday",
        "hours": "Open 24 hours"
      },
      {
        "day": "Saturday",
        "hours": "Open 24 hours"
      },
      {
        "day": "Sunday",
        "hours": "Open 24 hours"
      }
    ],
    "imageUrl": "https://lh3.googleusercontent.com/p/AF1QipOhE2WcCF9i3ut-sTzWAyf-ptBM1-OAkcZiERKZ=w425-h240-k-no",
    "url": "https://www.google.com/maps/search/?api=1&query=Onroadz%20Car%20Rental%20Madurai&query_place_id=ChIJAbUBsd_FADsR5Qq9VgwJ0MI"
  },
  {
    "title": "Royal Picks",
    "categoryName": "Car rental agency",
    "address": "106/107 Anbalaganagar, near Postal Training Centre, Mandela Nagar, Perungudi, Tamil Nadu 625022, India",
    "neighborhood": "Mandela Nagar",
    "street": "106/107 Anbalaganagar, near Postal Training Centre",
    "city": "Perungudi",
    "postalCode": "625022",
    "state": "Tamil Nadu",
    "countryCode": "IN",
    "website": "https://www.royalpicks.in/self-drive-car-rental-madurai/",
    "phone": "+919514145999",
    "phoneUnformatted": "+919514145999",
    "location": {
      "lat": 9.8444039,
      "lng": 78.1016239
    },
    "totalScore": 4.7,
    "permanentlyClosed": false,
    "temporarilyClosed": false,
    "placeId": "ChIJY3zrU3LPADsRUkfN3ZVljFA",
    "categories": [
      "Car rental agency",
      "Car leasing service"
    ],
    "reviewsCount": 109,
    "imagesCount": 194,
    "openingHours": [
      {
        "day": "Monday",
        "hours": "Open 24 hours"
      },
      {
        "day": "Tuesday",
        "hours": "Open 24 hours"
      },
      {
        "day": "Wednesday",
        "hours": "Open 24 hours"
      },
      {
        "day": "Thursday",
        "hours": "Open 24 hours"
      },
      {
        "day": "Friday",
        "hours": "Open 24 hours"
      },
      {
        "day": "Saturday",
        "hours": "Open 24 hours"
      },
      {
        "day": "Sunday",
        "hours": "Open 24 hours"
      }
    ],
    "imageUrl": "https://lh3.googleusercontent.com/p/AF1QipMYrixTzhCd0hClctTgCmxllKiUwrJDcCe8hA4q=w408-h293-k-no",
    "url": "https://www.google.com/maps/search/?api=1&query=Royal%20Picks&query_place_id=ChIJY3zrU3LPADsRUkfN3ZVljFA"
  }
]