[
  {
    "title": "Amruta Tours And Travels | Taxi service in Solapur | Best taxi in solapur | Taxi in solapur",
    "subTitle": "अमृता टूर्स एंड ट्रैवल्स | टैक्सी सर्विस इन सोलापुर | बेस्ट टैक्सी इन सोलापुर | टैक्सी इन सोलापुर",
    "categoryName": "Car rental agency",
    "address": "Bhavaniram Sikh Dharma School, 126, Railway Line, Songla, Jawaharlal Housing Society, Keshav Nagra, Solapur, Maharashtra 413001, India",
    "neighborhood": "Songla, Jawaharlal Housing Society, Keshav Nagra",
    "street": "Bhavaniram Sikh Dharma School, 126, Railway Line",
    "city": "Solapur",
    "postalCode": "413001",
    "state": "Maharashtra",
    "countryCode": "IN",
    "website": "https://solapurtaxicab.online/",
    "phone": "+918669077798",
    "phoneUnformatted": "+918669077798",
    "location": {
      "lat": 17.6600372,
      "lng": 75.9065158
    },
    "totalScore": 4.9,
    "permanentlyClosed": false,
    "temporarilyClosed": false,
    "placeId": "ChIJ-8Y7mC_bxTsRdfQRwzrTR5w",
    "categories": [
      "Car rental agency",
      "Car leasing service",
      "Taxi service",
      "Minibus taxi service"
    ],
    "reviewsCount": 374,
    "imagesCount": 88,
    "openingHours": [],
    "imageUrl": "https://lh3.googleusercontent.com/p/AF1QipO21X0Bq9MwudjHIhNfGm7VkwskTYK2G4FU8QOH=w408-h272-k-no",
    "url": "https://www.google.com/maps/search/?api=1&query=Amruta%20Tours%20And%20Travels%20%7C%20Taxi%20service%20in%20Solapur%20%7C%20Best%20taxi%20in%20solapur%20%7C%20Taxi%20in%20solapur&query_place_id=ChIJ-8Y7mC_bxTsRdfQRwzrTR5w"
  },
  {
    "title": "Anmol Tours And Travels Solapur (Car Rental /Car Hire / Solapur Cab/ Cab services in solapur)",
    "subTitle": "अनमोल टूर्स एंड ट्रैवल्स सोलापुर (कार रेंटल /कार हीरे / सोलापुर सीएबी/ कैब सर्विसेस इन सोलापुर)",
    "categoryName": "Car rental agency",
    "address": "NEW RTO OFFICE, PLOT NO 203/26, Vijapur Rd, behind NIRMITI VIHAR, Vijay Deshmukh Nagar, Solapur, Maharashtra 413004, India",
    "neighborhood": "Vijay Deshmukh Nagar",
    "street": "NEW RTO OFFICE, PLOT NO 203/26, Vijapur Rd, behind NIRMITI VIHAR",
    "city": "Solapur",
    "postalCode": "413004",
    "state": "Maharashtra",
    "countryCode": "IN",
    "website": "https://anmoltoursandtravels.com/",
    "phone": "+919503665843",
    "phoneUnformatted": "+919503665843",
    "location": {
      "lat": 17.647426,
      "lng": 75.8881825
    },
    "totalScore": 5,
    "permanentlyClosed": false,
    "temporarilyClosed": false,
    "placeId": "ChIJb1GGyrzRxTsRwTsSNCqPUCc",
    "categories": [
      "Car rental agency",
      "Chauffeur service",
      "Tour operator"
    ],
    "reviewsCount": 132,
    "imagesCount": 38,
    "openingHours": [
      {
        "day": "Monday",
        "hours": "Open 24 hours"
      },
      {
        "day": "Tuesday",
        "hours": "Open 24 hours"
      },
      {
        "day": "Wednesday",
        "hours": "Open 24 hours"
      },
      {
        "day": "Thursday",
        "hours": "Open 24 hours"
      },
      {
        "day": "Friday",
        "hours": "Open 24 hours"
      },
      {
        "day": "Saturday",
        "hours": "Open 24 hours"
      },
      {
        "day": "Sunday",
        "hours": "Open 24 hours"
      }
    ],
    "imageUrl": "https://lh3.googleusercontent.com/p/AF1QipOjwI4neeTl-uD7DpaOt-u_hBcMUtCvI-Rtww5J=w408-h543-k-no",
    "url": "https://www.google.com/maps/search/?api=1&query=Anmol%20Tours%20And%20Travels%20Solapur%20(Car%20Rental%20%2FCar%20Hire%20%2F%20Solapur%20Cab%2F%20Cab%20services%20in%20solapur)&query_place_id=ChIJb1GGyrzRxTsRwTsSNCqPUCc"
  },
  {
    "title": "Anushka Cabs solapur",
    "subTitle": "अनुष्का कॅब्स",
    "categoryName": "Car rental agency",
    "address": "401 ,Samarth Residency, Juna Puna Naka Cross road, samarth hotel, Maharashtra 413002, India",
    "neighborhood": "Mahesh Nagar",
    "street": "401 ,Samarth Residency, Juna Puna Naka Cross road, samarth hotel",
    "city": "Solapur",
    "postalCode": "413002",
    "state": "Maharashtra",
    "countryCode": "IN",
    "website": "https://www.anushkacabsinsolapur.in/",
    "phone": "+919860463040",
    "phoneUnformatted": "+919860463040",
    "location": {
      "lat": 17.686746,
      "lng": 75.8954924
    },
    "totalScore": 4.9,
    "permanentlyClosed": false,
    "temporarilyClosed": false,
    "placeId": "ChIJo1ji6F_RxTsRt-TCfWsvMeE",
    "categories": [
      "Car rental agency",
      "Car leasing service",
      "Taxi service"
    ],
    "reviewsCount": 172,
    "imagesCount": 53,
    "openingHours": [],
    "imageUrl": "https://lh3.googleusercontent.com/p/AF1QipO938Oeq1wCfoxeXlo1m7JIyOqg3mxpvKk6Qffq=w408-h306-k-no",
    "url": "https://www.google.com/maps/search/?api=1&query=Anushka%20Cabs%20solapur&query_place_id=ChIJo1ji6F_RxTsRt-TCfWsvMeE"
  },
  {
    "title": "Avika Tours & Travels ( Car Rental / Car Hire / Cab Service in Solapur )",
    "subTitle": "अविका टूर्स & ट्रैवल्स ( कार रेंटल / कार हीरे / कैब सर्विस इन सोलापुर )",
    "categoryName": "Car rental agency",
    "address": "208 A New Tirhegaon forest, near Wadiya hospital, Solapur, Maharashtra 413001, India",
    "neighborhood": "Railway lines",
    "street": "208 A New Tirhegaon forest, near Wadiya hospital",
    "city": "Solapur",
    "postalCode": "413001",
    "state": "Maharashtra",
    "countryCode": "IN",
    "website": "https://avikacarrent.com/",
    "phone": "+918308293708",
    "phoneUnformatted": "+918308293708",
    "location": {
      "lat": 17.6640397,
      "lng": 75.898328
    },
    "totalScore": 4.9,
    "permanentlyClosed": false,
    "temporarilyClosed": false,
    "placeId": "ChIJK81sHZ3QxTsR8vn7y2aCvFE",
    "categories": [
      "Car rental agency",
      "Car leasing service",
      "Taxi service",
      "Taxicab Stand",
      "Tour agency"
    ],
    "reviewsCount": 680,
    "imagesCount": 315,
    "openingHours": [
      {
        "day": "Monday",
        "hours": "Open 24 hours"
      },
      {
        "day": "Tuesday",
        "hours": "Open 24 hours"
      },
      {
        "day": "Wednesday",
        "hours": "Open 24 hours"
      },
      {
        "day": "Thursday",
        "hours": "Open 24 hours"
      },
      {
        "day": "Friday",
        "hours": "Open 24 hours"
      },
      {
        "day": "Saturday",
        "hours": "Open 24 hours"
      },
      {
        "day": "Sunday",
        "hours": "Open 24 hours"
      }
    ],
    "imageUrl": "https://lh3.googleusercontent.com/p/AF1QipNM9JlfWWj_pL0vJvdMgxvfT5skZ2VnnljBg033=w408-h306-k-no",
    "url": "https://www.google.com/maps/search/?api=1&query=Avika%20Tours%20%26%20Travels%20(%20Car%20Rental%20%2F%20Car%20Hire%20%2F%20Cab%20Service%20in%20Solapur%20)&query_place_id=ChIJK81sHZ3QxTsR8vn7y2aCvFE"
  },
  {
    "title": "Car Rental Solapur",
    "subTitle": "कार रेंटल सोलापुर",
    "categoryName": "Car leasing service",
    "address": "Railway station, Railway lines, Solapur, Maharashtra 413001, India",
    "neighborhood": "Railway lines",
    "street": "Railway station",
    "city": "Solapur",
    "postalCode": "413001",
    "state": "Maharashtra",
    "countryCode": "IN",
    "location": {
      "lat": 17.6654757,
      "lng": 75.894977
    },
    "permanentlyClosed": false,
    "temporarilyClosed": false,
    "placeId": "ChIJqeQcg_TRxTsRD4tcsvif0iU",
    "categories": [
      "Car leasing service"
    ],
    "imagesCount": 3,
    "openingHours": [],
    "imageUrl": "https://lh3.googleusercontent.com/p/AF1QipO0ZyKJVNAhZv6n0qzRqS55PgOQSLosh6q-Tygv=w408-h270-k-no",
    "url": "https://www.google.com/maps/search/?api=1&query=Car%20Rental%20Solapur&query_place_id=ChIJqeQcg_TRxTsRD4tcsvif0iU"
  },
  {
    "title": "Car Rental in Solapur ( Car Hire / Cab Solapur / Taxi Solapur ) Tours & Travels Solapur",
    "subTitle": "कार रेंटल इन सोलापुर ( कार हीरे / कैब सोलापुर / टैक्सी सोलापुर ) टूर्स & ट्रैवल्स सोलापुर",
    "categoryName": "Car rental agency",
    "address": "SHREYA Tours & Travels, Old vijapur naka, Vijapur Rd, near Sambhaji Talav, Solapur, Maharashtra 413004, India",
    "neighborhood": "Soni Nagar",
    "street": "SHREYA Tours & Travels, Old vijapur naka, Vijapur Rd, near Sambhaji Talav",
    "city": "Solapur",
    "postalCode": "413004",
    "state": "Maharashtra",
    "countryCode": "IN",
    "website": "https://www.carrentalinsolapur.in/",
    "phone": "+917276505009",
    "phoneUnformatted": "+917276505009",
    "location": {
      "lat": 17.6465723,
      "lng": 75.8998822
    },
    "totalScore": 4.9,
    "permanentlyClosed": false,
    "temporarilyClosed": false,
    "placeId": "ChIJtYocEnXbxTsRdlKyaa4grnY",
    "categories": [
      "Car rental agency",
      "Car leasing service",
      "Tour operator",
      "Travel agency"
    ],
    "reviewsCount": 386,
    "imagesCount": 62,
    "openingHours": [
      {
        "day": "Monday",
        "hours": "Open 24 hours"
      },
      {
        "day": "Tuesday",
        "hours": "Open 24 hours"
      },
      {
        "day": "Wednesday",
        "hours": "Open 24 hours"
      },
      {
        "day": "Thursday",
        "hours": "Open 24 hours"
      },
      {
        "day": "Friday",
        "hours": "Open 24 hours"
      },
      {
        "day": "Saturday",
        "hours": "Open 24 hours"
      },
      {
        "day": "Sunday",
        "hours": "Open 24 hours"
      }
    ],
    "imageUrl": "https://lh3.googleusercontent.com/p/AF1QipPdtPy1LIHuP-dfraydQrORzhA_NykUnYS5yDPM=w408-h306-k-no",
    "url": "https://www.google.com/maps/search/?api=1&query=Car%20Rental%20in%20Solapur%20(%20Car%20Hire%20%2F%20Cab%20Solapur%20%2F%20Taxi%20Solapur%20)%20Tours%20%26%20Travels%20Solapur&query_place_id=ChIJtYocEnXbxTsRdlKyaa4grnY"
  },
  {
    "title": "Deccan Motors",
    "subTitle": "डेक्कन मोटर्स",
    "categoryName": "Car dealer",
    "address": "No.2, Gala No. 8 Zilha Krida Sankul, 02, near S.T. Stand, Shastri Nagar, Shandar Chowk, Keshav Nagra, Solapur, Maharashtra 413003, India",
    "neighborhood": "Shastri Nagar, Shandar Chowk, Keshav Nagra",
    "street": "No.2, Gala No. 8 Zilha Krida Sankul, 02, near S.T. Stand",
    "city": "Solapur",
    "postalCode": "413003",
    "state": "Maharashtra",
    "countryCode": "IN",
    "phone": "+919764322777",
    "phoneUnformatted": "+919764322777",
    "location": {
      "lat": 17.6558771,
      "lng": 75.9189049
    },
    "totalScore": 5,
    "permanentlyClosed": false,
    "temporarilyClosed": false,
    "placeId": "ChIJiXoRRwzbxTsRaj0YMCA9WmE",
    "categories": [
      "Car dealer",
      "Smart Car dealer",
      "Used car dealer"
    ],
    "reviewsCount": 1,
    "imagesCount": 123,
    "openingHours": [
      {
        "day": "Monday",
        "hours": "9:30 AM to 7:30 PM"
      },
      {
        "day": "Tuesday",
        "hours": "9:30 AM to 7:30 PM"
      },
      {
        "day": "Wednesday",
        "hours": "9:30 AM to 7:30 PM"
      },
      {
        "day": "Thursday",
        "hours": "9:30 AM to 7:30 PM"
      },
      {
        "day": "Friday",
        "hours": "9:30 AM to 7:30 PM"
      },
      {
        "day": "Saturday",
        "hours": "9:30 AM to 7:30 PM"
      },
      {
        "day": "Sunday",
        "hours": "Closed"
      }
    ],
    "imageUrl": "https://lh3.googleusercontent.com/p/AF1QipOyq8h4-IqNjrbWClYta-90IHMhPZWmMv0ceSZx=w440-h240-k-no",
    "url": "https://www.google.com/maps/search/?api=1&query=Deccan%20Motors&query_place_id=ChIJiXoRRwzbxTsRaj0YMCA9WmE"
  },
  {
    "title": "DhanLaxmi Travels",
    "subTitle": "धनलक्ष्मी ट्रैवल्स",
    "categoryName": "Car rental agency",
    "address": "Plot no. B-462 Rajswa Nagar, sankrutik bhavan, Solapur, Maharashtra 413004, India",
    "neighborhood": "Rajaswa Nagar",
    "street": "Plot no. B-462 Rajswa Nagar, sankrutik bhavan",
    "city": "Solapur",
    "postalCode": "413004",
    "state": "Maharashtra",
    "countryCode": "IN",
    "phone": "+919960444157",
    "phoneUnformatted": "+919960444157",
    "location": {
      "lat": 17.6377797,
      "lng": 75.8795378
    },
    "totalScore": 5,
    "permanentlyClosed": false,
    "temporarilyClosed": false,
    "placeId": "ChIJCYi_fhvRxTsRBM013BPZtNs",
    "categories": [
      "Car rental agency"
    ],
    "reviewsCount": 63,
    "imagesCount": 110,
    "openingHours": [
      {
        "day": "Monday",
        "hours": "Open 24 hours"
      },
      {
        "day": "Tuesday",
        "hours": "Open 24 hours"
      },
      {
        "day": "Wednesday",
        "hours": "Open 24 hours"
      },
      {
        "day": "Thursday",
        "hours": "Open 24 hours"
      },
      {
        "day": "Friday",
        "hours": "Open 24 hours"
      },
      {
        "day": "Saturday",
        "hours": "Open 24 hours"
      },
      {
        "day": "Sunday",
        "hours": "Open 24 hours"
      }
    ],
    "imageUrl": "https://lh3.googleusercontent.com/p/AF1QipPsO0bw-T4Xco2PlU3HtRlKkuK7OpKSUkk497Ug=w408-h303-k-no",
    "url": "https://www.google.com/maps/search/?api=1&query=DhanLaxmi%20Travels&query_place_id=ChIJCYi_fhvRxTsRBM013BPZtNs"
  },
  {
    "title": "Dhwani Travel",
    "subTitle": "ध्वनि ट्रैवल",
    "categoryName": "Car rental agency",
    "address": "35 nutan nager, Rd, Akkalkot Rd, Mallikarjun Nagar, Telngi pachha peth, Solapur, Maharashtra 413006, India",
    "neighborhood": "Mallikarjun Nagar, Telngi pachha peth",
    "street": "35 nutan nager, Rd, Akkalkot Rd",
    "city": "Solapur",
    "postalCode": "413006",
    "state": "Maharashtra",
    "countryCode": "IN",
    "website": "https://dhwanitravel.in/",
    "phone": "+919763137310",
    "phoneUnformatted": "+919763137310",
    "location": {
      "lat": 17.6715713,
      "lng": 75.9499083
    },
    "totalScore": 5,
    "permanentlyClosed": false,
    "temporarilyClosed": false,
    "placeId": "ChIJ_5lVagDbxTsRZuJN8Yp-zDY",
    "categories": [
      "Car rental agency"
    ],
    "reviewsCount": 11,
    "imagesCount": 1,
    "openingHours": [
      {
        "day": "Monday",
        "hours": "Open 24 hours"
      },
      {
        "day": "Tuesday",
        "hours": "Open 24 hours"
      },
      {
        "day": "Wednesday",
        "hours": "Open 24 hours"
      },
      {
        "day": "Thursday",
        "hours": "Open 24 hours"
      },
      {
        "day": "Friday",
        "hours": "Open 24 hours"
      },
      {
        "day": "Saturday",
        "hours": "Open 24 hours"
      },
      {
        "day": "Sunday",
        "hours": "Open 24 hours"
      }
    ],
    "imageUrl": "https://streetviewpixels-pa.googleapis.com/v1/thumbnail?panoid=ZWNQS2wC83mTKJDfa3Eyxw&cb_client=search.gws-prod.gps&w=408&h=240&yaw=215.66975&pitch=0&thumbfov=100",
    "url": "https://www.google.com/maps/search/?api=1&query=Dhwani%20Travel&query_place_id=ChIJ_5lVagDbxTsRZuJN8Yp-zDY"
  },
  {
    "title": "Find Solapur Cars Rental",
    "subTitle": "फाइंड सोलापुर कार्स रेंटल",
    "categoryName": "Car rental agency",
    "address": "Shop Number 86 A, Kasturba Market Shopping Centre, Chowk, New Budhwar Peth, Solapur, Maharashtra 413002, India",
    "neighborhood": "New Budhwar Peth",
    "street": "Shop Number 86 A, Kasturba Market Shopping Centre, Chowk",
    "city": "Solapur",
    "postalCode": "413002",
    "state": "Maharashtra",
    "countryCode": "IN",
    "phone": "+919172767880",
    "phoneUnformatted": "+919172767880",
    "location": {
      "lat": 17.6830461,
      "lng": 75.9036651
    },
    "totalScore": 5,
    "permanentlyClosed": false,
    "temporarilyClosed": false,
    "placeId": "ChIJFVGoZiXbxTsR_TiG48JR1Ak",
    "categories": [
      "Car rental agency",
      "Car leasing service",
      "Taxi service",
      "Travel agency"
    ],
    "reviewsCount": 88,
    "imagesCount": 355,
    "openingHours": [
      {
        "day": "Monday",
        "hours": "Open 24 hours"
      },
      {
        "day": "Tuesday",
        "hours": "Open 24 hours"
      },
      {
        "day": "Wednesday",
        "hours": "Open 24 hours"
      },
      {
        "day": "Thursday",
        "hours": "Open 24 hours"
      },
      {
        "day": "Friday",
        "hours": "Open 24 hours"
      },
      {
        "day": "Saturday",
        "hours": "Open 24 hours"
      },
      {
        "day": "Sunday",
        "hours": "Open 24 hours"
      }
    ],
    "imageUrl": "https://lh3.googleusercontent.com/p/AF1QipNxJ9DLCUH95NWIjrhCEPpCS89eXnTfX2Ori4We=w426-h240-k-no",
    "url": "https://www.google.com/maps/search/?api=1&query=Find%20Solapur%20Cars%20Rental&query_place_id=ChIJFVGoZiXbxTsR_TiG48JR1Ak"
  },
  {
    "title": "Gauri tours and travel Solapur",
    "subTitle": "गौरी टूर्स एंड ट्रैवल सोलापुर",
    "categoryName": "Car rental agency",
    "address": "Shugran hotel, near, Station Rd, Railway lines, Solapur, Maharashtra 413001, India",
    "neighborhood": "Railway lines",
    "street": "Shugran hotel, near, Station Rd",
    "city": "Solapur",
    "postalCode": "413001",
    "state": "Maharashtra",
    "countryCode": "IN",
    "website": "https://g.co/kgs/G4GWZP",
    "phone": "+919921986613",
    "phoneUnformatted": "+919921986613",
    "location": {
      "lat": 17.6661336,
      "lng": 75.8961797
    },
    "totalScore": 5,
    "permanentlyClosed": false,
    "temporarilyClosed": false,
    "placeId": "ChIJ3b02YFDRxTsRkYb9EbtdrTw",
    "categories": [
      "Car rental agency",
      "Car leasing service",
      "Travel agency"
    ],
    "reviewsCount": 6,
    "imagesCount": 10,
    "openingHours": [
      {
        "day": "Monday",
        "hours": "Open 24 hours"
      },
      {
        "day": "Tuesday",
        "hours": "Open 24 hours"
      },
      {
        "day": "Wednesday",
        "hours": "Open 24 hours"
      },
      {
        "day": "Thursday",
        "hours": "Open 24 hours"
      },
      {
        "day": "Friday",
        "hours": "Open 24 hours"
      },
      {
        "day": "Saturday",
        "hours": "Open 24 hours"
      },
      {
        "day": "Sunday",
        "hours": "Open 24 hours"
      }
    ],
    "imageUrl": "https://lh3.googleusercontent.com/p/AF1QipOasgSo3h-LkJtXJVMkMtvcMnUXknIFPplI6h0E=w408-h544-k-no",
    "url": "https://www.google.com/maps/search/?api=1&query=Gauri%20tours%20and%20travel%20Solapur&query_place_id=ChIJ3b02YFDRxTsRkYb9EbtdrTw"
  },
  {
    "title": "Jai Jagdumba Tours and Travels",
    "subTitle": "जय जगदम्बा टूर्स एंड ट्रैवल्स",
    "categoryName": "Car rental agency",
    "address": "UGF 60, The Square Mall, Juni Mill Compound, near Murarji Peth, beside Near Sambhajirao Shinde High School, Murarji Peth, Solapur, Maharashtra 413001, India",
    "neighborhood": "Murarji Peth",
    "street": "UGF 60, The Square Mall, Juni Mill Compound, near Murarji Peth, beside Near Sambhajirao Shinde High School",
    "city": "Solapur",
    "postalCode": "413001",
    "state": "Maharashtra",
    "countryCode": "IN",
    "website": "https://jayjagdambatoursandtravels.com/",
    "phone": "+918585819909",
    "phoneUnformatted": "+918585819909",
    "location": {
      "lat": 17.6731596,
      "lng": 75.8965365
    },
    "totalScore": 4.9,
    "permanentlyClosed": false,
    "temporarilyClosed": false,
    "placeId": "ChIJI6-ZvBHRxTsRmkPFxBmqH0o",
    "categories": [
      "Car rental agency"
    ],
    "reviewsCount": 54,
    "imagesCount": 49,
    "openingHours": [
      {
        "day": "Monday",
        "hours": "Open 24 hours"
      },
      {
        "day": "Tuesday",
        "hours": "Open 24 hours"
      },
      {
        "day": "Wednesday",
        "hours": "Open 24 hours"
      },
      {
        "day": "Thursday",
        "hours": "Open 24 hours"
      },
      {
        "day": "Friday",
        "hours": "Open 24 hours"
      },
      {
        "day": "Saturday",
        "hours": "Closed"
      },
      {
        "day": "Sunday",
        "hours": "Open 24 hours"
      }
    ],
    "imageUrl": "https://lh3.googleusercontent.com/p/AF1QipO__eRk6d2t5Bv0EURDZOExfrXk08-FPj5ERC46=w408-h306-k-no",
    "url": "https://www.google.com/maps/search/?api=1&query=Jai%20Jagdumba%20Tours%20and%20Travels&query_place_id=ChIJI6-ZvBHRxTsRmkPFxBmqH0o"
  },
  {
    "title": "Jay Car Rental Services in Solapur",
    "subTitle": "जय कार रेंटल सर्विसेस इन सोलापुर",
    "categoryName": "Car rental agency",
    "address": "Shop No 2, Yash Nagar, Nirali Basti, Dharamsi Lane Murarji Peth, Murarji Peth, Solapur, Maharashtra 413001, India",
    "neighborhood": "Nirali Basti, Dharamsi Lane Murarji Peth, Murarji Peth",
    "street": "Shop No 2, Yash Nagar",
    "city": "Solapur",
    "postalCode": "413001",
    "state": "Maharashtra",
    "countryCode": "IN",
    "website": "https://jaycarrental.site/",
    "phone": "+919370703248",
    "phoneUnformatted": "+919370703248",
    "location": {
      "lat": 17.6772781,
      "lng": 75.8896663
    },
    "totalScore": 5,
    "permanentlyClosed": false,
    "temporarilyClosed": false,
    "placeId": "ChIJQWdH94DaCWYRuYroMoHt6sE",
    "categories": [
      "Car rental agency"
    ],
    "reviewsCount": 48,
    "imagesCount": 27,
    "openingHours": [
      {
        "day": "Monday",
        "hours": "Open 24 hours"
      },
      {
        "day": "Tuesday",
        "hours": "Open 24 hours"
      },
      {
        "day": "Wednesday",
        "hours": "Open 24 hours"
      },
      {
        "day": "Thursday",
        "hours": "Open 24 hours"
      },
      {
        "day": "Friday",
        "hours": "Open 24 hours"
      },
      {
        "day": "Saturday",
        "hours": "Open 24 hours"
      },
      {
        "day": "Sunday",
        "hours": "Open 24 hours"
      }
    ],
    "imageUrl": "https://lh3.googleusercontent.com/p/AF1QipPzitxD06bIo0N95-h8VALNcNbjS7fcZlEk37BE=w408-h544-k-no",
    "url": "https://www.google.com/maps/search/?api=1&query=Jay%20Car%20Rental%20Services%20in%20Solapur&query_place_id=ChIJQWdH94DaCWYRuYroMoHt6sE"
  },
  {
    "title": "Nakshatra Tours & Travels",
    "subTitle": "नक्षत्र टूर्स & ट्रैवल्स",
    "categoryName": "Car rental agency",
    "address": "Unnamed Road, 413006 Market Yard, Rangraj Nagar, Solapur, Maharashtra 413006, India",
    "neighborhood": "Saruwadi Nagar, Rangraj Nagar",
    "street": "Unnamed Road, 413006 Market Yard",
    "city": "Solapur",
    "postalCode": "413006",
    "state": "Maharashtra",
    "countryCode": "IN",
    "phone": "+918888041955",
    "phoneUnformatted": "+918888041955",
    "location": {
      "lat": 17.6797467,
      "lng": 75.9481804
    },
    "totalScore": 4.8,
    "permanentlyClosed": false,
    "temporarilyClosed": false,
    "placeId": "ChIJgSbuWivbxTsRBc4BGD4axVI",
    "categories": [
      "Car rental agency",
      "Car leasing service"
    ],
    "reviewsCount": 124,
    "imagesCount": 40,
    "openingHours": [
      {
        "day": "Monday",
        "hours": "Open 24 hours"
      },
      {
        "day": "Tuesday",
        "hours": "Open 24 hours"
      },
      {
        "day": "Wednesday",
        "hours": "Open 24 hours"
      },
      {
        "day": "Thursday",
        "hours": "Open 24 hours"
      },
      {
        "day": "Friday",
        "hours": "Open 24 hours"
      },
      {
        "day": "Saturday",
        "hours": "Open 24 hours"
      },
      {
        "day": "Sunday",
        "hours": "Open 24 hours"
      }
    ],
    "imageUrl": "https://lh3.googleusercontent.com/p/AF1QipOoNa0ttL4M91KO2_gc-SIwTTsh5YiFfX3ahdOe=w426-h240-k-no",
    "url": "https://www.google.com/maps/search/?api=1&query=Nakshatra%20Tours%20%26%20Travels&query_place_id=ChIJgSbuWivbxTsRBc4BGD4axVI"
  },
  {
    "title": "RUMA CAR WORLD SOLAPUR",
    "subTitle": "रुमा कार वर्ल्ड सोलापुर",
    "categoryName": "Used car dealer",
    "address": "Infront of, Patrakar Bhavan, Bijapur road, opposite to waterfront phase 2, Ratandeep Housing Society, Solapur, Maharashtra 413001, India",
    "neighborhood": "Ratandeep Housing Society",
    "street": "Infront of, Patrakar Bhavan, Bijapur road, opposite to waterfront phase 2",
    "city": "Solapur",
    "postalCode": "413001",
    "state": "Maharashtra",
    "countryCode": "IN",
    "location": {
      "lat": 17.6525513,
      "lng": 75.9052658
    },
    "totalScore": 4.9,
    "permanentlyClosed": false,
    "temporarilyClosed": false,
    "placeId": "ChIJ07YN8z_bxTsR2vDDJu_9lHw",
    "categories": [
      "Used car dealer"
    ],
    "reviewsCount": 8,
    "imagesCount": 22,
    "openingHours": [
      {
        "day": "Monday",
        "hours": "Open 24 hours"
      },
      {
        "day": "Tuesday",
        "hours": "Open 24 hours"
      },
      {
        "day": "Wednesday",
        "hours": "Open 24 hours"
      },
      {
        "day": "Thursday",
        "hours": "Open 24 hours"
      },
      {
        "day": "Friday",
        "hours": "Open 24 hours"
      },
      {
        "day": "Saturday",
        "hours": "Open 24 hours"
      },
      {
        "day": "Sunday",
        "hours": "Open 24 hours"
      }
    ],
    "imageUrl": "https://lh3.googleusercontent.com/p/AF1QipOT7hcW5bqF71hyErEMm7R6WOTh0uLmc2WWggV5=w408-h306-k-no",
    "url": "https://www.google.com/maps/search/?api=1&query=RUMA%20CAR%20WORLD%20SOLAPUR&query_place_id=ChIJ07YN8z_bxTsR2vDDJu_9lHw"
  },
  {
    "title": "Royal Cars & Bikes Rental - Self Drive Service",
    "subTitle": "रॉयल कार्स & बिकेस रेंटल - सेल्फ ड्राइव सर्विस",
    "categoryName": "Car rental agency",
    "address": "Plot No.17, near Riksha stop, Ramwadi, Solapur, Maharashtra 413001, India",
    "neighborhood": "Ramwadi",
    "street": "Plot No.17, near Riksha stop",
    "city": "Solapur",
    "postalCode": "413001",
    "state": "Maharashtra",
    "countryCode": "IN",
    "phone": "+919611135719",
    "phoneUnformatted": "+919611135719",
    "location": {
      "lat": 17.6610112,
      "lng": 75.8927537
    },
    "totalScore": 4.7,
    "permanentlyClosed": false,
    "temporarilyClosed": false,
    "placeId": "ChIJdeHKgyPRxTsRq8YiHNSWWSc",
    "categories": [
      "Car rental agency",
      "Car leasing service",
      "Scooter rental service"
    ],
    "reviewsCount": 27,
    "imagesCount": 25,
    "openingHours": [
      {
        "day": "Monday",
        "hours": "Open 24 hours"
      },
      {
        "day": "Tuesday",
        "hours": "Open 24 hours"
      },
      {
        "day": "Wednesday",
        "hours": "Open 24 hours"
      },
      {
        "day": "Thursday",
        "hours": "Open 24 hours"
      },
      {
        "day": "Friday",
        "hours": "Open 24 hours"
      },
      {
        "day": "Saturday",
        "hours": "Open 24 hours"
      },
      {
        "day": "Sunday",
        "hours": "Open 24 hours"
      }
    ],
    "imageUrl": "https://lh3.googleusercontent.com/p/AF1QipM4SU-VSYM2l4AKJ4X2CZ0B3ORTPdCEDUIO77P3=w487-h240-k-no",
    "url": "https://www.google.com/maps/search/?api=1&query=Royal%20Cars%20%26%20Bikes%20Rental%20-%20Self%20Drive%20Service&query_place_id=ChIJdeHKgyPRxTsRq8YiHNSWWSc"
  },
  {
    "title": "Sai Car Rental Solapur",
    "subTitle": "साई कार रेंटल सोलापूर",
    "categoryName": "Car rental agency",
    "address": "Aayush Complex,Gala no 16 Under RBL Bank ATM,Mariaai Chowk, Maharashtra 413001, India",
    "neighborhood": "New Laxmi Chawl, Damani Nagar",
    "street": "Aayush Complex,Gala no 16 Under RBL Bank ATM,Mariaai Chowk",
    "city": "Solapur",
    "postalCode": "413001",
    "state": "Maharashtra",
    "countryCode": "IN",
    "website": "http://saicarrent.in/",
    "phone": "+918888434828",
    "phoneUnformatted": "+918888434828",
    "location": {
      "lat": 17.6690512,
      "lng": 75.889485
    },
    "totalScore": 4.8,
    "permanentlyClosed": false,
    "temporarilyClosed": false,
    "placeId": "ChIJ50y78J_RxTsRif-DwBIuInU",
    "categories": [
      "Car rental agency"
    ],
    "reviewsCount": 124,
    "imagesCount": 23,
    "openingHours": [
      {
        "day": "Monday",
        "hours": "Open 24 hours"
      },
      {
        "day": "Tuesday",
        "hours": "Open 24 hours"
      },
      {
        "day": "Wednesday",
        "hours": "Open 24 hours"
      },
      {
        "day": "Thursday",
        "hours": "Open 24 hours"
      },
      {
        "day": "Friday",
        "hours": "Open 24 hours"
      },
      {
        "day": "Saturday",
        "hours": "Open 24 hours"
      },
      {
        "day": "Sunday",
        "hours": "Open 24 hours"
      }
    ],
    "imageUrl": "https://lh3.googleusercontent.com/p/AF1QipP4YNL0menCIaDsqQ0uHqkiDnAWBu01L_1hxUNZ=w651-h240-k-no",
    "url": "https://www.google.com/maps/search/?api=1&query=Sai%20Car%20Rental%20Solapur&query_place_id=ChIJ50y78J_RxTsRif-DwBIuInU"
  },
  {
    "title": "Sai Motors & Auto Consulting",
    "subTitle": "साई मोटर्स & ऑटो कन्सल्टिंग",
    "categoryName": "Auto broker",
    "address": "Gala No. 13, Jilla Krida Sankul, Gurunanak Chowk, Kurban Hussain Nagar, Shastri Nagar, beside M.S.B. Office, Solapur, Maharashtra 413003, India",
    "street": "Gala No. 13, Jilla Krida Sankul, Gurunanak Chowk, Kurban Hussain Nagar, Shastri Nagar, beside M.S.B. Office",
    "city": "Solapur",
    "postalCode": "413003",
    "state": "Maharashtra",
    "countryCode": "IN",
    "phone": "+919960774786",
    "phoneUnformatted": "+919960774786",
    "location": {
      "lat": 17.6551864,
      "lng": 75.9190141
    },
    "totalScore": 4.3,
    "permanentlyClosed": false,
    "temporarilyClosed": false,
    "placeId": "ChIJt4OKNWvaxTsRZwlv5SVtDBc",
    "categories": [
      "Auto broker",
      "Used car dealer"
    ],
    "reviewsCount": 7,
    "imagesCount": 12,
    "openingHours": [
      {
        "day": "Monday",
        "hours": "10 AM to 9 PM"
      },
      {
        "day": "Tuesday",
        "hours": "10 AM to 9 PM"
      },
      {
        "day": "Wednesday",
        "hours": "10 AM to 9 PM"
      },
      {
        "day": "Thursday",
        "hours": "10 AM to 9 PM"
      },
      {
        "day": "Friday",
        "hours": "10 AM to 9 PM"
      },
      {
        "day": "Saturday",
        "hours": "10 AM to 9 PM"
      },
      {
        "day": "Sunday",
        "hours": "10 AM to 9 PM"
      }
    ],
    "imageUrl": "https://lh3.googleusercontent.com/gps-cs-s/AG0ilSz6tlCoPja88LcZyJPTyoabOHf2PAweLAqf92a2r-Az4wU6rfsaLYT2tMLxR_FN6IMVQsZnkHtdr3oq3ECxEtJV1X3e08Yfnexi4K6jNAHDsRJhjFfIzlBD0TRvDCYh--y8wOxL=w408-h544-k-no",
    "url": "https://www.google.com/maps/search/?api=1&query=Sai%20Motors%20%26%20Auto%20Consulting&query_place_id=ChIJt4OKNWvaxTsRZwlv5SVtDBc"
  },
  {
    "title": "Sapthagiri Cab Services in Solapur",
    "subTitle": "सप्थागिरी कैब सर्विसेस इन सोलापुर",
    "categoryName": "Car rental agency",
    "address": "Shop No 22, Ground Floor, Super Market, Murarji Peth, Solapur, Maharashtra 413001, India",
    "neighborhood": "Murarji Peth",
    "street": "Shop No 22, Ground Floor, Super Market",
    "city": "Solapur",
    "postalCode": "413001",
    "state": "Maharashtra",
    "countryCode": "IN",
    "website": "https://sapthagiricabservices.in/",
    "phone": "+919823460964",
    "phoneUnformatted": "+919823460964",
    "location": {
      "lat": 17.6741243,
      "lng": 75.8981826
    },
    "totalScore": 4.8,
    "permanentlyClosed": false,
    "temporarilyClosed": false,
    "placeId": "ChIJzYTApBuwhS8REibyKbBr37I",
    "categories": [
      "Car rental agency",
      "Car leasing service",
      "Chauffeur service",
      "Minibus taxi service",
      "Taxi service",
      "Tour agency",
      "Tour operator",
      "Travel agency"
    ],
    "reviewsCount": 707,
    "imagesCount": 431,
    "openingHours": [
      {
        "day": "Monday",
        "hours": "Open 24 hours"
      },
      {
        "day": "Tuesday",
        "hours": "Open 24 hours"
      },
      {
        "day": "Wednesday",
        "hours": "Open 24 hours"
      },
      {
        "day": "Thursday",
        "hours": "Open 24 hours"
      },
      {
        "day": "Friday",
        "hours": "Open 24 hours"
      },
      {
        "day": "Saturday",
        "hours": "Open 24 hours"
      },
      {
        "day": "Sunday",
        "hours": "Open 24 hours"
      }
    ],
    "imageUrl": "https://lh3.googleusercontent.com/p/AF1QipPTv5nBcyR5E8mQuE3W8NR7OhpHl-MknWHMs5Ye=w408-h408-k-no",
    "url": "https://www.google.com/maps/search/?api=1&query=Sapthagiri%20Cab%20Services%20in%20Solapur&query_place_id=ChIJzYTApBuwhS8REibyKbBr37I"
  },
  {
    "title": "Sarthak Tours and Travels",
    "subTitle": "सार्थक टूर्स एंड ट्रैवल्स",
    "categoryName": "Car rental agency",
    "address": "175, west mangalwar peth, tuljapur ves, near bellure floor mill, Solapur, Maharashtra 413002, India",
    "neighborhood": "Mangalwar Peth",
    "street": "175, west mangalwar peth, tuljapur ves, near bellure floor mill",
    "city": "Solapur",
    "postalCode": "413002",
    "state": "Maharashtra",
    "countryCode": "IN",
    "phone": "+919764000917",
    "phoneUnformatted": "+919764000917",
    "location": {
      "lat": 17.6824415,
      "lng": 75.9088787
    },
    "totalScore": 5,
    "permanentlyClosed": false,
    "temporarilyClosed": false,
    "placeId": "ChIJj_4vf6DbxTsRkhfK5NloUE4",
    "categories": [
      "Car rental agency",
      "Car leasing service",
      "Taxi service"
    ],
    "reviewsCount": 156,
    "imagesCount": 31,
    "openingHours": [
      {
        "day": "Monday",
        "hours": "Open 24 hours"
      },
      {
        "day": "Tuesday",
        "hours": "Open 24 hours"
      },
      {
        "day": "Wednesday",
        "hours": "Open 24 hours"
      },
      {
        "day": "Thursday",
        "hours": "Open 24 hours"
      },
      {
        "day": "Friday",
        "hours": "Open 24 hours"
      },
      {
        "day": "Saturday",
        "hours": "Open 24 hours"
      },
      {
        "day": "Sunday",
        "hours": "Open 24 hours"
      }
    ],
    "imageUrl": "https://lh3.googleusercontent.com/p/AF1QipOwbp4_hnoqSF16J1dhChKzAudMo5LG82oklruI=w408-h408-k-no",
    "url": "https://www.google.com/maps/search/?api=1&query=Sarthak%20Tours%20and%20Travels&query_place_id=ChIJj_4vf6DbxTsRkhfK5NloUE4"
  },
  {
    "title": "Sawant tours and travles",
    "subTitle": "सावंत टूर्स एंड ट्रैवल्स",
    "categoryName": "Car rental agency",
    "address": "Solapur, Maharashtra 413008, India",
    "city": "Solapur",
    "postalCode": "413008",
    "state": "Maharashtra",
    "countryCode": "IN",
    "website": "https://www.instagram.com/solapur_mh13_12?igsh=OTJxNjUzY3dpeXhh",
    "location": {
      "lat": 17.6013158,
      "lng": 75.8896419
    },
    "totalScore": 5,
    "permanentlyClosed": false,
    "temporarilyClosed": false,
    "placeId": "ChIJy2bTrXLXxTsR9TmCBkqMcJM",
    "categories": [
      "Car rental agency",
      "Car leasing service"
    ],
    "reviewsCount": 9,
    "imagesCount": 19,
    "openingHours": [
      {
        "day": "Monday",
        "hours": "Open 24 hours"
      },
      {
        "day": "Tuesday",
        "hours": "Open 24 hours"
      },
      {
        "day": "Wednesday",
        "hours": "Open 24 hours"
      },
      {
        "day": "Thursday",
        "hours": "Open 24 hours"
      },
      {
        "day": "Friday",
        "hours": "Open 24 hours"
      },
      {
        "day": "Saturday",
        "hours": "Open 24 hours"
      },
      {
        "day": "Sunday",
        "hours": "Open 24 hours"
      }
    ],
    "imageUrl": "https://lh3.googleusercontent.com/p/AF1QipNk7_j6F7lh-ndQcJ_YeoSctu5ENehFoKfS5_JD=w408-h725-k-no",
    "url": "https://www.google.com/maps/search/?api=1&query=Sawant%20tours%20and%20travles&query_place_id=ChIJy2bTrXLXxTsR9TmCBkqMcJM"
  },
  {
    "title": "Shiv kamal tours and travels",
    "subTitle": "शिव कमाल दौरे आणि ट्रेवल्स",
    "categoryName": "Car rental agency",
    "address": "Plot no 90, near khamitkar highschool Khamitkar highschool, Shiv Ganga Nagar Part-4, Kumta Naka, Solapur, Maharashtra 413003, India",
    "neighborhood": "Shiv Ganga Nagar Part-4, Kumta Naka",
    "street": "Plot no 90, near khamitkar highschool Khamitkar highschool",
    "city": "Solapur",
    "postalCode": "413003",
    "state": "Maharashtra",
    "countryCode": "IN",
    "website": "https://shiv-kamal-tours.grexa.site/",
    "phone": "+918788415098",
    "phoneUnformatted": "+918788415098",
    "location": {
      "lat": 17.6466053,
      "lng": 75.9261001
    },
    "totalScore": 4.8,
    "permanentlyClosed": false,
    "temporarilyClosed": false,
    "placeId": "ChIJhZaoqK7bxTsRrG8JOJ5EvSE",
    "categories": [
      "Car rental agency",
      "Bus tour agency",
      "Car leasing service",
      "Tour agency",
      "Tour operator",
      "Tourist information center"
    ],
    "reviewsCount": 17,
    "imagesCount": 14,
    "openingHours": [
      {
        "day": "Monday",
        "hours": "Open 24 hours"
      },
      {
        "day": "Tuesday",
        "hours": "Open 24 hours"
      },
      {
        "day": "Wednesday",
        "hours": "Open 24 hours"
      },
      {
        "day": "Thursday",
        "hours": "Open 24 hours"
      },
      {
        "day": "Friday",
        "hours": "Open 24 hours"
      },
      {
        "day": "Saturday",
        "hours": "Open 24 hours"
      },
      {
        "day": "Sunday",
        "hours": "Open 24 hours"
      }
    ],
    "imageUrl": "https://lh3.googleusercontent.com/p/AF1QipOyoB9fWqiKD3GvCGn3lWHWrxFbHG0lJFw06eDQ=w408-h306-k-no",
    "url": "https://www.google.com/maps/search/?api=1&query=Shiv%20kamal%20tours%20and%20travels&query_place_id=ChIJhZaoqK7bxTsRrG8JOJ5EvSE"
  },
  {
    "title": "Shivraj Car Rental Solapur",
    "subTitle": "शिवराज कार रेंटल सोलापुर",
    "categoryName": "Car rental agency",
    "address": "Majrewadi, 50 Ashirvad nagar, Hotgi Road, Solapur, Maharashtra 413001, India",
    "street": "Majrewadi, 50 Ashirvad nagar, Hotgi Road",
    "city": "Solapur",
    "postalCode": "413001",
    "state": "Maharashtra",
    "countryCode": "IN",
    "website": "http://www.shivrajtravels.com/",
    "phone": "+919011996996",
    "phoneUnformatted": "+919011996996",
    "location": {
      "lat": 17.6647209,
      "lng": 75.8935717
    },
    "totalScore": 4.9,
    "permanentlyClosed": false,
    "temporarilyClosed": false,
    "placeId": "ChIJlRzuwWbZxTsRnO3i1nH7-4Y",
    "categories": [
      "Car rental agency",
      "Car leasing service",
      "Taxi service"
    ],
    "reviewsCount": 463,
    "imagesCount": 88,
    "openingHours": [
      {
        "day": "Monday",
        "hours": "Open 24 hours"
      },
      {
        "day": "Tuesday",
        "hours": "Open 24 hours"
      },
      {
        "day": "Wednesday",
        "hours": "Open 24 hours"
      },
      {
        "day": "Thursday",
        "hours": "Open 24 hours"
      },
      {
        "day": "Friday",
        "hours": "Open 24 hours"
      },
      {
        "day": "Saturday",
        "hours": "Open 24 hours"
      },
      {
        "day": "Sunday",
        "hours": "Open 24 hours"
      }
    ],
    "imageUrl": "https://lh3.googleusercontent.com/gps-cs-s/AG0ilSy0YGJ4tU2VWU06f_F0SqVf6VGuJiz04tu0xsjDcVYuPhgozN_xyyFnrFp5plI4BN-UB7pd4EeLMhv5ctBZrgb_RVKrT-SJMv1qtr4kadAcRgGC80EaP2lzCs3zL5gmkFNxT0QH=w415-h240-k-no",
    "url": "https://www.google.com/maps/search/?api=1&query=Shivraj%20Car%20Rental%20Solapur&query_place_id=ChIJlRzuwWbZxTsRnO3i1nH7-4Y"
  },
  {
    "title": "Shravani Car Rentals | Cab Service | Taxi Service in Solapur",
    "subTitle": "श्रावणी कार रेंटल्स | कैब सर्विस | टैक्सी सर्विस इन सोलापुर",
    "categoryName": "Car rental agency",
    "address": "Arvindham police vasahat, 8/8, Nirali Basti, Dharamsi Lane Murarji Peth, Murarji Peth, Solapur, Maharashtra 413001, India",
    "neighborhood": "Nirali Basti, Dharamsi Lane Murarji Peth, Murarji Peth",
    "street": "Arvindham police vasahat, 8/8",
    "city": "Solapur",
    "postalCode": "413001",
    "state": "Maharashtra",
    "countryCode": "IN",
    "website": "https://shravanicarrentals.com/",
    "phone": "+919011140600",
    "phoneUnformatted": "+919011140600",
    "location": {
      "lat": 17.6789991,
      "lng": 75.8885441
    },
    "totalScore": 4.9,
    "permanentlyClosed": false,
    "temporarilyClosed": false,
    "placeId": "ChIJ73HbBH3QxTsRCdubpRA9YFk",
    "categories": [
      "Car rental agency",
      "Car leasing service",
      "Tour operator",
      "Travel agency"
    ],
    "reviewsCount": 307,
    "imagesCount": 129,
    "openingHours": [
      {
        "day": "Monday",
        "hours": "Open 24 hours"
      },
      {
        "day": "Tuesday",
        "hours": "Open 24 hours"
      },
      {
        "day": "Wednesday",
        "hours": "Open 24 hours"
      },
      {
        "day": "Thursday",
        "hours": "Open 24 hours"
      },
      {
        "day": "Friday",
        "hours": "Open 24 hours"
      },
      {
        "day": "Saturday",
        "hours": "Open 24 hours"
      },
      {
        "day": "Sunday",
        "hours": "Open 24 hours"
      }
    ],
    "imageUrl": "https://lh3.googleusercontent.com/gps-cs-s/AG0ilSwLVXesVJuRNlRIdcWFq8JXDfhslDLY9l0YFDkwececNgrFf_yH7ltH8xFx_045wtV9JSM3IyUwIpwtcq_ZnBheGXe3-5sZbgknm_8HYfNDseiOF9TAR4TmsZr8aQ2lalg_ZVhM=w408-h306-k-no",
    "url": "https://www.google.com/maps/search/?api=1&query=Shravani%20Car%20Rentals%20%7C%20Cab%20Service%20%7C%20Taxi%20Service%20in%20Solapur&query_place_id=ChIJ73HbBH3QxTsRCdubpRA9YFk"
  },
  {
    "title": "Shree Patil Tours & Travels",
    "subTitle": "श्री पाटिल टूर्स & ट्रैवल्स",
    "categoryName": "Car leasing service",
    "address": "Railway Station Rd, Solapur, Maharashtra 413001, India",
    "street": "Railway Station Rd",
    "city": "Solapur",
    "postalCode": "413001",
    "state": "Maharashtra",
    "countryCode": "IN",
    "website": "https://wa.link/cxemsu",
    "phone": "+918698702001",
    "phoneUnformatted": "+918698702001",
    "location": {
      "lat": 17.6610275,
      "lng": 75.8984692
    },
    "totalScore": 5,
    "permanentlyClosed": false,
    "temporarilyClosed": false,
    "placeId": "ChIJKdNq2kXRxTsRrkHMWfYR7G0",
    "categories": [
      "Car leasing service"
    ],
    "reviewsCount": 7,
    "imagesCount": 9,
    "openingHours": [
      {
        "day": "Monday",
        "hours": "Open 24 hours"
      },
      {
        "day": "Tuesday",
        "hours": "Open 24 hours"
      },
      {
        "day": "Wednesday",
        "hours": "Open 24 hours"
      },
      {
        "day": "Thursday",
        "hours": "Open 24 hours"
      },
      {
        "day": "Friday",
        "hours": "Open 24 hours"
      },
      {
        "day": "Saturday",
        "hours": "Open 24 hours"
      },
      {
        "day": "Sunday",
        "hours": "Open 24 hours"
      }
    ],
    "imageUrl": "https://lh3.googleusercontent.com/p/AF1QipM4r_TOKe3JEuHMi7S757xSF8VBsmWCdkvXSNL1=w408-h544-k-no",
    "url": "https://www.google.com/maps/search/?api=1&query=Shree%20Patil%20Tours%20%26%20Travels&query_place_id=ChIJKdNq2kXRxTsRrkHMWfYR7G0"
  },
  {
    "title": "Solapur Travel Experia (Car Rental / Car Hire / Taxi Services in Solapur)",
    "subTitle": "सोलापुर ट्रैवल एक्सपीरिया (कार रेंटल / कार हीरे / टैक्सी सर्विसेस इन सोलापुर)",
    "categoryName": "Car rental agency",
    "address": "782 Shop, SM Patil Mandap contractors, Shivsmarak hall, Maharashtra 413007, India",
    "neighborhood": "Navi Peth, Murarji Peth",
    "street": "782 Shop, SM Patil Mandap contractors, Shivsmarak hall",
    "city": "Solapur",
    "postalCode": "413007",
    "state": "Maharashtra",
    "countryCode": "IN",
    "website": "https://www.solapurtravelexperia.com/",
    "phone": "+919049566788",
    "phoneUnformatted": "+919049566788",
    "location": {
      "lat": 17.6779923,
      "lng": 75.9000052
    },
    "totalScore": 5,
    "permanentlyClosed": false,
    "temporarilyClosed": false,
    "placeId": "ChIJhz7LOnXbxTsRuLePVB5PuvI",
    "categories": [
      "Car rental agency",
      "Car leasing service",
      "Chauffeur service",
      "Minibus taxi service",
      "Taxi service"
    ],
    "reviewsCount": 14,
    "imagesCount": 36,
    "openingHours": [
      {
        "day": "Monday",
        "hours": "Open 24 hours"
      },
      {
        "day": "Tuesday",
        "hours": "Open 24 hours"
      },
      {
        "day": "Wednesday",
        "hours": "Open 24 hours"
      },
      {
        "day": "Thursday",
        "hours": "Open 24 hours"
      },
      {
        "day": "Friday",
        "hours": "Open 24 hours"
      },
      {
        "day": "Saturday",
        "hours": "Open 24 hours"
      },
      {
        "day": "Sunday",
        "hours": "Open 24 hours"
      }
    ],
    "imageUrl": "https://lh3.googleusercontent.com/p/AF1QipMI5iK5k1L7ULz-q51iloYcODLM7VntRSRH0hUp=w408-h544-k-no",
    "url": "https://www.google.com/maps/search/?api=1&query=Solapur%20Travel%20Experia%20(Car%20Rental%20%2F%20Car%20Hire%20%2F%20Taxi%20Services%20in%20Solapur)&query_place_id=ChIJhz7LOnXbxTsRuLePVB5PuvI"
  },
  {
    "title": "Vaibhavi Tours and Travels",
    "subTitle": "वैभवी टूर्स एंड ट्रैवल्स",
    "categoryName": "Car rental agency",
    "address": "48, Railway Lines Rd, Railway lines, Solapur, Maharashtra 413001, India",
    "neighborhood": "Railway lines",
    "street": "48, Railway Lines Rd",
    "city": "Solapur",
    "postalCode": "413001",
    "state": "Maharashtra",
    "countryCode": "IN",
    "website": "https://vaibhavitoursandtravels.com/",
    "phone": "+918530271845",
    "phoneUnformatted": "+918530271845",
    "location": {
      "lat": 17.6648115,
      "lng": 75.8942616
    },
    "totalScore": 5,
    "permanentlyClosed": false,
    "temporarilyClosed": false,
    "placeId": "ChIJd8BbfG7bxTsRsG8gEn__REI",
    "categories": [
      "Car rental agency"
    ],
    "reviewsCount": 168,
    "imagesCount": 9,
    "openingHours": [
      {
        "day": "Monday",
        "hours": "Open 24 hours"
      },
      {
        "day": "Tuesday",
        "hours": "Open 24 hours"
      },
      {
        "day": "Wednesday",
        "hours": "Open 24 hours"
      },
      {
        "day": "Thursday",
        "hours": "Open 24 hours"
      },
      {
        "day": "Friday",
        "hours": "Open 24 hours"
      },
      {
        "day": "Saturday",
        "hours": "Open 24 hours"
      },
      {
        "day": "Sunday",
        "hours": "Open 24 hours"
      }
    ],
    "imageUrl": "https://lh3.googleusercontent.com/gps-cs-s/AG0ilSw4HYbotVUVHikSA3r8tL2mfIQo8zAXMRpx9MogK5NHX1vZC3iqU83r0W2QxtBBdRv8mhBe4seDVPcA3QfxT4Opq6PKudzlG6BLkM8JHOzNevJGn7SkhdWVaSVoDYWj54CH24Og=w533-h240-k-no",
    "url": "https://www.google.com/maps/search/?api=1&query=Vaibhavi%20Tours%20and%20Travels&query_place_id=ChIJd8BbfG7bxTsRsG8gEn__REI"
  },
  {
    "title": "Vallabh Cab Service",
    "subTitle": "वल्लभ कैब सर्विस",
    "categoryName": "Car leasing service",
    "address": "Plot No 13, Vastu Vihar Colony Majarewadi, Gate, Jule, Solapur, Maharashtra 413224, India",
    "neighborhood": "Bank Colony, Dnyaneshwar Nagar, Vishnupuri, Jule",
    "street": "Plot No 13, Vastu Vihar Colony Majarewadi, Gate",
    "city": "Solapur",
    "postalCode": "413224",
    "state": "Maharashtra",
    "countryCode": "IN",
    "phone": "+919561554699",
    "phoneUnformatted": "+919561554699",
    "location": {
      "lat": 17.6270218,
      "lng": 75.9217942
    },
    "totalScore": 4.8,
    "permanentlyClosed": false,
    "temporarilyClosed": false,
    "placeId": "ChIJJc0GxezZxTsRcZ6pG_cY-08",
    "categories": [
      "Car leasing service"
    ],
    "reviewsCount": 47,
    "imagesCount": 13,
    "openingHours": [
      {
        "day": "Monday",
        "hours": "Open 24 hours"
      },
      {
        "day": "Tuesday",
        "hours": "Open 24 hours"
      },
      {
        "day": "Wednesday",
        "hours": "Open 24 hours"
      },
      {
        "day": "Thursday",
        "hours": "Open 24 hours"
      },
      {
        "day": "Friday",
        "hours": "Open 24 hours"
      },
      {
        "day": "Saturday",
        "hours": "Open 24 hours"
      },
      {
        "day": "Sunday",
        "hours": "Open 24 hours"
      }
    ],
    "imageUrl": "https://lh3.googleusercontent.com/gps-cs-s/AG0ilSy3wMsQd5aCWgeUTlWPHr9e_3r2mRKAQ_1f2Vuq3QIjW40uO0PToIOqGc8hkwmjmHDSuo9_xKo0QV_OmOFU2gmuMl4vWNmipE3u0_WV57RI2WvDxvmWuySnJCG1vmjzjuIfF9wJ6A=w408-h306-k-no",
    "url": "https://www.google.com/maps/search/?api=1&query=Vallabh%20Cab%20Service&query_place_id=ChIJJc0GxezZxTsRcZ6pG_cY-08"
  },
  {
    "title": "solapur car rental",
    "subTitle": "सोलापुर कार रेंटल",
    "categoryName": "Car rental agency",
    "address": "46, Brahmachaitanya Nagar, Maharashtra 413004, India",
    "neighborhood": "Kamla Nagar",
    "street": "46, Brahmachaitanya Nagar",
    "city": "Solapur",
    "postalCode": "413004",
    "state": "Maharashtra",
    "countryCode": "IN",
    "location": {
      "lat": 17.6392852,
      "lng": 75.8890505
    },
    "permanentlyClosed": false,
    "temporarilyClosed": false,
    "placeId": "ChIJW6LQ4QvRxTsRbkoLeiLMSqA",
    "categories": [
      "Car rental agency",
      "Taxi service"
    ],
    "imagesCount": 2,
    "openingHours": [
      {
        "day": "Monday",
        "hours": "Open 24 hours"
      },
      {
        "day": "Tuesday",
        "hours": "Open 24 hours"
      },
      {
        "day": "Wednesday",
        "hours": "Open 24 hours"
      },
      {
        "day": "Thursday",
        "hours": "Open 24 hours"
      },
      {
        "day": "Friday",
        "hours": "Open 24 hours"
      },
      {
        "day": "Saturday",
        "hours": "Open 24 hours"
      },
      {
        "day": "Sunday",
        "hours": "Open 24 hours"
      }
    ],
    "imageUrl": "https://streetviewpixels-pa.googleapis.com/v1/thumbnail?panoid=8vCBCsPme_FLqgFdS0rc3g&cb_client=search.gws-prod.gps&w=408&h=240&yaw=76.56571&pitch=0&thumbfov=100",
    "url": "https://www.google.com/maps/search/?api=1&query=solapur%20car%20rental&query_place_id=ChIJW6LQ4QvRxTsRbkoLeiLMSqA"
  }
]