[
  {
    "title": "Amaze Travel Hub",
    "categoryName": "Car leasing service",
    "address": "The union club back side, Park road, Tamukkam Main Rd, Mellur, Tallakulam, Madurai, Tamil Nadu 625020, India",
    "neighborhood": "Mellur",
    "street": "The union club back side, Park road, Tamukkam Main Rd",
    "city": "Tallakulam, Madurai",
    "postalCode": "625020",
    "state": "Tamil Nadu",
    "countryCode": "IN",
    "website": "https://amazetravelhub.com/",
    "phone": "+916369928702",
    "phoneUnformatted": "+916369928702",
    "location": {
      "lat": 9.93061,
      "lng": 78.1370284
    },
    "totalScore": 4.8,
    "permanentlyClosed": false,
    "temporarilyClosed": false,
    "placeId": "ChIJBWLuqDLFADsRcZcLTaq-7ts",
    "categories": [
      "Car leasing service",
      "Taxi service",
      "Travel agency"
    ],
    "reviewsCount": 182,
    "imagesCount": 107,
    "openingHours": [],
    "imageUrl": "https://lh3.googleusercontent.com/p/AF1QipOzjv_Rac3WuLYiovObakJIN-0LJkKNP6EwdJBZ=w408-h421-k-no",
    "url": "https://www.google.com/maps/search/?api=1&query=Amaze%20Travel%20Hub&query_place_id=ChIJBWLuqDLFADsRcZcLTaq-7ts"
  },
  {
    "title": "RG Holidays",
    "categoryName": "Car rental agency",
    "address": "30, Asari St, Mellur, Tallakulam, Madurai, Tamil Nadu 625002, India",
    "neighborhood": "Mellur",
    "street": "30, Asari St",
    "city": "Tallakulam, Madurai",
    "postalCode": "625002",
    "state": "Tamil Nadu",
    "countryCode": "IN",
    "website": "http://www.rgholidays.co.in/",
    "phone": "+918608138148",
    "phoneUnformatted": "+918608138148",
    "location": {
      "lat": 9.9324252,
      "lng": 78.1358541
    },
    "totalScore": 4.8,
    "permanentlyClosed": false,
    "temporarilyClosed": false,
    "placeId": "ChIJARErjMLHADsRtffedM1knXw",
    "categories": [
      "Car rental agency",
      "Boat tour agency",
      "Car leasing service",
      "Taxi service",
      "Minibus taxi service",
      "Sightseeing tour agency",
      "Tour agency",
      "Tour operator",
      "Tourist attraction",
      "Travel agency"
    ],
    "reviewsCount": 157,
    "imagesCount": 1402,
    "openingHours": [],
    "imageUrl": "https://lh3.googleusercontent.com/p/AF1QipPacEUPkCQ9WgLXSn1T6UPzrbS56n0_8Kgi8cTn=w408-h408-k-no",
    "url": "https://www.google.com/maps/search/?api=1&query=RG%20Holidays&query_place_id=ChIJARErjMLHADsRtffedM1knXw"
  },
  {
    "title": "U Drive Self Driving Rental Cars Madurai",
    "categoryName": "Car leasing service",
    "address": "Opt to Tamil sangam, Dr Thangaraj Salai, Mellur, Tallakulam, Madurai, Tamil Nadu 625020, India",
    "neighborhood": "Mellur",
    "street": "Opt to Tamil sangam, Dr Thangaraj Salai",
    "city": "Tallakulam, Madurai",
    "postalCode": "625020",
    "state": "Tamil Nadu",
    "countryCode": "IN",
    "phone": "+916383913178",
    "phoneUnformatted": "+916383913178",
    "location": {
      "lat": 9.9334807,
      "lng": 78.1397269
    },
    "totalScore": 4.2,
    "permanentlyClosed": false,
    "temporarilyClosed": false,
    "placeId": "ChIJdadjgFvFADsRL9DDHWCtrlE",
    "categories": [
      "Car leasing service"
    ],
    "reviewsCount": 53,
    "imagesCount": 18,
    "openingHours": [
      {
        "day": "Monday",
        "hours": "Open 24 hours"
      },
      {
        "day": "Tuesday",
        "hours": "Open 24 hours"
      },
      {
        "day": "Wednesday",
        "hours": "Open 24 hours"
      },
      {
        "day": "Thursday",
        "hours": "Open 24 hours"
      },
      {
        "day": "Friday",
        "hours": "Open 24 hours"
      },
      {
        "day": "Saturday",
        "hours": "Open 24 hours"
      },
      {
        "day": "Sunday",
        "hours": "Open 24 hours"
      }
    ],
    "imageUrl": "https://lh3.googleusercontent.com/p/AF1QipOX7tgteESdZ7Jn-8zWZhC94HoieQC-PDct5dc6=w408-h544-k-no",
    "url": "https://www.google.com/maps/search/?api=1&query=U%20Drive%20Self%20Driving%20Rental%20Cars%20Madurai&query_place_id=ChIJdadjgFvFADsRL9DDHWCtrlE"
  }
]