[
  {
    "title": "4D Car shine & Autoclub",
    "subTitle": "4डी कार शाइन & ऑटोक्लब",
    "categoryName": "Car wash",
    "address": "Shop No 2, 9 Acres, Kothari Compound, Neelkanth Rd, behind happy valley, Thane, Maharashtra 400610, India",
    "neighborhood": "Happy Valley, Manpada, Thane West",
    "street": "Shop No 2, 9 Acres, Kothari Compound, Neelkanth Rd, behind happy valley",
    "city": "Thane",
    "postalCode": "400610",
    "state": "Maharashtra",
    "countryCode": "IN",
    "website": "https://www.4dcarshineautoclub.co.in/",
    "phone": "+919867269011",
    "phoneUnformatted": "+919867269011",
    "location": {
      "lat": 19.2385194,
      "lng": 72.9703015
    },
    "totalScore": 4.3,
    "permanentlyClosed": false,
    "temporarilyClosed": false,
    "placeId": "ChIJk39E5O675zsRBqSQGkHEKc4",
    "categories": [
      "Car wash",
      "Auto body shop",
      "Auto repair shop",
      "Car accessories store"
    ],
    "reviewsCount": 172,
    "imagesCount": 82,
    "openingHours": [
      {
        "day": "Monday",
        "hours": "10 AM to 8 PM"
      },
      {
        "day": "Tuesday",
        "hours": "10 AM to 8 PM"
      },
      {
        "day": "Wednesday",
        "hours": "10 AM to 8 PM"
      },
      {
        "day": "Thursday",
        "hours": "10 AM to 8 PM"
      },
      {
        "day": "Friday",
        "hours": "10 AM to 8 PM"
      },
      {
        "day": "Saturday",
        "hours": "10 AM to 8 PM"
      },
      {
        "day": "Sunday",
        "hours": "10 AM to 8 PM"
      }
    ],
    "imageUrl": "https://lh3.googleusercontent.com/gps-cs-s/AG0ilSzWOR4Sqje8NYR-bgeH72DFubOHqpfYiJ4KDdTmfaS6vkrpG6YSXfCmvuSu5tCdJD2S7ifFvJlw4YDihlqyQxQ7wzkjol1M9lt9YjPWcQrgIrvpelWJ6qPp93m6QzX0zmUx6RjBKA=w408-h545-k-no",
    "url": "https://www.google.com/maps/search/?api=1&query=4D%20Car%20shine%20%26%20Autoclub&query_place_id=ChIJk39E5O675zsRBqSQGkHEKc4"
  },
  {
    "title": "A1 Cars",
    "subTitle": "ए1 कार्स",
    "categoryName": "Used car dealer",
    "address": "Shop No G1, Ram Mandir Road, opp. Raj Residency, Bhawani Nagar, Kasarvadavali, Thane West, Thane, Maharashtra 400615, India",
    "neighborhood": "Bhawani Nagar, Kasarvadavali, Thane West",
    "street": "Shop No G1, Ram Mandir Road, opp. Raj Residency",
    "city": "Thane",
    "postalCode": "400615",
    "state": "Maharashtra",
    "countryCode": "IN",
    "phone": "+917498888277",
    "phoneUnformatted": "+917498888277",
    "location": {
      "lat": 19.2682209,
      "lng": 72.9682251
    },
    "totalScore": 4.6,
    "permanentlyClosed": false,
    "temporarilyClosed": false,
    "placeId": "ChIJV7PNkqK75zsR8qTKICfZF-g",
    "categories": [
      "Used car dealer",
      "Car dealer"
    ],
    "reviewsCount": 17,
    "imagesCount": 119,
    "openingHours": [
      {
        "day": "Monday",
        "hours": "10 AM to 9 PM"
      },
      {
        "day": "Tuesday",
        "hours": "10 AM to 9 PM"
      },
      {
        "day": "Wednesday",
        "hours": "10 AM to 9 PM"
      },
      {
        "day": "Thursday",
        "hours": "10 AM to 9 PM"
      },
      {
        "day": "Friday",
        "hours": "10 AM to 9 PM"
      },
      {
        "day": "Saturday",
        "hours": "10 AM to 9 PM"
      },
      {
        "day": "Sunday",
        "hours": "10 AM to 9 PM"
      }
    ],
    "imageUrl": "https://lh3.googleusercontent.com/p/AF1QipMgSINSdsgrrD3bI9HgsAfD9LieKATwZjsSgkkE=w408-h306-k-no",
    "url": "https://www.google.com/maps/search/?api=1&query=A1%20Cars&query_place_id=ChIJV7PNkqK75zsR8qTKICfZF-g"
  },
  {
    "title": "AMG CARS",
    "subTitle": "एएमजी कार्स",
    "categoryName": "Used car dealer",
    "address": "Survey No 152/1, Old, Mumbai - Pune Rd, next to dosti shil planet, Thane, Maharashtra 421204, India",
    "neighborhood": "Kausa, Mumbra",
    "street": "Survey No 152/1, Old, Mumbai - Pune Rd, next to dosti shil planet",
    "city": "Thane",
    "postalCode": "421204",
    "state": "Maharashtra",
    "countryCode": "IN",
    "phone": "+917977669436",
    "phoneUnformatted": "+917977669436",
    "location": {
      "lat": 19.1526204,
      "lng": 73.0350965
    },
    "totalScore": 3.9,
    "permanentlyClosed": false,
    "temporarilyClosed": false,
    "placeId": "ChIJKZ43L4m_5zsRWsKXygfm_v0",
    "categories": [
      "Used car dealer"
    ],
    "reviewsCount": 38,
    "imagesCount": 260,
    "openingHours": [
      {
        "day": "Monday",
        "hours": "10 AM to 10 PM"
      },
      {
        "day": "Tuesday",
        "hours": "10 AM to 10 PM"
      },
      {
        "day": "Wednesday",
        "hours": "10 AM to 10 PM"
      },
      {
        "day": "Thursday",
        "hours": "10 AM to 10 PM"
      },
      {
        "day": "Friday",
        "hours": "10 AM to 10 PM"
      },
      {
        "day": "Saturday",
        "hours": "10 AM to 10 PM"
      },
      {
        "day": "Sunday",
        "hours": "10 AM to 10 PM"
      }
    ],
    "imageUrl": "https://lh3.googleusercontent.com/gps-cs-s/AG0ilSxKfrDKSHnygz-z22CdzxZExrdUarvOqCU8SLqEEefsL0acziHKdkQzFOuWa94sPrnWDSGxX_Yqv7BTk2Trq8W0IpBJSSA1Kzvbz0sczh5qBBh8ahxwDLrnxO75QM0SOJk50HMl=w514-h240-k-no",
    "url": "https://www.google.com/maps/search/?api=1&query=AMG%20CARS&query_place_id=ChIJKZ43L4m_5zsRWsKXygfm_v0"
  },
  {
    "title": "Anchor luxury car rental",
    "subTitle": "एंकर लक्जरी कार रेंटल",
    "categoryName": "Car leasing service",
    "address": "Sambhaji Nagar Rd, Sambhaji Nagar, Thane West, Thane, Maharashtra 400604, India",
    "neighborhood": "Sambhaji Nagar, Thane West",
    "street": "Sambhaji Nagar Rd",
    "city": "Thane",
    "postalCode": "400604",
    "state": "Maharashtra",
    "countryCode": "IN",
    "phone": "+919324217432",
    "phoneUnformatted": "+919324217432",
    "location": {
      "lat": 19.2023941,
      "lng": 72.9614241
    },
    "permanentlyClosed": false,
    "temporarilyClosed": false,
    "placeId": "ChIJEUNA4IS55zsREHu9sqs6KYc",
    "categories": [
      "Car leasing service"
    ],
    "imagesCount": 2,
    "openingHours": [
      {
        "day": "Monday",
        "hours": "11 AM to 7 PM"
      },
      {
        "day": "Tuesday",
        "hours": "11 AM to 7 PM"
      },
      {
        "day": "Wednesday",
        "hours": "11 AM to 7 PM"
      },
      {
        "day": "Thursday",
        "hours": "11 AM to 7 PM"
      },
      {
        "day": "Friday",
        "hours": "11 AM to 7 PM"
      },
      {
        "day": "Saturday",
        "hours": "11 AM to 7 PM"
      },
      {
        "day": "Sunday",
        "hours": "11 AM to 7 PM"
      }
    ],
    "imageUrl": "https://lh3.googleusercontent.com/p/AF1QipOMiUpVLgXE88QH54WAt5RXkcpUtEAmoH9o324=w408-h306-k-no",
    "url": "https://www.google.com/maps/search/?api=1&query=Anchor%20luxury%20car%20rental&query_place_id=ChIJEUNA4IS55zsREHu9sqs6KYc"
  },
  {
    "title": "Anvei Motors Thane/Buying & Selling Pre owned cars",
    "subTitle": "अन्वेई मोटर्स थाने/बाइंग & सेलिंग प्री ओन्ड कार्स",
    "categoryName": "Car dealer",
    "address": "Folwer Valley road, opp. Jupiter hospital, D N Nagar, Runwal Nagar, Thane West, Thane, Maharashtra 400601, India",
    "neighborhood": "D N Nagar, Runwal Nagar, Thane West",
    "street": "Folwer Valley road, opp. Jupiter hospital",
    "city": "Thane",
    "postalCode": "400601",
    "state": "Maharashtra",
    "countryCode": "IN",
    "phone": "+919892304810",
    "phoneUnformatted": "+919892304810",
    "location": {
      "lat": 19.2080982,
      "lng": 72.9733372
    },
    "totalScore": 5,
    "permanentlyClosed": false,
    "temporarilyClosed": false,
    "placeId": "ChIJfeeJV6q55zsRvHH5TRieVPo",
    "categories": [
      "Car dealer"
    ],
    "reviewsCount": 180,
    "imagesCount": 222,
    "openingHours": [
      {
        "day": "Monday",
        "hours": "10:30 AM to 7 PM"
      },
      {
        "day": "Tuesday",
        "hours": "10:30 AM to 7 PM"
      },
      {
        "day": "Wednesday",
        "hours": "10:30 AM to 7 PM"
      },
      {
        "day": "Thursday",
        "hours": "10:30 AM to 7 PM"
      },
      {
        "day": "Friday",
        "hours": "10:30 AM to 7 PM"
      },
      {
        "day": "Saturday",
        "hours": "10:30 AM to 7 PM"
      },
      {
        "day": "Sunday",
        "hours": "10:30 AM to 7 PM"
      }
    ],
    "imageUrl": "https://lh3.googleusercontent.com/p/AF1QipPL3vacbVQht1AfnayyUAFn0O7xSLLnVDBIsUMh=w408-h306-k-no",
    "url": "https://www.google.com/maps/search/?api=1&query=Anvei%20Motors%20Thane%2FBuying%20%26%20Selling%20Pre%20owned%20cars&query_place_id=ChIJfeeJV6q55zsRvHH5TRieVPo"
  },
  {
    "title": "Auto Stallion",
    "subTitle": "ऑटो स्टालियन",
    "categoryName": "Used car dealer",
    "address": "Shop No. 02, Timber Market, Golden Park, Opp Jupiter Hospital Flower Valley Service Road, Gokul Nagar, Thane West, 400601, Thane, Maharashtra 400601, India",
    "neighborhood": "Gokul Nagar, Thane West",
    "street": "Shop No. 02, Timber Market, Golden Park, Opp Jupiter Hospital Flower Valley Service Road, Gokul Nagar, Thane West, 400601",
    "city": "Thane",
    "postalCode": "400601",
    "state": "Maharashtra",
    "countryCode": "IN",
    "website": "https://www.autostallion.in/",
    "phone": "+918828215772",
    "phoneUnformatted": "+918828215772",
    "location": {
      "lat": 19.210251,
      "lng": 72.9753094
    },
    "totalScore": 4.7,
    "permanentlyClosed": false,
    "temporarilyClosed": false,
    "placeId": "ChIJQR2EeErG5zsRNLn-WY-BjW0",
    "categories": [
      "Used car dealer"
    ],
    "reviewsCount": 20,
    "imagesCount": 13,
    "openingHours": [
      {
        "day": "Monday",
        "hours": "10 AM to 7:30 PM"
      },
      {
        "day": "Tuesday",
        "hours": "10 AM to 7:30 PM"
      },
      {
        "day": "Wednesday",
        "hours": "10 AM to 7:30 PM"
      },
      {
        "day": "Thursday",
        "hours": "10 AM to 7:30 PM"
      },
      {
        "day": "Friday",
        "hours": "10 AM to 7:30 PM"
      },
      {
        "day": "Saturday",
        "hours": "10 AM to 7:30 PM"
      },
      {
        "day": "Sunday",
        "hours": "10 AM to 7:30 PM"
      }
    ],
    "imageUrl": "https://lh3.googleusercontent.com/p/AF1QipPVpY_uz-i1m_llw1cRaBDTuAIm8BlORdOGIneS=w408-h544-k-no",
    "url": "https://www.google.com/maps/search/?api=1&query=Auto%20Stallion&query_place_id=ChIJQR2EeErG5zsRNLn-WY-BjW0"
  },
  {
    "title": "Autopark India Motors Pvt. Ltd. (Head Office)",
    "subTitle": "ऑटोपार्क इंडिया मोटर्स पीवीटी. एलटीडी. (हेड ऑफिस)",
    "categoryName": "Car dealer",
    "address": "Unit No. 335, Centura Square IT Park, SG Barve Rd, opp. Lanxess India, Neheru Nagar, Wagle Industrial Estate, Thane West, Thane, Maharashtra 400607, India",
    "neighborhood": "Neheru Nagar, Wagle Industrial Estate, Thane West",
    "street": "Unit No. 335, Centura Square IT Park, SG Barve Rd, opp. Lanxess India",
    "city": "Thane",
    "postalCode": "400607",
    "state": "Maharashtra",
    "countryCode": "IN",
    "website": "https://autoparkindiamotors.com/",
    "phone": "+917700999980",
    "phoneUnformatted": "+917700999980",
    "location": {
      "lat": 19.227709,
      "lng": 72.9773
    },
    "totalScore": 4.7,
    "permanentlyClosed": false,
    "temporarilyClosed": false,
    "placeId": "ChIJQxkp-Na55zsRf6ggCt3kOMY",
    "categories": [
      "Car dealer"
    ],
    "reviewsCount": 254,
    "imagesCount": 597,
    "openingHours": [
      {
        "day": "Monday",
        "hours": "10 AM to 7 PM"
      },
      {
        "day": "Tuesday",
        "hours": "10 AM to 7 PM"
      },
      {
        "day": "Wednesday",
        "hours": "10 AM to 7 PM"
      },
      {
        "day": "Thursday",
        "hours": "10 AM to 7 PM"
      },
      {
        "day": "Friday",
        "hours": "10 AM to 7 PM"
      },
      {
        "day": "Saturday",
        "hours": "10 AM to 7 PM"
      },
      {
        "day": "Sunday",
        "hours": "Closed"
      }
    ],
    "imageUrl": "https://lh3.googleusercontent.com/gps-cs-s/AG0ilSwhKT-5b1mAlC05fJMC-98jBNNdWU8c54mZLLn87YVX9RwbKKcebjLIx2UREeWqAh6s1r5xci6OlrZrlVraj8pMjU1qvmLdrnTSlk5--Cs07v40dULP1m5JmYYp6JsVdRS_BGUYre6t9a7I=w408-h544-k-no",
    "url": "https://www.google.com/maps/search/?api=1&query=Autopark%20India%20Motors%20Pvt.%20Ltd.%20(Head%20Office)&query_place_id=ChIJQxkp-Na55zsRf6ggCt3kOMY"
  },
  {
    "title": "Buy Used Cars",
    "subTitle": "बी यूज्ड कार्स",
    "categoryName": "Used car dealer",
    "address": "Vasant vihar Vasant vihar, 2, Pokhran Rd, Thane West, Thane, Maharashtra 400606, India",
    "neighborhood": "Tulsi Dham, Samata Nagar, Thane West",
    "street": "Vasant vihar Vasant vihar, 2, Pokhran Rd",
    "city": "Thane",
    "postalCode": "400606",
    "state": "Maharashtra",
    "countryCode": "IN",
    "phone": "+919819309994",
    "phoneUnformatted": "+919819309994",
    "location": {
      "lat": 19.2059511,
      "lng": 72.9580102
    },
    "totalScore": 4.9,
    "permanentlyClosed": false,
    "temporarilyClosed": false,
    "placeId": "ChIJwflIzRa55zsRsBaAlp3pATU",
    "categories": [
      "Used car dealer",
      "Auto broker",
      "Car dealer",
      "Insurance broker",
      "Life insurance agency",
      "Motor vehicle dealer",
      "Motorcycle insurance agency",
      "Used motorcycle dealer"
    ],
    "reviewsCount": 161,
    "imagesCount": 191,
    "openingHours": [
      {
        "day": "Monday",
        "hours": "10:30 AM to 9:30 PM"
      },
      {
        "day": "Tuesday",
        "hours": "10:30 AM to 9:30 PM"
      },
      {
        "day": "Wednesday",
        "hours": "10:30 AM to 9:30 PM"
      },
      {
        "day": "Thursday",
        "hours": "10:30 AM to 9:30 PM"
      },
      {
        "day": "Friday",
        "hours": "10:30 AM to 9:30 PM"
      },
      {
        "day": "Saturday",
        "hours": "10:30 AM to 9:30 PM"
      },
      {
        "day": "Sunday",
        "hours": "10:30 AM to 9:30 PM"
      }
    ],
    "imageUrl": "https://lh3.googleusercontent.com/p/AF1QipOVg_p5TNDnpFoQ23FQfOhz2vPUucC7-T7U-XsV=w408-h408-k-no",
    "url": "https://www.google.com/maps/search/?api=1&query=Buy%20Used%20Cars&query_place_id=ChIJwflIzRa55zsRsBaAlp3pATU"
  },
  {
    "title": "Car Planet Wheels",
    "subTitle": "महिंद्रा फर्स्ट चॉईस",
    "categoryName": "Used car dealer",
    "address": "No 1, Golden Park, Phase 2, Hardas Nagar, near Majiwada Flyover, Circle, Majiwada, Thane, Maharashtra 400601, India",
    "neighborhood": "Circle, Gokul Nagar, Majiwada",
    "street": "No 1, Golden Park, Phase 2, Hardas Nagar, near Majiwada Flyover",
    "city": "Thane",
    "postalCode": "400601",
    "state": "Maharashtra",
    "countryCode": "IN",
    "phone": "+919513881987",
    "phoneUnformatted": "+919513881987",
    "location": {
      "lat": 19.2112338,
      "lng": 72.9764109
    },
    "totalScore": 4.2,
    "permanentlyClosed": false,
    "temporarilyClosed": false,
    "placeId": "ChIJn0NYAUe55zsRQERNrw9AX34",
    "categories": [
      "Used car dealer",
      "Auto broker",
      "Car dealer",
      "Motor vehicle dealer",
      "Vehicle inspection service"
    ],
    "reviewsCount": 680,
    "imagesCount": 655,
    "openingHours": [
      {
        "day": "Monday",
        "hours": "10 AM to 8 PM"
      },
      {
        "day": "Tuesday",
        "hours": "10 AM to 8 PM"
      },
      {
        "day": "Wednesday",
        "hours": "10 AM to 8 PM"
      },
      {
        "day": "Thursday",
        "hours": "10 AM to 8 PM"
      },
      {
        "day": "Friday",
        "hours": "10 AM to 8 PM"
      },
      {
        "day": "Saturday",
        "hours": "10 AM to 8 PM"
      },
      {
        "day": "Sunday",
        "hours": "10 AM to 8 PM"
      }
    ],
    "imageUrl": "https://lh3.googleusercontent.com/p/AF1QipPR0G7Ivqm8UsKL8_rZ8jVVVBgngi4XBZjasi0k=w408-h306-k-no",
    "url": "https://www.google.com/maps/search/?api=1&query=Car%20Planet%20Wheels&query_place_id=ChIJn0NYAUe55zsRQERNrw9AX34"
  },
  {
    "title": "Car Planet Wheels - Best Used Car Dealer in Thane | Buy Used Cars in Thane",
    "subTitle": "कार प्लानेट व्हील्स - बेस्ट यूज्ड कार डीलर इन ठाणे | बी यूज्ड कार्स इन ठाणे",
    "categoryName": "Used car dealer",
    "address": "Boulevard Mall, LODHA PARADISE, below Mcdonald's Basement B2, Sainath Nagar, Majiwada, Thane, Maharashtra 400601, India",
    "neighborhood": "Sainath Nagar, Majiwada",
    "street": "Boulevard Mall, LODHA PARADISE, below Mcdonald's Basement B2",
    "city": "Thane",
    "postalCode": "400601",
    "state": "Maharashtra",
    "countryCode": "IN",
    "website": "https://www.carplanetwheels.com/",
    "phone": "+919833133349",
    "phoneUnformatted": "+919833133349",
    "location": {
      "lat": 19.2128618,
      "lng": 72.9855472
    },
    "totalScore": 4.7,
    "permanentlyClosed": false,
    "temporarilyClosed": false,
    "placeId": "ChIJd_WiaUO55zsRBY5FO2B1O4E",
    "categories": [
      "Used car dealer"
    ],
    "reviewsCount": 54,
    "imagesCount": 65,
    "openingHours": [
      {
        "day": "Monday",
        "hours": "10:30 AM to 8 PM"
      },
      {
        "day": "Tuesday",
        "hours": "10:30 AM to 8 PM"
      },
      {
        "day": "Wednesday",
        "hours": "10:30 AM to 8 PM"
      },
      {
        "day": "Thursday",
        "hours": "10:30 AM to 8 PM"
      },
      {
        "day": "Friday",
        "hours": "10:30 AM to 8 PM"
      },
      {
        "day": "Saturday",
        "hours": "10:30 AM to 8 PM"
      },
      {
        "day": "Sunday",
        "hours": "10:30 AM to 8 PM"
      }
    ],
    "imageUrl": "https://lh3.googleusercontent.com/p/AF1QipM4rsWa9lXVBTtKJXl-2JKUDmRKVwxiT0ExKqU=w408-h306-k-no",
    "url": "https://www.google.com/maps/search/?api=1&query=Car%20Planet%20Wheels%20-%20Best%20Used%20Car%20Dealer%20in%20Thane%20%7C%20Buy%20Used%20Cars%20in%20Thane&query_place_id=ChIJd_WiaUO55zsRBY5FO2B1O4E"
  },
  {
    "title": "Car Rent 4×4 | Self Drive Car",
    "subTitle": "कार रेंट 4*4 | सेल्फ ड्राइव कार",
    "categoryName": "Car rental agency",
    "address": "Ghodbunder Rd, Manorama Nagar, Thane West, Thane, Maharashtra 400607, India",
    "neighborhood": "Manorama Nagar, Thane West",
    "street": "Ghodbunder Rd",
    "city": "Thane",
    "postalCode": "400607",
    "state": "Maharashtra",
    "countryCode": "IN",
    "website": "https://www.instagram.com/uddjaao",
    "phone": "+918080664481",
    "phoneUnformatted": "+918080664481",
    "location": {
      "lat": 19.2316647,
      "lng": 72.9775471
    },
    "permanentlyClosed": false,
    "temporarilyClosed": false,
    "placeId": "ChIJg3cySHu55zsRfpVvnS8POag",
    "categories": [
      "Car rental agency"
    ],
    "imagesCount": 4,
    "openingHours": [],
    "imageUrl": "https://lh3.googleusercontent.com/p/AF1QipPpQq30UrIZSHRLMywDhnMl8O9oYXYUjN1idg0K=w408-h306-k-no",
    "url": "https://www.google.com/maps/search/?api=1&query=Car%20Rent%204%C3%974%20%7C%20Self%20Drive%20Car&query_place_id=ChIJg3cySHu55zsRfpVvnS8POag"
  },
  {
    "title": "Car Rentral Thane & Taxi Service Thane | ठाणे टैक्सी सर्विस",
    "categoryName": "Car rental agency",
    "address": "RUNWAL ESTATE, behind R mall, Dokali Pada, Dhokali, Thane West, Thane, Maharashtra 400607, India",
    "neighborhood": "Dokali Pada, Dhokali, Thane West",
    "street": "RUNWAL ESTATE, behind R mall",
    "city": "Thane",
    "postalCode": "400607",
    "state": "Maharashtra",
    "countryCode": "IN",
    "phone": "+917977774890",
    "phoneUnformatted": "+917977774890",
    "location": {
      "lat": 19.2304217,
      "lng": 72.9783388
    },
    "totalScore": 5,
    "permanentlyClosed": false,
    "temporarilyClosed": false,
    "placeId": "ChIJB6c54ua55zsR4Zn2cJYk1hE",
    "categories": [
      "Car rental agency",
      "Car leasing service"
    ],
    "reviewsCount": 11,
    "imagesCount": 17,
    "openingHours": [
      {
        "day": "Monday",
        "hours": "Open 24 hours"
      },
      {
        "day": "Tuesday",
        "hours": "Open 24 hours"
      },
      {
        "day": "Wednesday",
        "hours": "Open 24 hours"
      },
      {
        "day": "Thursday",
        "hours": "Open 24 hours"
      },
      {
        "day": "Friday",
        "hours": "Open 24 hours"
      },
      {
        "day": "Saturday",
        "hours": "Open 24 hours"
      },
      {
        "day": "Sunday",
        "hours": "Open 24 hours"
      }
    ],
    "imageUrl": "https://lh3.googleusercontent.com/p/AF1QipPL1QxJkejAQbEvQYMrNbbATPSQdySK0mNBwFeC=w408-h900-k-no",
    "url": "https://www.google.com/maps/search/?api=1&query=Car%20Rentral%20Thane%20%26%20Taxi%20Service%20Thane%20%7C%20%E0%A4%A0%E0%A4%BE%E0%A4%A3%E0%A5%87%20%E0%A4%9F%E0%A5%88%E0%A4%95%E0%A5%8D%E0%A4%B8%E0%A5%80%20%E0%A4%B8%E0%A4%B0%E0%A5%8D%E0%A4%B5%E0%A4%BF%E0%A4%B8&query_place_id=ChIJB6c54ua55zsR4Zn2cJYk1hE"
  },
  {
    "title": "CarsTours",
    "subTitle": "कार्स्टर्स",
    "categoryName": "Car rental agency",
    "address": "104, Nalkhande, opp. Kalwa Diagnostics, near Kalwa naka, Kalwa, Thane, Maharashtra 400605, India",
    "neighborhood": "Kalwa West, Budhaji Nagar, Kalwa",
    "street": "104, Nalkhande, opp. Kalwa Diagnostics, near Kalwa naka",
    "city": "Thane",
    "postalCode": "400605",
    "state": "Maharashtra",
    "countryCode": "IN",
    "location": {
      "lat": 19.1961397,
      "lng": 72.9884925
    },
    "totalScore": 5,
    "permanentlyClosed": false,
    "temporarilyClosed": false,
    "placeId": "ChIJYQ6PJBq55zsRCCYep68d4LE",
    "categories": [
      "Car rental agency"
    ],
    "reviewsCount": 4,
    "imagesCount": 12,
    "openingHours": [
      {
        "day": "Monday",
        "hours": "Open 24 hours"
      },
      {
        "day": "Tuesday",
        "hours": "Open 24 hours"
      },
      {
        "day": "Wednesday",
        "hours": "Open 24 hours"
      },
      {
        "day": "Thursday",
        "hours": "Open 24 hours"
      },
      {
        "day": "Friday",
        "hours": "Open 24 hours"
      },
      {
        "day": "Saturday",
        "hours": "Open 24 hours"
      },
      {
        "day": "Sunday",
        "hours": "Open 24 hours"
      }
    ],
    "imageUrl": "https://lh3.googleusercontent.com/gps-cs-s/AG0ilSzRzSlS9AiPBj-cn1vYHd1xGWn781Y6qNO6gXdYujG9QQYaBtWv3RECjkeJ7jo12jMU0LQYbxcydmKqplDCDkkY-hCK7TZJxKcywYjUbFgV-qWhU1fBN_bLepcpEmwopPwKvoEpHA=w408-h306-k-no",
    "url": "https://www.google.com/maps/search/?api=1&query=CarsTours&query_place_id=ChIJYQ6PJBq55zsRCCYep68d4LE"
  },
  {
    "title": "Comfort Tours and Travels",
    "subTitle": "कम्फर्ट टूर्स एंड ट्रैवल्स",
    "categoryName": "Car rental agency",
    "address": "Shop No 1, Gitanjali Chawl, Road No. 16/Z, Jai Bhavani Nagar, Wagle Industrial Estate, Thane West, Thane, Maharashtra 400604, India",
    "neighborhood": "Jai Bhavani Nagar, Wagle Industrial Estate, Thane West",
    "street": "Shop No 1, Gitanjali Chawl, Road No. 16/Z",
    "city": "Thane",
    "postalCode": "400604",
    "state": "Maharashtra",
    "countryCode": "IN",
    "phone": "+918369014279",
    "phoneUnformatted": "+918369014279",
    "location": {
      "lat": 19.2014634,
      "lng": 72.953971
    },
    "totalScore": 3.7,
    "permanentlyClosed": false,
    "temporarilyClosed": false,
    "placeId": "ChIJo3ILIAy55zsRgVD6Yw7zs7M",
    "categories": [
      "Car rental agency",
      "Car leasing service"
    ],
    "reviewsCount": 11,
    "imagesCount": 1,
    "openingHours": [
      {
        "day": "Monday",
        "hours": "10 AM to 7 PM"
      },
      {
        "day": "Tuesday",
        "hours": "10 AM to 7 PM"
      },
      {
        "day": "Wednesday",
        "hours": "10 AM to 7 PM"
      },
      {
        "day": "Thursday",
        "hours": "10 AM to 7 PM"
      },
      {
        "day": "Friday",
        "hours": "10 AM to 7 PM"
      },
      {
        "day": "Saturday",
        "hours": "10 AM to 7 PM"
      },
      {
        "day": "Sunday",
        "hours": "Closed"
      }
    ],
    "imageUrl": "https://streetviewpixels-pa.googleapis.com/v1/thumbnail?panoid=GlimDm4k3Hnzs8vCqfnt8Q&cb_client=search.gws-prod.gps&w=408&h=240&yaw=84.73871&pitch=0&thumbfov=100",
    "url": "https://www.google.com/maps/search/?api=1&query=Comfort%20Tours%20and%20Travels&query_place_id=ChIJo3ILIAy55zsRgVD6Yw7zs7M"
  },
  {
    "title": "DREAM AUTO",
    "subTitle": "ड्रीम ऑटो",
    "categoryName": "Used car dealer",
    "address": "SHED 1, DREAM AUTO, beside MADHV BANQUET HALL, near A.P.SHAH COLLAGE, Bhawani Nagar, Kasarvadavali, Thane West, Thane, Maharashtra 400615, India",
    "neighborhood": "Bhawani Nagar, Kasarvadavali, Thane West",
    "street": "SHED 1, DREAM AUTO, beside MADHV BANQUET HALL, near A.P.SHAH COLLAGE",
    "city": "Thane",
    "postalCode": "400615",
    "state": "Maharashtra",
    "countryCode": "IN",
    "location": {
      "lat": 19.2671017,
      "lng": 72.967031
    },
    "totalScore": 5,
    "permanentlyClosed": false,
    "temporarilyClosed": false,
    "placeId": "ChIJk_Fl1Wq75zsRqeVYZITThKg",
    "categories": [
      "Used car dealer"
    ],
    "reviewsCount": 2,
    "imagesCount": 6,
    "openingHours": [
      {
        "day": "Monday",
        "hours": "10:30 AM to 8:30 PM"
      },
      {
        "day": "Tuesday",
        "hours": "10:30 AM to 8:30 PM"
      },
      {
        "day": "Wednesday",
        "hours": "10:30 AM to 8:30 PM"
      },
      {
        "day": "Thursday",
        "hours": "10:30 AM to 8:30 PM"
      },
      {
        "day": "Friday",
        "hours": "10:30 AM to 8:30 PM"
      },
      {
        "day": "Saturday",
        "hours": "10:30 AM to 8:30 PM"
      },
      {
        "day": "Sunday",
        "hours": "10:30 AM to 8:30 PM"
      }
    ],
    "imageUrl": "https://lh3.googleusercontent.com/gps-cs-s/AG0ilSzmLLrs1C_7YsTA5Ib2BlWHm5mOTbJsNEIsc92zcLBrKDRJiuDVLX_298V9fFYjc8WpOl3EhPTOqye3LiUU-65Hp1ceiUvex77zXLO3UKIsnF-_Yob6QCbHGb-R_eXc0Rplr21BWXe5EpRa=w408-h306-k-no",
    "url": "https://www.google.com/maps/search/?api=1&query=DREAM%20AUTO&query_place_id=ChIJk_Fl1Wq75zsRqeVYZITThKg"
  },
  {
    "title": "Dadarkar's Car’s",
    "subTitle": "दादरकर'स कार'स",
    "categoryName": "Car rental agency",
    "address": "Shamshad nagar, opposite Shankar Mandir, Kausar Baug, Narayan Nagar, Mumbra, Thane, Maharashtra 400612, India",
    "neighborhood": "Kausar Baug, Narayan Nagar, Mumbra",
    "street": "Shamshad nagar, opposite Shankar Mandir",
    "city": "Thane",
    "postalCode": "400612",
    "state": "Maharashtra",
    "countryCode": "IN",
    "website": "https://dadarkarscars.com/",
    "phone": "+919004544686",
    "phoneUnformatted": "+919004544686",
    "location": {
      "lat": 19.1786437,
      "lng": 73.0228811
    },
    "totalScore": 4.9,
    "permanentlyClosed": false,
    "temporarilyClosed": false,
    "placeId": "ChIJkW_89zi_5zsRfdv69YEl-1Y",
    "categories": [
      "Car rental agency",
      "Car leasing service"
    ],
    "reviewsCount": 79,
    "imagesCount": 59,
    "openingHours": [
      {
        "day": "Monday",
        "hours": "8 AM to 12 AM"
      },
      {
        "day": "Tuesday",
        "hours": "8 AM to 12 AM"
      },
      {
        "day": "Wednesday",
        "hours": "8 AM to 12 AM"
      },
      {
        "day": "Thursday",
        "hours": "8 AM to 12 AM"
      },
      {
        "day": "Friday",
        "hours": "8 AM to 12 AM"
      },
      {
        "day": "Saturday",
        "hours": "8 AM to 12 AM"
      },
      {
        "day": "Sunday",
        "hours": "8 AM to 12 AM"
      }
    ],
    "imageUrl": "https://lh3.googleusercontent.com/p/AF1QipPQJXvP30Gdv22rAEc0VuVgme_ukCiZ2mWV_cnq=w408-h306-k-no",
    "url": "https://www.google.com/maps/search/?api=1&query=Dadarkar's%20Car%E2%80%99s&query_place_id=ChIJkW_89zi_5zsRfdv69YEl-1Y"
  },
  {
    "title": "Deepak Tours And Travels Diva And Dombivali",
    "subTitle": "दीपक दौरे आणि ट्रेवल्स दिवा आणि डोंबिवली",
    "categoryName": "Car rental agency",
    "address": "Shill Road, Diva, Thane, Maharashtra 400612, India",
    "neighborhood": "Diva",
    "street": "Shill Road",
    "city": "Thane",
    "postalCode": "400612",
    "state": "Maharashtra",
    "countryCode": "IN",
    "website": "http://deepakcarrental.com/",
    "phone": "+918290109580",
    "phoneUnformatted": "+918290109580",
    "location": {
      "lat": 19.184241,
      "lng": 73.042663
    },
    "totalScore": 4.9,
    "permanentlyClosed": false,
    "temporarilyClosed": false,
    "placeId": "ChIJjdlXw5y_5zsR6ZjR5ePfIZ4",
    "categories": [
      "Car rental agency",
      "Car leasing service",
      "Taxi service",
      "Tour operator",
      "Tourist attraction"
    ],
    "reviewsCount": 89,
    "imagesCount": 63,
    "openingHours": [
      {
        "day": "Monday",
        "hours": "8 AM to 10 PM"
      },
      {
        "day": "Tuesday",
        "hours": "8 AM to 10 PM"
      },
      {
        "day": "Wednesday",
        "hours": "8 AM to 10 PM"
      },
      {
        "day": "Thursday",
        "hours": "8 AM to 10 PM"
      },
      {
        "day": "Friday",
        "hours": "8 AM to 10 PM"
      },
      {
        "day": "Saturday",
        "hours": "8 AM to 10 PM"
      },
      {
        "day": "Sunday",
        "hours": "8 AM to 10 PM"
      }
    ],
    "imageUrl": "https://lh3.googleusercontent.com/p/AF1QipMbYrh0582zvSFcpZAw0TsgxoAQihKxdKW012JH=w408-h553-k-no",
    "url": "https://www.google.com/maps/search/?api=1&query=Deepak%20Tours%20And%20Travels%20Diva%20And%20Dombivali&query_place_id=ChIJjdlXw5y_5zsR6ZjR5ePfIZ4"
  },
  {
    "title": "Dosti Tours and Travels",
    "subTitle": "दोस्ती टूर्स एंड ट्रैवल्स",
    "categoryName": "Car rental agency",
    "address": "Shop No 01 Gr Floor, Tasmiya Tower, near Millenium Hospital, Rashid Compound, Mumbra, Thane, Maharashtra 400612, India",
    "neighborhood": "Rashid Compound, Mumbra",
    "street": "Shop No 01 Gr Floor, Tasmiya Tower, near Millenium Hospital",
    "city": "Thane",
    "postalCode": "400612",
    "state": "Maharashtra",
    "countryCode": "IN",
    "website": "https://dostitoursntravels.com/",
    "location": {
      "lat": 19.16224,
      "lng": 73.0284015
    },
    "totalScore": 4.9,
    "permanentlyClosed": false,
    "temporarilyClosed": false,
    "placeId": "ChIJmYyj6ty_5zsR5XVByFe7Up0",
    "categories": [
      "Car rental agency",
      "Car leasing service",
      "Taxi service"
    ],
    "reviewsCount": 113,
    "imagesCount": 9,
    "openingHours": [
      {
        "day": "Monday",
        "hours": "Open 24 hours"
      },
      {
        "day": "Tuesday",
        "hours": "Open 24 hours"
      },
      {
        "day": "Wednesday",
        "hours": "Open 24 hours"
      },
      {
        "day": "Thursday",
        "hours": "Open 24 hours"
      },
      {
        "day": "Friday",
        "hours": "Open 24 hours"
      },
      {
        "day": "Saturday",
        "hours": "Open 24 hours"
      },
      {
        "day": "Sunday",
        "hours": "Open 24 hours"
      }
    ],
    "imageUrl": "https://lh3.googleusercontent.com/p/AF1QipOQDujB2h67UrZYmXCTFIaExL02h8fP13Ihq7AP=w408-h306-k-no",
    "url": "https://www.google.com/maps/search/?api=1&query=Dosti%20Tours%20and%20Travels&query_place_id=ChIJmYyj6ty_5zsR5XVByFe7Up0"
  },
  {
    "title": "Everest Fleet Pvt. Ltd- Thane",
    "subTitle": "एवरेस्ट फ्लीट पीवीटी. एलटीडी- ठाणे",
    "categoryName": "Car rental agency",
    "address": "F-R-4, 4th Floor, Korum Mall Eastern Express Highway, Shahid Mangal Pandey Rd, Samata Nagar, Thane West, Maharashtra 400606, India",
    "neighborhood": "Samata Nagar, Thane West",
    "street": "F-R-4, 4th Floor, Korum Mall Eastern Express Highway, Shahid Mangal Pandey Rd",
    "city": "Thane",
    "postalCode": "400606",
    "state": "Maharashtra",
    "countryCode": "IN",
    "website": "http://www.everestfleet.com/",
    "phone": "+919736003003",
    "phoneUnformatted": "+919736003003",
    "location": {
      "lat": 19.2035083,
      "lng": 72.9646955
    },
    "totalScore": 4.1,
    "permanentlyClosed": false,
    "temporarilyClosed": false,
    "placeId": "ChIJYxEokJjJ5zsRETCUzRbG554",
    "categories": [
      "Car rental agency"
    ],
    "reviewsCount": 905,
    "imagesCount": 156,
    "openingHours": [
      {
        "day": "Monday",
        "hours": "9:30 AM to 6:30 PM"
      },
      {
        "day": "Tuesday",
        "hours": "9:30 AM to 6:30 PM"
      },
      {
        "day": "Wednesday",
        "hours": "9:30 AM to 6:30 PM"
      },
      {
        "day": "Thursday",
        "hours": "9:30 AM to 6:30 PM"
      },
      {
        "day": "Friday",
        "hours": "9:30 AM to 6:30 PM"
      },
      {
        "day": "Saturday",
        "hours": "9:30 AM to 6:30 PM"
      },
      {
        "day": "Sunday",
        "hours": "Closed"
      }
    ],
    "imageUrl": "https://lh3.googleusercontent.com/p/AF1QipOTTTmdBpu-N6RyXWObOSaDqX6tKu7YUJtmTCy6=w408-h306-k-no",
    "url": "https://www.google.com/maps/search/?api=1&query=Everest%20Fleet%20Pvt.%20Ltd-%20Thane&query_place_id=ChIJYxEokJjJ5zsRETCUzRbG554"
  },
  {
    "title": "Facilities Tours & Travels Pvt. Ltd.",
    "subTitle": "फॅसिलिटीज़ टूर्स एण्ड ट्रैव्हल्स प्रा.लि.",
    "categoryName": "Car rental agency",
    "address": "Office No. 45 Building, D Wing, Kolshet Rd, Kailash Nagar, Thane West, Thane, Maharashtra 400607, India",
    "neighborhood": "Kailash Nagar, Thane West",
    "street": "Office No. 45 Building, D Wing, Kolshet Rd",
    "city": "Thane",
    "postalCode": "400607",
    "state": "Maharashtra",
    "countryCode": "IN",
    "website": "http://facilitiestravels.com/",
    "phone": "+919223208344",
    "phoneUnformatted": "+919223208344",
    "location": {
      "lat": 19.2238593,
      "lng": 72.9789767
    },
    "totalScore": 4.6,
    "permanentlyClosed": false,
    "temporarilyClosed": false,
    "placeId": "ChIJ_9_ZK0W55zsR37tRjieDVlI",
    "categories": [
      "Car rental agency",
      "Car leasing service",
      "Taxi service",
      "Travel agency"
    ],
    "reviewsCount": 112,
    "imagesCount": 49,
    "openingHours": [
      {
        "day": "Monday",
        "hours": "Open 24 hours"
      },
      {
        "day": "Tuesday",
        "hours": "Open 24 hours"
      },
      {
        "day": "Wednesday",
        "hours": "Open 24 hours"
      },
      {
        "day": "Thursday",
        "hours": "Open 24 hours"
      },
      {
        "day": "Friday",
        "hours": "Open 24 hours"
      },
      {
        "day": "Saturday",
        "hours": "Open 24 hours"
      },
      {
        "day": "Sunday",
        "hours": "Open 24 hours"
      }
    ],
    "imageUrl": "https://lh3.googleusercontent.com/gps-cs-s/AG0ilSw2qGfxXXor43_rxlM90rLziC2YR3tHLOdsQS80miovan8rKpvlq9l6p8H95QK3t69TZmpGh4ZK6-huw9B6Uq9kCHhdrTRiu0ElMtdWy-nPkivgiV9whDhj0XAbIwHf19Qqg4QX=w458-h240-k-no",
    "url": "https://www.google.com/maps/search/?api=1&query=Facilities%20Tours%20%26%20Travels%20Pvt.%20Ltd.&query_place_id=ChIJ_9_ZK0W55zsR37tRjieDVlI"
  },
  {
    "title": "Fast Track Carz",
    "subTitle": "फास्ट ट्रैक कार्ज़",
    "categoryName": "Used car dealer",
    "address": "1A, Varun Arcade, 101C Behind Hyde Park Chitalsar, Manpada, Thane West, Thane, Maharashtra 400601, India",
    "neighborhood": "Manpada, Thane West",
    "street": "1A, Varun Arcade, 101C Behind Hyde Park Chitalsar",
    "city": "Thane",
    "postalCode": "400601",
    "state": "Maharashtra",
    "countryCode": "IN",
    "phone": "+919702056999",
    "phoneUnformatted": "+919702056999",
    "location": {
      "lat": 19.2279421,
      "lng": 72.9763672
    },
    "totalScore": 4.9,
    "permanentlyClosed": false,
    "temporarilyClosed": false,
    "placeId": "ChIJme22lfi55zsRnDwnKGnX6pc",
    "categories": [
      "Used car dealer"
    ],
    "reviewsCount": 47,
    "imagesCount": 43,
    "openingHours": [
      {
        "day": "Monday",
        "hours": "10:30 AM to 8 PM"
      },
      {
        "day": "Tuesday",
        "hours": "10:30 AM to 8 PM"
      },
      {
        "day": "Wednesday",
        "hours": "10:30 AM to 8 PM"
      },
      {
        "day": "Thursday",
        "hours": "10:30 AM to 8 PM"
      },
      {
        "day": "Friday",
        "hours": "10:30 AM to 8 PM"
      },
      {
        "day": "Saturday",
        "hours": "10:30 AM to 8 PM"
      },
      {
        "day": "Sunday",
        "hours": "10:30 AM to 8 PM"
      }
    ],
    "imageUrl": "https://lh3.googleusercontent.com/p/AF1QipPOgQWIPCQeo6k8v05FA5Rdyja2d-W2JCgtGPSK=w486-h240-k-no",
    "url": "https://www.google.com/maps/search/?api=1&query=Fast%20Track%20Carz&query_place_id=ChIJme22lfi55zsRnDwnKGnX6pc"
  },
  {
    "title": "Fortune Cars Pvt. Ltd.",
    "subTitle": "फॉर्च्यून कार्स पीवीटी. एलटीडी.",
    "categoryName": "Car dealer",
    "address": "40, Rd Number 27, Wagle Estate, Shivaji Nagar, Wagle Industrial Estate, Thane West, Thane, Maharashtra 400604, India",
    "neighborhood": "Wagle Estate, Shivaji Nagar, Wagle Industrial Estate, Thane West",
    "street": "40, Rd Number 27",
    "city": "Thane",
    "postalCode": "400604",
    "state": "Maharashtra",
    "countryCode": "IN",
    "location": {
      "lat": 19.1943771,
      "lng": 72.9451944
    },
    "permanentlyClosed": false,
    "temporarilyClosed": false,
    "placeId": "ChIJk3RDDqi55zsRGmFCB066jxg",
    "categories": [
      "Car dealer"
    ],
    "imagesCount": 1,
    "openingHours": [
      {
        "day": "Monday",
        "hours": "9:30 AM to 7 PM"
      },
      {
        "day": "Tuesday",
        "hours": "9:30 AM to 7 PM"
      },
      {
        "day": "Wednesday",
        "hours": "9:30 AM to 7 PM"
      },
      {
        "day": "Thursday",
        "hours": "9:30 AM to 7 PM"
      },
      {
        "day": "Friday",
        "hours": "9:30 AM to 7 PM"
      },
      {
        "day": "Saturday",
        "hours": "9:30 AM to 7 PM"
      },
      {
        "day": "Sunday",
        "hours": "10 AM to 5 PM"
      }
    ],
    "imageUrl": "https://streetviewpixels-pa.googleapis.com/v1/thumbnail?panoid=Px4UQSnUXi5G7l8laTgWcA&cb_client=search.gws-prod.gps&w=408&h=240&yaw=82.911285&pitch=0&thumbfov=100",
    "url": "https://www.google.com/maps/search/?api=1&query=Fortune%20Cars%20Pvt.%20Ltd.&query_place_id=ChIJk3RDDqi55zsRGmFCB066jxg"
  },
  {
    "title": "Fortune Wheels",
    "subTitle": "फॉर्च्यून व्हील्स",
    "categoryName": "Car dealer",
    "address": "Fortune Wheels, Shop no.6 Golden Park Phase 2, near Majiwada Flyover, Hardas Nagar, Thane West, Thane, Maharashtra 400601, India",
    "neighborhood": "Hardas Nagar, Gokul Nagar, Thane West",
    "street": "Fortune Wheels, Shop no.6 Golden Park Phase 2, near Majiwada Flyover",
    "city": "Thane",
    "postalCode": "400601",
    "state": "Maharashtra",
    "countryCode": "IN",
    "phone": "+919004096786",
    "phoneUnformatted": "+919004096786",
    "location": {
      "lat": 19.2112138,
      "lng": 72.9764445
    },
    "totalScore": 4.8,
    "permanentlyClosed": false,
    "temporarilyClosed": false,
    "placeId": "ChIJ2cFU82S55zsR-stNo0OtDqA",
    "categories": [
      "Car dealer"
    ],
    "reviewsCount": 12,
    "imagesCount": 41,
    "openingHours": [
      {
        "day": "Monday",
        "hours": "10 AM to 7:30 PM"
      },
      {
        "day": "Tuesday",
        "hours": "10 AM to 7:30 PM"
      },
      {
        "day": "Wednesday",
        "hours": "10 AM to 7:30 PM"
      },
      {
        "day": "Thursday",
        "hours": "10 AM to 7:30 PM"
      },
      {
        "day": "Friday",
        "hours": "10 AM to 7:30 PM"
      },
      {
        "day": "Saturday",
        "hours": "10 AM to 7:30 PM"
      },
      {
        "day": "Sunday",
        "hours": "10 AM to 6 PM"
      }
    ],
    "imageUrl": "https://lh3.googleusercontent.com/p/AF1QipOhUe35CjdGdIhuZBAz7OJ64_VC_GJPppfYx-YY=w408-h306-k-no",
    "url": "https://www.google.com/maps/search/?api=1&query=Fortune%20Wheels&query_place_id=ChIJ2cFU82S55zsR-stNo0OtDqA"
  },
  {
    "title": "G T AUTO",
    "subTitle": "जी टी ऑटो",
    "categoryName": "Car dealer",
    "address": "Bhakti Mandir Rd, near Kerosene Oil Pump Depot, Deep Jyoti Society, Bhakti Mandir, Panch Pakhdi, Thane West, Thane, Maharashtra 400602, India",
    "neighborhood": "Deep Jyoti Society, Bhakti Mandir, Panch Pakhdi, Thane West",
    "street": "Bhakti Mandir Rd, near Kerosene Oil Pump Depot",
    "city": "Thane",
    "postalCode": "400602",
    "state": "Maharashtra",
    "countryCode": "IN",
    "website": "https://www.gtauto.in/",
    "phone": "+919870706070",
    "phoneUnformatted": "+919870706070",
    "location": {
      "lat": 19.191575,
      "lng": 72.965115
    },
    "totalScore": 4.8,
    "permanentlyClosed": false,
    "temporarilyClosed": false,
    "placeId": "ChIJzU6XSRm55zsRqSyBZX0cp8g",
    "categories": [
      "Car dealer"
    ],
    "reviewsCount": 216,
    "imagesCount": 175,
    "openingHours": [
      {
        "day": "Monday",
        "hours": "10 AM to 7 PM"
      },
      {
        "day": "Tuesday",
        "hours": "10 AM to 7 PM"
      },
      {
        "day": "Wednesday",
        "hours": "10 AM to 7 PM"
      },
      {
        "day": "Thursday",
        "hours": "10 AM to 7 PM"
      },
      {
        "day": "Friday",
        "hours": "10 AM to 7 PM"
      },
      {
        "day": "Saturday",
        "hours": "10 AM to 7 PM"
      },
      {
        "day": "Sunday",
        "hours": "Closed"
      }
    ],
    "imageUrl": "https://lh3.googleusercontent.com/p/AF1QipP7t-vtubvAT-NbcSQJBR3tEVq8oZd_aLJnx4t0=w408-h306-k-no",
    "url": "https://www.google.com/maps/search/?api=1&query=G%20T%20AUTO&query_place_id=ChIJzU6XSRm55zsRqSyBZX0cp8g"
  },
  {
    "title": "G.M. AUTO",
    "subTitle": "जी.एम. ऑटो",
    "categoryName": "Used car dealer",
    "address": "UNIT 2A, BATA COMPOUND, GM AUTO, Khopat, Hans Nagar, Thane West, Maharashtra 400601, India",
    "neighborhood": "Khopat, Hans Nagar, Thane West",
    "street": "UNIT 2A, BATA COMPOUND, GM AUTO",
    "city": "Thane",
    "postalCode": "400601",
    "state": "Maharashtra",
    "countryCode": "IN",
    "website": "https://www.gmautoindia.com/",
    "phone": "+919819738889",
    "phoneUnformatted": "+919819738889",
    "location": {
      "lat": 19.2053549,
      "lng": 72.9712762
    },
    "totalScore": 4.8,
    "permanentlyClosed": false,
    "temporarilyClosed": false,
    "placeId": "ChIJgfBnX8W55zsR6QKWKsCHTe4",
    "categories": [
      "Used car dealer",
      "Auto insurance agency",
      "Car dealer",
      "Car finance and loan company"
    ],
    "reviewsCount": 175,
    "imagesCount": 305,
    "openingHours": [
      {
        "day": "Monday",
        "hours": "10:30 AM to 9 PM"
      },
      {
        "day": "Tuesday",
        "hours": "10:30 AM to 9 PM"
      },
      {
        "day": "Wednesday",
        "hours": "10:30 AM to 9 PM"
      },
      {
        "day": "Thursday",
        "hours": "10:30 AM to 9 PM"
      },
      {
        "day": "Friday",
        "hours": "10:30 AM to 9 PM"
      },
      {
        "day": "Saturday",
        "hours": "10:30 AM to 9 PM"
      },
      {
        "day": "Sunday",
        "hours": "10:30 AM to 9 PM"
      }
    ],
    "imageUrl": "https://lh3.googleusercontent.com/p/AF1QipPOlmShKT1itkfJueN1VDyJrSoulVuWIsJplZVh=w426-h240-k-no",
    "url": "https://www.google.com/maps/search/?api=1&query=G.M.%20AUTO&query_place_id=ChIJgfBnX8W55zsR6QKWKsCHTe4"
  },
  {
    "title": "INDIA CARS",
    "subTitle": "इंडिया कार्स",
    "categoryName": "Car dealer",
    "address": "Dev Darshan and DDCHS, Dongripada, Thane West, Thane, Maharashtra 400615, India",
    "neighborhood": "Dongripada, Thane West",
    "street": "Dev Darshan and DDCHS",
    "city": "Thane",
    "postalCode": "400615",
    "state": "Maharashtra",
    "countryCode": "IN",
    "phone": "+919004318434",
    "phoneUnformatted": "+919004318434",
    "location": {
      "lat": 19.2511191,
      "lng": 72.9723368
    },
    "totalScore": 5,
    "permanentlyClosed": false,
    "temporarilyClosed": false,
    "placeId": "ChIJW1nCiX675zsRHYtbxLV82fM",
    "categories": [
      "Car dealer"
    ],
    "reviewsCount": 12,
    "imagesCount": 56,
    "openingHours": [
      {
        "day": "Monday",
        "hours": "9:30 AM to 7:30 PM"
      },
      {
        "day": "Tuesday",
        "hours": "9:30 AM to 7:30 PM"
      },
      {
        "day": "Wednesday",
        "hours": "9:30 AM to 7:30 PM"
      },
      {
        "day": "Thursday",
        "hours": "9:30 AM to 7:30 PM"
      },
      {
        "day": "Friday",
        "hours": "9:30 AM to 7:30 PM"
      },
      {
        "day": "Saturday",
        "hours": "9:30 AM to 7:30 PM"
      },
      {
        "day": "Sunday",
        "hours": "9:30 AM to 7:45 PM"
      }
    ],
    "imageUrl": "https://lh3.googleusercontent.com/gps-cs-s/AG0ilSziot6crNIRIDI-wUleCHQ1hNv_wfqzAgZryotKWCfOgu8SmyrhjIGSPTZAQrAj4_VFWOiK7ApL4YKU4jNOO55YTEtMcWuElQZGjzzyFm7wwovU1w7On40gdp5rDsFrj-AB5YaOHw=w408-h306-k-no",
    "url": "https://www.google.com/maps/search/?api=1&query=INDIA%20CARS&query_place_id=ChIJW1nCiX675zsRHYtbxLV82fM"
  },
  {
    "title": "IVY Rides | self-drive cars",
    "subTitle": "आइवी राइड्स | सेल्फ-ड्राइव कार्स",
    "categoryName": "Car rental agency",
    "address": "Pride Residency, Ghodbunder Rd, above EDEN supermarket, Vihang Valley Phase 1, Sai Nagar, Kasarvadavali, Thane West, Thane, Maharashtra 400615, India",
    "neighborhood": "Vihang Valley Phase 1, Sai Nagar, Kasarvadavali, Thane West",
    "street": "Pride Residency, Ghodbunder Rd, above EDEN supermarket",
    "city": "Thane",
    "postalCode": "400615",
    "state": "Maharashtra",
    "countryCode": "IN",
    "website": "http://ivyrides.in/",
    "phone": "+918591177088",
    "phoneUnformatted": "+918591177088",
    "location": {
      "lat": 19.2649776,
      "lng": 72.9636806
    },
    "totalScore": 4.7,
    "permanentlyClosed": false,
    "temporarilyClosed": false,
    "placeId": "ChIJF52nhI-75zsRu-JPaYiIIMA",
    "categories": [
      "Car rental agency",
      "Car leasing service",
      "Car sharing location",
      "Leasing service",
      "Transportation service"
    ],
    "reviewsCount": 88,
    "imagesCount": 13,
    "openingHours": [
      {
        "day": "Monday",
        "hours": "Open 24 hours"
      },
      {
        "day": "Tuesday",
        "hours": "Open 24 hours"
      },
      {
        "day": "Wednesday",
        "hours": "Open 24 hours"
      },
      {
        "day": "Thursday",
        "hours": "Open 24 hours"
      },
      {
        "day": "Friday",
        "hours": "Open 24 hours"
      },
      {
        "day": "Saturday",
        "hours": "Open 24 hours"
      },
      {
        "day": "Sunday",
        "hours": "Open 24 hours"
      }
    ],
    "imageUrl": "https://lh3.googleusercontent.com/gps-cs-s/AG0ilSwtvk7FRI0IetI7xLD8I3768j1v6bi1axb8PCYENntjQNkp0EwwbIp16UeDZhMHchJWsiXj3ae-ogDZoe_iyGRtB6mF1CikB_cB8nVOf-AKyupOuasNT8ccEGWRBjPkk6AQJZhtNGx1SnQ=w408-h544-k-no",
    "url": "https://www.google.com/maps/search/?api=1&query=IVY%20Rides%20%7C%20self-drive%20cars&query_place_id=ChIJF52nhI-75zsRu-JPaYiIIMA"
  },
  {
    "title": "IndiCar",
    "subTitle": "इंडीकार",
    "categoryName": "Car dealer",
    "address": "Office No. 6, Vasant Kunj Lane, off HIRANANDANI MEADOWS, Lok Puram, Pawar Nagar, Thane West, Thane, Maharashtra 400610, India",
    "neighborhood": "Lok Puram, Pawar Nagar, Thane West",
    "street": "Office No. 6, Vasant Kunj Lane, off HIRANANDANI MEADOWS",
    "city": "Thane",
    "postalCode": "400610",
    "state": "Maharashtra",
    "countryCode": "IN",
    "website": "http://www.indicar.in/",
    "phone": "+917977818112",
    "phoneUnformatted": "+917977818112",
    "location": {
      "lat": 19.2279542,
      "lng": 72.9681066
    },
    "totalScore": 5,
    "permanentlyClosed": false,
    "temporarilyClosed": false,
    "placeId": "ChIJ8X6oS8S55zsRoiINAV-imaU",
    "categories": [
      "Car dealer",
      "Auto broker",
      "Auto insurance agency",
      "Auto market",
      "Car finance and loan company",
      "Loan agency",
      "Motoring club"
    ],
    "reviewsCount": 11,
    "imagesCount": 1,
    "openingHours": [
      {
        "day": "Monday",
        "hours": "9 AM to 8 PM"
      },
      {
        "day": "Tuesday",
        "hours": "9 AM to 8 PM"
      },
      {
        "day": "Wednesday",
        "hours": "9 AM to 8 PM"
      },
      {
        "day": "Thursday",
        "hours": "9 AM to 8 PM"
      },
      {
        "day": "Friday",
        "hours": "9 AM to 8 PM"
      },
      {
        "day": "Saturday",
        "hours": "9 AM to 8 PM"
      },
      {
        "day": "Sunday",
        "hours": "9 AM to 8 PM"
      }
    ],
    "imageUrl": "https://streetviewpixels-pa.googleapis.com/v1/thumbnail?panoid=eMYoNT146IzO1lQKw9ijZQ&cb_client=search.gws-prod.gps&w=408&h=240&yaw=59.254166&pitch=0&thumbfov=100",
    "url": "https://www.google.com/maps/search/?api=1&query=IndiCar&query_place_id=ChIJ8X6oS8S55zsRoiINAV-imaU"
  },
  {
    "title": "Kia Car Showroom - Rac Kia, Wagle Industrial Area",
    "subTitle": "किआ कार शोरूम - आरएसी किया, वागले इंडस्ट्रियल एरिया",
    "categoryName": "Car dealer",
    "address": "Plot No A 84/85, Road No. 16, opposite Dwarka Hotel, Neheru Nagar, Wagle Industrial Estate, Thane West, Thane, Maharashtra 400604, India",
    "neighborhood": "Neheru Nagar, Wagle Industrial Estate, Thane West",
    "street": "Plot No A 84/85, Road No. 16, opposite Dwarka Hotel",
    "city": "Thane",
    "postalCode": "400604",
    "state": "Maharashtra",
    "countryCode": "IN",
    "website": "https://kiaindia-dealers.com/kia-car-showroom-rac-kia-wagle-industrial-area-rac-kia-car-dealer-wagle-industrial-area-thane-344919/Home?utm_source=locator&utm_medium=googleplaces",
    "phone": "+918655327735",
    "phoneUnformatted": "+918655327735",
    "location": {
      "lat": 19.1939254,
      "lng": 72.9529502
    },
    "totalScore": 4.9,
    "permanentlyClosed": false,
    "temporarilyClosed": false,
    "placeId": "ChIJnUdbeAC55zsRTsAvKzZDmWg",
    "categories": [
      "Car dealer",
      "Auto parts store",
      "Car accessories store",
      "Kia dealer"
    ],
    "reviewsCount": 577,
    "imagesCount": 146,
    "openingHours": [
      {
        "day": "Monday",
        "hours": "10 AM to 6 PM"
      },
      {
        "day": "Tuesday",
        "hours": "10 AM to 6 PM"
      },
      {
        "day": "Wednesday",
        "hours": "10 AM to 6 PM"
      },
      {
        "day": "Thursday",
        "hours": "10 AM to 6 PM"
      },
      {
        "day": "Friday",
        "hours": "10 AM to 6 PM"
      },
      {
        "day": "Saturday",
        "hours": "10 AM to 6 PM"
      },
      {
        "day": "Sunday",
        "hours": "10 AM to 6 PM"
      }
    ],
    "imageUrl": "https://lh3.googleusercontent.com/gps-cs-s/AG0ilSwLC9ZI-cxPl_-ImsuMv0Pm0AUKvqofwU8wJ3ut_0BmDFlQ_XWWYbk_ImvBr7UjCWvpgdpi66_BekgIsN6zFYbaTwtuEZrArdGDuOutXmye2N6jMVZb35_S3xS_s-OjPRLV6c9H5w=w408-h544-k-no",
    "url": "https://www.google.com/maps/search/?api=1&query=Kia%20Car%20Showroom%20-%20Rac%20Kia%2C%20Wagle%20Industrial%20Area&query_place_id=ChIJnUdbeAC55zsRTsAvKzZDmWg"
  },
  {
    "title": "Kothare tours and travel",
    "subTitle": "कोठारे दौरे आणि ट्रॅव्हल",
    "categoryName": "Car rental agency",
    "address": "Ghodbunder Rd, Patlipada Village, Thane West, Thane, Maharashtra 400615, India",
    "neighborhood": "Patlipada Village, Thane West",
    "street": "Ghodbunder Rd",
    "city": "Thane",
    "postalCode": "400615",
    "state": "Maharashtra",
    "countryCode": "IN",
    "website": "http://www.kotharetravels.in/",
    "phone": "+919175491180",
    "phoneUnformatted": "+919175491180",
    "location": {
      "lat": 19.2511182,
      "lng": 72.9741336
    },
    "totalScore": 4.9,
    "permanentlyClosed": false,
    "temporarilyClosed": false,
    "placeId": "ChIJg1wgS7S75zsRxsgIh7ne7Gs",
    "categories": [
      "Car rental agency",
      "Airline ticket agency",
      "Airport shuttle service",
      "Car leasing service",
      "Taxi service",
      "Passport agent",
      "Tour agency",
      "Tour operator",
      "Travel agency",
      "Visa consulting service"
    ],
    "reviewsCount": 142,
    "imagesCount": 296,
    "openingHours": [],
    "imageUrl": "https://lh3.googleusercontent.com/p/AF1QipMJor4_MEKjx_eOgo773XRfQX6J-Qu0UhJzrglP=w408-h408-k-no",
    "url": "https://www.google.com/maps/search/?api=1&query=Kothare%20tours%20and%20travel&query_place_id=ChIJg1wgS7S75zsRxsgIh7ne7Gs"
  },
  {
    "title": "Luxury self drive cars",
    "subTitle": "लक्जरी सेल्फ ड्राइव कार्स",
    "categoryName": "Car leasing service",
    "address": "Rutu city, Ghodbunder Rd, Sanghavi Hills, Parkwoods, Thane West, Thane, Maharashtra 400615, India",
    "neighborhood": "Sanghavi Hills, Parkwoods, Thane West",
    "street": "Rutu city, Ghodbunder Rd",
    "city": "Thane",
    "postalCode": "400615",
    "state": "Maharashtra",
    "countryCode": "IN",
    "location": {
      "lat": 19.2582701,
      "lng": 72.9626979
    },
    "permanentlyClosed": false,
    "temporarilyClosed": false,
    "placeId": "ChIJH-hWh--75zsRCPq3KqL_AA4",
    "categories": [
      "Car leasing service"
    ],
    "imagesCount": 2,
    "openingHours": [
      {
        "day": "Monday",
        "hours": "Open 24 hours"
      },
      {
        "day": "Tuesday",
        "hours": "Open 24 hours"
      },
      {
        "day": "Wednesday",
        "hours": "Open 24 hours"
      },
      {
        "day": "Thursday",
        "hours": "Open 24 hours"
      },
      {
        "day": "Friday",
        "hours": "Open 24 hours"
      },
      {
        "day": "Saturday",
        "hours": "Open 24 hours"
      },
      {
        "day": "Sunday",
        "hours": "Open 24 hours"
      }
    ],
    "imageUrl": "https://lh3.googleusercontent.com/p/AF1QipOyYFTxyaGSwLytsswyt-nmQkrhuVMjOoBi3V-U=w408-h408-k-no",
    "url": "https://www.google.com/maps/search/?api=1&query=Luxury%20self%20drive%20cars&query_place_id=ChIJH-hWh--75zsRCPq3KqL_AA4"
  },
  {
    "title": "MG Select Tejpal Showroom",
    "subTitle": "एमजी सलेक्ट तेजपाल शोरूम",
    "categoryName": "Car dealer",
    "address": "opp. SURAJ WATER PARK, WAGHBIL, Thane West, Thane, Maharashtra 400615, India",
    "neighborhood": "WAGHBIL, Thane West",
    "street": "opp. SURAJ WATER PARK",
    "city": "Thane",
    "postalCode": "400615",
    "state": "Maharashtra",
    "countryCode": "IN",
    "website": "https://www.mgselect.co.in/dealer/thane-tejpal-motors",
    "phone": "+919099140000",
    "phoneUnformatted": "+919099140000",
    "location": {
      "lat": 19.256098,
      "lng": 72.9715348
    },
    "totalScore": 5,
    "permanentlyClosed": false,
    "temporarilyClosed": false,
    "placeId": "ChIJ61RW15m75zsR3x_ZMEwET6s",
    "categories": [
      "Car dealer"
    ],
    "reviewsCount": 8,
    "imagesCount": 12,
    "openingHours": [
      {
        "day": "Monday",
        "hours": "9:30 AM to 6:30 PM"
      },
      {
        "day": "Tuesday",
        "hours": "9:30 AM to 6:30 PM"
      },
      {
        "day": "Wednesday",
        "hours": "9:30 AM to 6:30 PM"
      },
      {
        "day": "Thursday",
        "hours": "9:30 AM to 6:30 PM"
      },
      {
        "day": "Friday",
        "hours": "9:30 AM to 6:30 PM"
      },
      {
        "day": "Saturday",
        "hours": "9:30 AM to 6:30 PM"
      },
      {
        "day": "Sunday",
        "hours": "11 AM to 6 PM"
      }
    ],
    "imageUrl": "https://lh3.googleusercontent.com/gps-cs-s/AG0ilSygryQozciTSe2aIkgeDznw4qp7cIqFC_EF_UdaI33oUT4RwkVwxgAuOEQwYXDxIS8racqSn-JseBGIwBxgGZ1n9fP5-CiNNcm6kU9iQMPAeLk8mt0OsiNMbiP1oRXfPQdxjpUbLT2SbR8=w408-h544-k-no",
    "url": "https://www.google.com/maps/search/?api=1&query=MG%20Select%20Tejpal%20Showroom&query_place_id=ChIJ61RW15m75zsR3x_ZMEwET6s"
  },
  {
    "title": "MOTORING AHEAD",
    "subTitle": "मोटरिंग अहेड",
    "categoryName": "Car dealer",
    "address": "Bungalow No: 10, Vijay Garden, Ghodbunder Rd, near Kevalya Hospital, near IndusInd Bank, Kavesar, Thane West, Thane, Maharashtra 400615, India",
    "neighborhood": "Kavesar, Thane West",
    "street": "Bungalow No: 10, Vijay Garden, Ghodbunder Rd, near Kevalya Hospital, near IndusInd Bank",
    "city": "Thane",
    "postalCode": "400615",
    "state": "Maharashtra",
    "countryCode": "IN",
    "website": "http://motoringahead.com/",
    "phone": "+919821160388",
    "phoneUnformatted": "+919821160388",
    "location": {
      "lat": 19.2620866,
      "lng": 72.9733576
    },
    "totalScore": 5,
    "permanentlyClosed": false,
    "temporarilyClosed": false,
    "placeId": "ChIJq6peiZa75zsRV2-PbmKL_1s",
    "categories": [
      "Car dealer",
      "Auto insurance agency",
      "Auto tune up service",
      "Auto upholsterer",
      "Motor vehicle dealer"
    ],
    "reviewsCount": 5,
    "imagesCount": 1009,
    "openingHours": [
      {
        "day": "Monday",
        "hours": "9 AM to 6:30 PM"
      },
      {
        "day": "Tuesday",
        "hours": "9 AM to 6:30 PM"
      },
      {
        "day": "Wednesday",
        "hours": "9 AM to 6:30 PM"
      },
      {
        "day": "Thursday",
        "hours": "9 AM to 6:30 PM"
      },
      {
        "day": "Friday",
        "hours": "9 AM to 6:30 PM"
      },
      {
        "day": "Saturday",
        "hours": "9 AM to 5 PM"
      },
      {
        "day": "Sunday",
        "hours": "10 AM to 5 PM"
      }
    ],
    "imageUrl": "https://lh3.googleusercontent.com/gps-cs-s/AG0ilSxCg7OhPgOJK0MwzZDIDB0BLLJ7YNLprwu_YxBGOjxoOzuW71mLmbX4gPiCnhhgSCkGSBanaNmnPl1j6Fke-t4QDAsqkDef8UChfEPcWlQOX0cEYMBmZ1yGG4rT9slDGI_AVexrKg=w425-h240-k-no",
    "url": "https://www.google.com/maps/search/?api=1&query=MOTORING%20AHEAD&query_place_id=ChIJq6peiZa75zsRV2-PbmKL_1s"
  },
  {
    "title": "Magical Wheels",
    "subTitle": "मैजिकल व्हील्स",
    "categoryName": "Used car dealer",
    "address": "Dutta Krupa CHS, Shop No A-9& A-10, Near Lerida Hotel Eastern Express Highway, Service Rd, Narli Pada, Thane, Maharashtra 400601, India",
    "neighborhood": "D N Nagar, Runwal Nagar, Narli Pada",
    "street": "Dutta Krupa CHS, Shop No A-9& A-10, Near Lerida Hotel Eastern Express Highway, Service Rd",
    "city": "Thane",
    "postalCode": "400601",
    "state": "Maharashtra",
    "countryCode": "IN",
    "phone": "+917481077777",
    "phoneUnformatted": "+917481077777",
    "location": {
      "lat": 19.2085872,
      "lng": 72.973734
    },
    "totalScore": 3.2,
    "permanentlyClosed": false,
    "temporarilyClosed": true,
    "placeId": "ChIJQZ2CXj-55zsRYtyMiReMdJk",
    "categories": [
      "Used car dealer"
    ],
    "reviewsCount": 25,
    "imagesCount": 5,
    "openingHours": [],
    "imageUrl": "https://lh3.googleusercontent.com/gps-cs-s/AG0ilSzWTJ8rABLR4_Xmo3e2dd43I92apvtuZ1gBqSb2IJW_sRWAYIyVVMlLuiNNihLJzF-vVKrLas9UINZKCYpe5LMchJfZyMLUnQbAV7AowOxEOudz41UGAfDWygiFi1QHUMPBQ2ka=w408-h725-k-no",
    "url": "https://www.google.com/maps/search/?api=1&query=Magical%20Wheels&query_place_id=ChIJQZ2CXj-55zsRYtyMiReMdJk"
  },
  {
    "title": "Mahindra Modi - Thane Showroom",
    "subTitle": "महिंद्रा मोदी - ठाणे शोरूम",
    "categoryName": "Car dealer",
    "address": "Survey No 412, RD, Ashar Compound, Rd Number 27, Wagle Industrial Estate, Thane West, Thane, Maharashtra 400604, India",
    "neighborhood": "Wagle Industrial Estate, Thane West",
    "street": "Survey No 412, RD, Ashar Compound, Rd Number 27",
    "city": "Thane",
    "postalCode": "400604",
    "state": "Maharashtra",
    "countryCode": "IN",
    "website": "https://arnavautomobiles.com/",
    "phone": "+912269565500",
    "phoneUnformatted": "+912269565500",
    "location": {
      "lat": 19.1944532,
      "lng": 72.946498
    },
    "totalScore": 4.8,
    "permanentlyClosed": false,
    "temporarilyClosed": false,
    "placeId": "ChIJUROBAbS55zsRcDEhwKr8tcs",
    "categories": [
      "Car dealer"
    ],
    "reviewsCount": 4082,
    "imagesCount": 307,
    "openingHours": [
      {
        "day": "Monday",
        "hours": "10 AM to 7 PM"
      },
      {
        "day": "Tuesday",
        "hours": "10 AM to 7 PM"
      },
      {
        "day": "Wednesday",
        "hours": "10 AM to 7 PM"
      },
      {
        "day": "Thursday",
        "hours": "10 AM to 7 PM"
      },
      {
        "day": "Friday",
        "hours": "10 AM to 7 PM"
      },
      {
        "day": "Saturday",
        "hours": "10 AM to 7 PM"
      },
      {
        "day": "Sunday",
        "hours": "10 AM to 7 PM"
      }
    ],
    "imageUrl": "https://lh3.googleusercontent.com/gps-cs-s/AG0ilSysH6NSpPACqsbEhWHuixXFoYbacCmeZCnJ3irFfR7JDvrHgmgqT_W1zRu1101E_fzdXlbSB8PKcAwqF9hpkzkoeQUghL2isonUpkeZkcW5nUvcKgb0EuDI3fYV8gXaB-xFl0ep=w408-h544-k-no",
    "url": "https://www.google.com/maps/search/?api=1&query=Mahindra%20Modi%20-%20Thane%20Showroom&query_place_id=ChIJUROBAbS55zsRcDEhwKr8tcs"
  },
  {
    "title": "Morya Cars Pvt Ltd Thane Showroom",
    "subTitle": "मोरया कार्स पीवीटी एलटीडी ठाणे शोरूम",
    "categoryName": "Used car dealer",
    "address": "opp. Suraj Water Park, near HDFC Bank, Patlipada, Thane West, Thane, Maharashtra 400615, India",
    "neighborhood": "Patlipada, Thane West",
    "street": "opp. Suraj Water Park, near HDFC Bank",
    "city": "Thane",
    "postalCode": "400615",
    "state": "Maharashtra",
    "countryCode": "IN",
    "location": {
      "lat": 19.2497771,
      "lng": 72.9741591
    },
    "totalScore": 5,
    "permanentlyClosed": false,
    "temporarilyClosed": false,
    "placeId": "ChIJhRKf7a-75zsR7qrZb2Q_ftU",
    "categories": [
      "Used car dealer"
    ],
    "reviewsCount": 8,
    "imagesCount": 4,
    "openingHours": [
      {
        "day": "Monday",
        "hours": "11 AM to 7:30 PM"
      },
      {
        "day": "Tuesday",
        "hours": "11 AM to 7:30 PM"
      },
      {
        "day": "Wednesday",
        "hours": "11 AM to 7:30 PM"
      },
      {
        "day": "Thursday",
        "hours": "11 AM to 7:30 PM"
      },
      {
        "day": "Friday",
        "hours": "11 AM to 7:30 PM"
      },
      {
        "day": "Saturday",
        "hours": "11 AM to 7:30 PM"
      },
      {
        "day": "Sunday",
        "hours": "10:30 AM to 6:30 PM"
      }
    ],
    "imageUrl": "https://lh3.googleusercontent.com/gps-cs-s/AG0ilSwqok5TAMzrrF7mvUViCbpkDPxxe0e7sp0bco7RV70n92LCwQkjD_PO5WJuUuFFd9xP_b3eoPDv1jwQYTj1HjH-BKs9FrjNDw6_GipQ3r48D5pP1pGCIkNJ2JgQkZTWWSnVEcZph8X8JxHP=w408-h306-k-no",
    "url": "https://www.google.com/maps/search/?api=1&query=Morya%20Cars%20Pvt%20Ltd%20Thane%20Showroom&query_place_id=ChIJhRKf7a-75zsR7qrZb2Q_ftU"
  },
  {
    "title": "Mrjetex Car Rental",
    "subTitle": "मर्जटेक्स कार रेंटल",
    "categoryName": "Car rental agency",
    "address": "102B, Prestige Chamber, West, opposite Maurya Hotel, near Thane Station, Jambli Naka, Thane West, Thane, Maharashtra 400602, India",
    "neighborhood": "Jambli Naka, Thane West",
    "street": "102B, Prestige Chamber, West, opposite Maurya Hotel, near Thane Station",
    "city": "Thane",
    "postalCode": "400602",
    "state": "Maharashtra",
    "countryCode": "IN",
    "website": "https://www.mrjetex.com/",
    "phone": "+918652863020",
    "phoneUnformatted": "+918652863020",
    "location": {
      "lat": 19.1868694,
      "lng": 72.9765241
    },
    "totalScore": 5,
    "permanentlyClosed": false,
    "temporarilyClosed": false,
    "placeId": "ChIJYSmHyEm55zsRZal64deuqPU",
    "categories": [
      "Car rental agency",
      "Car leasing service",
      "Taxi service",
      "Tour operator"
    ],
    "reviewsCount": 20,
    "imagesCount": 48,
    "openingHours": [
      {
        "day": "Monday",
        "hours": "8 AM to 10 PM"
      },
      {
        "day": "Tuesday",
        "hours": "8 AM to 10 PM"
      },
      {
        "day": "Wednesday",
        "hours": "8 AM to 10 PM"
      },
      {
        "day": "Thursday",
        "hours": "8 AM to 10 PM"
      },
      {
        "day": "Friday",
        "hours": "8 AM to 10 PM"
      },
      {
        "day": "Saturday",
        "hours": "8 AM to 10 PM"
      },
      {
        "day": "Sunday",
        "hours": "9 AM to 10 PM"
      }
    ],
    "imageUrl": "https://lh3.googleusercontent.com/p/AF1QipPpylbQ6xl_G_czk8JyO4_s-MthBPU0-QAMi6Ol=w408-h408-k-no",
    "url": "https://www.google.com/maps/search/?api=1&query=Mrjetex%20Car%20Rental&query_place_id=ChIJYSmHyEm55zsRZal64deuqPU"
  },
  {
    "title": "NAVNIT MOTORS PVT. LTD. NAVNIT MOTORS THANE WS BMW",
    "subTitle": "नवनीत मोटर्स पीवीटी. एलटीडी. नवनीत मोटर्स ठाणे डब्ल्यूएस बीएमडब्लू",
    "categoryName": "Car repair and maintenance service",
    "address": "Navnit House, Old Mumbai – Agra Road, Gokul Nagar, Thane West, Thane, Maharashtra 400601, India",
    "neighborhood": "Gokul Nagar, Thane West",
    "street": "Navnit House, Old Mumbai – Agra Road",
    "city": "Thane",
    "postalCode": "400601",
    "state": "Maharashtra",
    "countryCode": "IN",
    "website": "https://www.bmw-navnitmotors-mumbai.in/",
    "phone": "+912242211111",
    "phoneUnformatted": "+912242211111",
    "location": {
      "lat": 19.2098454,
      "lng": 72.9780983
    },
    "totalScore": 4.2,
    "permanentlyClosed": false,
    "temporarilyClosed": false,
    "placeId": "ChIJf470YUe55zsRM8rTMj0MoI4",
    "categories": [
      "Car repair and maintenance service",
      "Auto repair shop"
    ],
    "reviewsCount": 418,
    "imagesCount": 159,
    "openingHours": [
      {
        "day": "Monday",
        "hours": "9:30 AM to 6 PM"
      },
      {
        "day": "Tuesday",
        "hours": "9:30 AM to 6 PM"
      },
      {
        "day": "Wednesday",
        "hours": "9:30 AM to 6 PM"
      },
      {
        "day": "Thursday",
        "hours": "9:30 AM to 6 PM"
      },
      {
        "day": "Friday",
        "hours": "9:30 AM to 6 PM"
      },
      {
        "day": "Saturday",
        "hours": "9:30 AM to 6 PM"
      },
      {
        "day": "Sunday",
        "hours": "Closed"
      }
    ],
    "imageUrl": "https://lh3.googleusercontent.com/gps-cs-s/AG0ilSxiSNYb0jzBgozldqbxO_MbiModJw06jbMbbK-KCTqzwjrP-owPf0DmpzVRBIwB6xEmVDuodkMRVEh20hZxQQFzGav0fOWJvcoaeQC8qHeKv_-EgvIqGwz3623UrTFEyBLUeJoebA=w426-h240-k-no",
    "url": "https://www.google.com/maps/search/?api=1&query=NAVNIT%20MOTORS%20PVT.%20LTD.%20NAVNIT%20MOTORS%20THANE%20WS%20BMW&query_place_id=ChIJf470YUe55zsRM8rTMj0MoI4"
  },
  {
    "title": "NEW LANDMAARK CARS",
    "subTitle": "न्यू लैंडमार्क कार्स",
    "categoryName": "Car dealer",
    "address": "8 Golden Park Complex, Phase 2, Eastern Express Highway, west, Service Rd, Majiwada, Thane, Maharashtra 400601, India",
    "neighborhood": "Gokul Nagar, Majiwada",
    "street": "8 Golden Park Complex, Phase 2, Eastern Express Highway, west, Service Rd",
    "city": "Thane",
    "postalCode": "400601",
    "state": "Maharashtra",
    "countryCode": "IN",
    "phone": "+918689997777",
    "phoneUnformatted": "+918689997777",
    "location": {
      "lat": 19.2106835,
      "lng": 72.9766044
    },
    "totalScore": 5,
    "permanentlyClosed": false,
    "temporarilyClosed": false,
    "placeId": "ChIJTdUxx8e55zsR_P1Oy1kQ_gw",
    "categories": [
      "Car dealer"
    ],
    "reviewsCount": 1,
    "openingHours": [
      {
        "day": "Monday",
        "hours": "10:30 AM to 7 PM"
      },
      {
        "day": "Tuesday",
        "hours": "10:30 AM to 7 PM"
      },
      {
        "day": "Wednesday",
        "hours": "10:30 AM to 7 PM"
      },
      {
        "day": "Thursday",
        "hours": "10:30 AM to 7 PM"
      },
      {
        "day": "Friday",
        "hours": "10:30 AM to 7 PM"
      },
      {
        "day": "Saturday",
        "hours": "10:30 AM to 7 PM"
      },
      {
        "day": "Sunday",
        "hours": "10:30 AM to 7 PM"
      }
    ],
    "url": "https://www.google.com/maps/search/?api=1&query=NEW%20LANDMAARK%20CARS&query_place_id=ChIJTdUxx8e55zsR_P1Oy1kQ_gw"
  },
  {
    "title": "Nageshwar Travels (no self driving cars)",
    "subTitle": "नागेश्वर ट्रैवल्स (नो सेल्फ ड्राइविंग कार्स)",
    "categoryName": "Car rental agency",
    "address": "Shop No-23, Dhanalakshmi Complex, Vasant Lila, Park Ave, Waghbil, Naka, Thane, Maharashtra 400615, India",
    "neighborhood": "Anu Nagar, Waghbil, Naka",
    "street": "Shop No-23, Dhanalakshmi Complex, Vasant Lila, Park Ave",
    "city": "Thane",
    "postalCode": "400615",
    "state": "Maharashtra",
    "countryCode": "IN",
    "phone": "+919029746765",
    "phoneUnformatted": "+919029746765",
    "location": {
      "lat": 19.2564425,
      "lng": 72.9771747
    },
    "totalScore": 4.9,
    "permanentlyClosed": false,
    "temporarilyClosed": false,
    "placeId": "ChIJgWuwJJO75zsRs_KuyeyJebo",
    "categories": [
      "Car rental agency",
      "Travel agency"
    ],
    "reviewsCount": 699,
    "imagesCount": 37,
    "openingHours": [
      {
        "day": "Monday",
        "hours": "Open 24 hours"
      },
      {
        "day": "Tuesday",
        "hours": "Open 24 hours"
      },
      {
        "day": "Wednesday",
        "hours": "Open 24 hours"
      },
      {
        "day": "Thursday",
        "hours": "Open 24 hours"
      },
      {
        "day": "Friday",
        "hours": "Open 24 hours"
      },
      {
        "day": "Saturday",
        "hours": "Open 24 hours"
      },
      {
        "day": "Sunday",
        "hours": "Open 24 hours"
      }
    ],
    "imageUrl": "https://lh3.googleusercontent.com/p/AF1QipOkZ-HgQH4eL__3OidJwvayHNWu3Hrnppyqs3pV=w408-h306-k-no",
    "url": "https://www.google.com/maps/search/?api=1&query=Nageshwar%20Travels%20(no%20self%20driving%20cars)&query_place_id=ChIJgWuwJJO75zsRs_KuyeyJebo"
  },
  {
    "title": "Niti Cars",
    "subTitle": "नीति कार्स",
    "categoryName": "Used car dealer",
    "address": "Shop No.F-19, First Floor, Kris Korner Plaza, Anand Nagar, Ghodbunder Rd, opp. Saraswati Vidyalaya High School & Junior College, Kavesar, Thane West, Thane, Maharashtra 400615, India",
    "neighborhood": "Kavesar, Thane West",
    "street": "Shop No.F-19, First Floor, Kris Korner Plaza, Anand Nagar, Ghodbunder Rd, opp. Saraswati Vidyalaya High School & Junior College",
    "city": "Thane",
    "postalCode": "400615",
    "state": "Maharashtra",
    "countryCode": "IN",
    "location": {
      "lat": 19.264899,
      "lng": 72.9707895
    },
    "totalScore": 5,
    "permanentlyClosed": false,
    "temporarilyClosed": true,
    "placeId": "ChIJ-43wwZe75zsRDEF57qx0lno",
    "categories": [
      "Used car dealer"
    ],
    "reviewsCount": 3,
    "imagesCount": 3,
    "openingHours": [],
    "imageUrl": "https://streetviewpixels-pa.googleapis.com/v1/thumbnail?panoid=rSi8fsZm6DScTnDswn-u7A&cb_client=search.gws-prod.gps&w=408&h=240&yaw=153.85674&pitch=0&thumbfov=100",
    "url": "https://www.google.com/maps/search/?api=1&query=Niti%20Cars&query_place_id=ChIJ-43wwZe75zsRDEF57qx0lno"
  },
  {
    "title": "Patel Motors Used Cars Dealer",
    "subTitle": "पटेल मोटर्स यूज्ड कार्स डीलर",
    "categoryName": "Car dealer",
    "address": "Dawle Village, Kausa, Mumbra, Thane, Maharashtra 400612, India",
    "neighborhood": "Dawle Village, Kausa, Mumbra",
    "city": "Thane",
    "postalCode": "400612",
    "state": "Maharashtra",
    "countryCode": "IN",
    "phone": "+918898601736",
    "phoneUnformatted": "+918898601736",
    "location": {
      "lat": 19.1568705,
      "lng": 73.0344314
    },
    "totalScore": 4.9,
    "permanentlyClosed": false,
    "temporarilyClosed": false,
    "placeId": "ChIJRx3qvCe_5zsR-oJDqR9yI1o",
    "categories": [
      "Car dealer"
    ],
    "reviewsCount": 14,
    "imagesCount": 17,
    "openingHours": [
      {
        "day": "Monday",
        "hours": "9 AM to 10 PM"
      },
      {
        "day": "Tuesday",
        "hours": "9 AM to 10 PM"
      },
      {
        "day": "Wednesday",
        "hours": "9 AM to 10 PM"
      },
      {
        "day": "Thursday",
        "hours": "9 AM to 10 PM"
      },
      {
        "day": "Friday",
        "hours": "3 to 10 PM"
      },
      {
        "day": "Saturday",
        "hours": "9 AM to 10 PM"
      },
      {
        "day": "Sunday",
        "hours": "9 AM to 10 PM"
      }
    ],
    "imageUrl": "https://lh3.googleusercontent.com/gps-cs-s/AG0ilSxaa8pYdwft9_X0g55m7yqYy0_7reS5DKeSoLHoj2kmMf7UNgmnGyPabAPjWYLTrsW1RbYaHSq648_W9yp4gLxTNC6-hthqjDe9nAf5bNop1NEUOqMJoVy90EF495WtLFVRWvlTvg=w408-h544-k-no",
    "url": "https://www.google.com/maps/search/?api=1&query=Patel%20Motors%20Used%20Cars%20Dealer&query_place_id=ChIJRx3qvCe_5zsR-oJDqR9yI1o"
  },
  {
    "title": "Patil Tours & Travels - Thane",
    "subTitle": "पाटील टूर्स & ट्रैवल्स - ठाणे",
    "categoryName": "Car rental agency",
    "address": "ANAND VIHAR, Station Rd, Anand Vihar Complex, Mafatlal Colony, Kalwa, Thane, Maharashtra 400605, India",
    "neighborhood": "Anand Vihar Complex, Mafatlal Colony, Kalwa",
    "street": "ANAND VIHAR, Station Rd",
    "city": "Thane",
    "postalCode": "400605",
    "state": "Maharashtra",
    "countryCode": "IN",
    "website": "https://patiltravels.co.in/",
    "phone": "+919324450293",
    "phoneUnformatted": "+919324450293",
    "location": {
      "lat": 19.2010643,
      "lng": 73.0061203
    },
    "permanentlyClosed": false,
    "temporarilyClosed": false,
    "placeId": "ChIJjwAZOXe_5zsRwUhozJGSGcs",
    "categories": [
      "Car rental agency"
    ],
    "imagesCount": 12,
    "openingHours": [
      {
        "day": "Monday",
        "hours": "Open 24 hours"
      },
      {
        "day": "Tuesday",
        "hours": "Open 24 hours"
      },
      {
        "day": "Wednesday",
        "hours": "Open 24 hours"
      },
      {
        "day": "Thursday",
        "hours": "Open 24 hours"
      },
      {
        "day": "Friday",
        "hours": "Open 24 hours"
      },
      {
        "day": "Saturday",
        "hours": "Open 24 hours"
      },
      {
        "day": "Sunday",
        "hours": "Open 24 hours"
      }
    ],
    "imageUrl": "https://lh3.googleusercontent.com/p/AF1QipNdpH-Os8W2_tXlO-8xcNwPQnCsN02bv40uoHcJ=w408-h725-k-no",
    "url": "https://www.google.com/maps/search/?api=1&query=Patil%20Tours%20%26%20Travels%20-%20Thane&query_place_id=ChIJjwAZOXe_5zsRwUhozJGSGcs"
  },
  {
    "title": "Perfect Cars",
    "subTitle": "परफेक्ट कार्स",
    "categoryName": "Used car dealer",
    "address": "Cosmos Park, Vijay Garden Rd, Kavesar, Thane West, Thane, Maharashtra 400615, India",
    "neighborhood": "Kavesar, Thane West",
    "street": "Cosmos Park, Vijay Garden Rd",
    "city": "Thane",
    "postalCode": "400615",
    "state": "Maharashtra",
    "countryCode": "IN",
    "phone": "+919920856999",
    "phoneUnformatted": "+919920856999",
    "location": {
      "lat": 19.2599683,
      "lng": 72.9723032
    },
    "totalScore": 5,
    "permanentlyClosed": false,
    "temporarilyClosed": false,
    "placeId": "ChIJlZfMcT-55zsR0x5f6Px52JA",
    "categories": [
      "Used car dealer"
    ],
    "reviewsCount": 6,
    "imagesCount": 19,
    "openingHours": [
      {
        "day": "Monday",
        "hours": "10 AM to 9 PM"
      },
      {
        "day": "Tuesday",
        "hours": "10 AM to 9 PM"
      },
      {
        "day": "Wednesday",
        "hours": "10 AM to 9 PM"
      },
      {
        "day": "Thursday",
        "hours": "10 AM to 9 PM"
      },
      {
        "day": "Friday",
        "hours": "10 AM to 9 PM"
      },
      {
        "day": "Saturday",
        "hours": "10 AM to 9 PM"
      },
      {
        "day": "Sunday",
        "hours": "10 AM to 9 PM"
      }
    ],
    "imageUrl": "https://lh3.googleusercontent.com/gps-cs-s/AG0ilSwd5tR4qvFfrRSl0rrRm8uw2vfQFuQuqNk01zTbNbp9vfrKwGLPsuWUGPfNvDW-CNrO9kCRLO7NLyvgSB0vx444BTog85GzkKQN3nfrXgNMxGt942WJ1-1GTYMianipSnj7Hyxz1A=w408-h544-k-no",
    "url": "https://www.google.com/maps/search/?api=1&query=Perfect%20Cars&query_place_id=ChIJlZfMcT-55zsR0x5f6Px52JA"
  },
  {
    "title": "Peter’s Car Galaxy - Expert Auto Sales And Services",
    "subTitle": "पीटर'स कार गैलेक्सी - एक्सपर्ट ऑटो सेल्स एंड सर्विसेस",
    "categoryName": "Car dealer",
    "address": "Unit 2A, Bata Compound, Khopat, Hans Nagar, Thane West, Thane, Maharashtra 400601, India",
    "neighborhood": "Khopat, Hans Nagar, Thane West",
    "street": "Unit 2A, Bata Compound",
    "city": "Thane",
    "postalCode": "400601",
    "state": "Maharashtra",
    "countryCode": "IN",
    "website": "https://www.peterscargalaxy.com/",
    "phone": "+919167441441",
    "phoneUnformatted": "+919167441441",
    "location": {
      "lat": 19.2053676,
      "lng": 72.9714884
    },
    "totalScore": 4.7,
    "permanentlyClosed": false,
    "temporarilyClosed": false,
    "placeId": "ChIJg__72Si55zsRCp537UAJI5s",
    "categories": [
      "Car dealer",
      "Smart Car dealer",
      "Used car dealer"
    ],
    "reviewsCount": 533,
    "imagesCount": 87,
    "openingHours": [
      {
        "day": "Monday",
        "hours": "10 AM to 8 PM"
      },
      {
        "day": "Tuesday",
        "hours": "10 AM to 8 PM"
      },
      {
        "day": "Wednesday",
        "hours": "10 AM to 8 PM"
      },
      {
        "day": "Thursday",
        "hours": "10 AM to 8 PM"
      },
      {
        "day": "Friday",
        "hours": "10 AM to 8 PM"
      },
      {
        "day": "Saturday",
        "hours": "10 AM to 8 PM"
      },
      {
        "day": "Sunday",
        "hours": "10 AM to 8 PM"
      }
    ],
    "imageUrl": "https://lh3.googleusercontent.com/p/AF1QipMHy9e5sYDpB5rEV2u90cucpQgJJen23igqRHs=w408-h306-k-no",
    "url": "https://www.google.com/maps/search/?api=1&query=Peter%E2%80%99s%20Car%20Galaxy%20-%20Expert%20Auto%20Sales%20And%20Services&query_place_id=ChIJg__72Si55zsRCp537UAJI5s"
  },
  {
    "title": "Prime Auto Works",
    "subTitle": "प्राइम ऑटो वर्क्स",
    "categoryName": "Used car dealer",
    "address": "Office no. 230, Lodha Signet A, Kolshet Rd, beside Lodha Amara, Kolshet Industrial Area, Thane West, Thane, Maharashtra 400607, India",
    "neighborhood": "Kolshet Industrial Area, Thane West",
    "street": "Office no. 230, Lodha Signet A, Kolshet Rd, beside Lodha Amara",
    "city": "Thane",
    "postalCode": "400607",
    "state": "Maharashtra",
    "countryCode": "IN",
    "website": "http://www.primeautoworks.in/",
    "phone": "+917977247576",
    "phoneUnformatted": "+917977247576",
    "location": {
      "lat": 19.2344066,
      "lng": 72.9888662
    },
    "totalScore": 4.2,
    "permanentlyClosed": false,
    "temporarilyClosed": false,
    "placeId": "ChIJPblaIj255zsR9F5t4v-bCak",
    "categories": [
      "Used car dealer"
    ],
    "reviewsCount": 129,
    "imagesCount": 85,
    "openingHours": [
      {
        "day": "Monday",
        "hours": "10 AM to 8 PM"
      },
      {
        "day": "Tuesday",
        "hours": "10 AM to 8 PM"
      },
      {
        "day": "Wednesday",
        "hours": "10 AM to 8 PM"
      },
      {
        "day": "Thursday",
        "hours": "10 AM to 8 PM"
      },
      {
        "day": "Friday",
        "hours": "10 AM to 8 PM"
      },
      {
        "day": "Saturday",
        "hours": "10 AM to 8 PM"
      },
      {
        "day": "Sunday",
        "hours": "10:30 AM to 7 PM"
      }
    ],
    "imageUrl": "https://lh3.googleusercontent.com/p/AF1QipPe6AQI_1MTUFjMQABGJ4cf6-0SJBpm-PgRDJDy=w408-h306-k-no",
    "url": "https://www.google.com/maps/search/?api=1&query=Prime%20Auto%20Works&query_place_id=ChIJPblaIj255zsR9F5t4v-bCak"
  },
  {
    "title": "Pyramid Cars",
    "subTitle": "पिरॅमिड कार्स",
    "categoryName": "Used car dealer",
    "address": "Lal Bahadur Shastri Marg, near Mn-5, next to Hotel Tip Top Plaza, Kashish Park, Thane West, Thane, Maharashtra 400604, India",
    "neighborhood": "Kashish Park, Thane West",
    "street": "Lal Bahadur Shastri Marg, near Mn-5, next to Hotel Tip Top Plaza",
    "city": "Thane",
    "postalCode": "400604",
    "state": "Maharashtra",
    "countryCode": "IN",
    "phone": "+919967285555",
    "phoneUnformatted": "+919967285555",
    "location": {
      "lat": 19.1853889,
      "lng": 72.9575302
    },
    "totalScore": 4.4,
    "permanentlyClosed": false,
    "temporarilyClosed": false,
    "placeId": "ChIJix0t60655zsRLJ7-_1M0Ns4",
    "categories": [
      "Used car dealer"
    ],
    "reviewsCount": 14,
    "imagesCount": 19,
    "openingHours": [
      {
        "day": "Monday",
        "hours": "10 AM to 8 PM"
      },
      {
        "day": "Tuesday",
        "hours": "10 AM to 8 PM"
      },
      {
        "day": "Wednesday",
        "hours": "10 AM to 8 PM"
      },
      {
        "day": "Thursday",
        "hours": "10 AM to 8 PM"
      },
      {
        "day": "Friday",
        "hours": "10 AM to 8 PM"
      },
      {
        "day": "Saturday",
        "hours": "10 AM to 8 PM"
      },
      {
        "day": "Sunday",
        "hours": "10 AM to 8 PM"
      }
    ],
    "imageUrl": "https://lh3.googleusercontent.com/p/AF1QipO0GBhcQ2F4JKvYeilgFn_fQidMGYqTcWyg9xNP=w408-h544-k-no",
    "url": "https://www.google.com/maps/search/?api=1&query=Pyramid%20Cars&query_place_id=ChIJix0t60655zsRLJ7-_1M0Ns4"
  },
  {
    "title": "RK Self Drive Rental Car",
    "subTitle": "आरके सेल्फ ड्राइव रेंटल कार",
    "categoryName": "Car rental agency",
    "address": "Shop no:-2, Siddhachal Phase 4, pokaran road no-2 Vasant vihar, Apne Bazar, Thane West, Maharashtra 400610, India",
    "neighborhood": "Siddhachal Phase IV, Siddhachal Housing Society, Apne Bazar, Thane West",
    "street": "Shop no:-2, Siddhachal Phase 4, pokaran road no-2 Vasant vihar",
    "city": "Thane",
    "postalCode": "400610",
    "state": "Maharashtra",
    "countryCode": "IN",
    "website": "https://www.rkselfdriverentalcar.in/",
    "phone": "+919930106076",
    "phoneUnformatted": "+919930106076",
    "location": {
      "lat": 19.2231179,
      "lng": 72.9640125
    },
    "totalScore": 4.8,
    "permanentlyClosed": false,
    "temporarilyClosed": false,
    "placeId": "ChIJsbQccSm55zsR0WHh2eVJg_Y",
    "categories": [
      "Car rental agency",
      "Car leasing service",
      "Rental car return location"
    ],
    "reviewsCount": 151,
    "imagesCount": 94,
    "openingHours": [
      {
        "day": "Monday",
        "hours": "Open 24 hours"
      },
      {
        "day": "Tuesday",
        "hours": "Open 24 hours"
      },
      {
        "day": "Wednesday",
        "hours": "Open 24 hours"
      },
      {
        "day": "Thursday",
        "hours": "Open 24 hours"
      },
      {
        "day": "Friday",
        "hours": "Open 24 hours"
      },
      {
        "day": "Saturday",
        "hours": "Open 24 hours"
      },
      {
        "day": "Sunday",
        "hours": "Open 24 hours"
      }
    ],
    "imageUrl": "https://lh3.googleusercontent.com/p/AF1QipOZPQIUX1pMM_eSOw2uZ4G9lUL8LAYywRvhadY9=w408-h544-k-no",
    "url": "https://www.google.com/maps/search/?api=1&query=RK%20Self%20Drive%20Rental%20Car&query_place_id=ChIJsbQccSm55zsR0WHh2eVJg_Y"
  },
  {
    "title": "ROYAL CAR PLAZA",
    "subTitle": "रॉयल कार प्लॅनेट",
    "categoryName": "Used car dealer",
    "address": "Shop No-G-29, Arcadia Shopping Center, Hiranandani Estate, Thane West, Thane, Maharashtra 400607, India",
    "neighborhood": "Hiranandani Estate, Thane West",
    "street": "Shop No-G-29, Arcadia Shopping Center",
    "city": "Thane",
    "postalCode": "400607",
    "state": "Maharashtra",
    "countryCode": "IN",
    "website": "http://www.royalcarplaza.com/",
    "phone": "+919987237927",
    "phoneUnformatted": "+919987237927",
    "location": {
      "lat": 19.2537495,
      "lng": 72.9821635
    },
    "totalScore": 4.2,
    "permanentlyClosed": false,
    "temporarilyClosed": false,
    "placeId": "ChIJDeDE4qO75zsRc66pw0n_7Z8",
    "categories": [
      "Used car dealer",
      "Car dealer"
    ],
    "reviewsCount": 51,
    "imagesCount": 24,
    "openingHours": [
      {
        "day": "Monday",
        "hours": "10 AM to 9 PM"
      },
      {
        "day": "Tuesday",
        "hours": "10 AM to 9 PM"
      },
      {
        "day": "Wednesday",
        "hours": "10 AM to 9 PM"
      },
      {
        "day": "Thursday",
        "hours": "10 AM to 9 PM"
      },
      {
        "day": "Friday",
        "hours": "10 AM to 9 PM"
      },
      {
        "day": "Saturday",
        "hours": "10 AM to 9 PM"
      },
      {
        "day": "Sunday",
        "hours": "10 AM to 9 PM"
      }
    ],
    "imageUrl": "https://lh3.googleusercontent.com/p/AF1QipP6xMDta6PUYslHio3nT4Md3Yb3r4tUraHk76PS=w427-h240-k-no",
    "url": "https://www.google.com/maps/search/?api=1&query=ROYAL%20CAR%20PLAZA&query_place_id=ChIJDeDE4qO75zsRc66pw0n_7Z8"
  },
  {
    "title": "Raman Travel Agency",
    "subTitle": "रमण यात्रा एजन्सी",
    "categoryName": "Car rental agency",
    "address": "Krishna Tower, A-103, Sarovardarshan Tower, Panch Pakhdi, Maharashtra 400601, India",
    "neighborhood": "Panch Pakhdi, Thane West",
    "street": "Krishna Tower, A-103, Sarovardarshan Tower",
    "city": "Thane",
    "postalCode": "400601",
    "state": "Maharashtra",
    "countryCode": "IN",
    "website": "https://www.ramantravelagency.com/",
    "phone": "+919322121593",
    "phoneUnformatted": "+919322121593",
    "location": {
      "lat": 19.200857,
      "lng": 72.96894
    },
    "totalScore": 3.8,
    "permanentlyClosed": false,
    "temporarilyClosed": false,
    "placeId": "ChIJq6qqOha55zsRKq8AJWfTWvs",
    "categories": [
      "Car rental agency",
      "Bus tour agency",
      "Travel agency"
    ],
    "reviewsCount": 14,
    "imagesCount": 7,
    "openingHours": [
      {
        "day": "Monday",
        "hours": "9 AM to 9 PM"
      },
      {
        "day": "Tuesday",
        "hours": "9 AM to 9 PM"
      },
      {
        "day": "Wednesday",
        "hours": "9 AM to 9 PM"
      },
      {
        "day": "Thursday",
        "hours": "9 AM to 9 PM"
      },
      {
        "day": "Friday",
        "hours": "9 AM to 9 PM"
      },
      {
        "day": "Saturday",
        "hours": "9 AM to 9 PM"
      },
      {
        "day": "Sunday",
        "hours": "9 AM to 9 PM"
      }
    ],
    "imageUrl": "https://lh3.googleusercontent.com/p/AF1QipNtsXG199szw_XTveD0kdh-ifWcwctnffAUERUD=w408-h288-k-no",
    "url": "https://www.google.com/maps/search/?api=1&query=Raman%20Travel%20Agency&query_place_id=ChIJq6qqOha55zsRKq8AJWfTWvs"
  },
  {
    "title": "Raymond Race Track",
    "subTitle": "रेमंड रेस ट्रॅक",
    "categoryName": "Car racing venue",
    "address": "6X49+M9X, J K Gram, Thane West, Thane, Maharashtra 400606, India",
    "neighborhood": "J K Gram, Thane West",
    "street": "6X49+M9X",
    "city": "Thane",
    "postalCode": "400606",
    "state": "Maharashtra",
    "countryCode": "IN",
    "location": {
      "lat": 19.2067263,
      "lng": 72.9684787
    },
    "totalScore": 4.5,
    "permanentlyClosed": false,
    "temporarilyClosed": false,
    "placeId": "ChIJEwrKbRW55zsReRThyfolbnQ",
    "categories": [
      "Car racing venue"
    ],
    "reviewsCount": 115,
    "imagesCount": 941,
    "openingHours": [],
    "imageUrl": "https://lh3.googleusercontent.com/gps-cs-s/AG0ilSye2otuZaGM-7iKS7WSt_HmMXnGQI3pDIC83ACfwqIC30edHgkIfCbMn7A0zDFiw87ny-pTnfuW3UcaYlw7vituybrt2SsuihbAHC5z9WJtKGoIfDGNtyWeMKj8RCKI9pPLLaA=w426-h240-k-no",
    "url": "https://www.google.com/maps/search/?api=1&query=Raymond%20Race%20Track&query_place_id=ChIJEwrKbRW55zsReRThyfolbnQ"
  },
  {
    "title": "Reliable Motors",
    "subTitle": "रिलायबल मोटर्स",
    "categoryName": "Used car dealer",
    "address": "By pass, BY PASS ROAD, near MAAZ HOTEL, Kausa, Mumbra, Thane, Maharashtra 400612, India",
    "neighborhood": "Kausa, Mumbra",
    "street": "By pass, BY PASS ROAD, near MAAZ HOTEL",
    "city": "Thane",
    "postalCode": "400612",
    "state": "Maharashtra",
    "countryCode": "IN",
    "phone": "+918080806553",
    "phoneUnformatted": "+918080806553",
    "location": {
      "lat": 19.1602108,
      "lng": 73.0289667
    },
    "totalScore": 4.4,
    "permanentlyClosed": false,
    "temporarilyClosed": false,
    "placeId": "ChIJRar1ZnC_5zsRzxZCgWOwsmQ",
    "categories": [
      "Used car dealer",
      "Insurance broker"
    ],
    "reviewsCount": 14,
    "imagesCount": 122,
    "openingHours": [
      {
        "day": "Monday",
        "hours": "9 AM to 8 PM"
      },
      {
        "day": "Tuesday",
        "hours": "9 AM to 8 PM"
      },
      {
        "day": "Wednesday",
        "hours": "9 AM to 8 PM"
      },
      {
        "day": "Thursday",
        "hours": "9 AM to 8 PM"
      },
      {
        "day": "Friday",
        "hours": "9 AM to 8 PM"
      },
      {
        "day": "Saturday",
        "hours": "9 AM to 8 PM"
      },
      {
        "day": "Sunday",
        "hours": "Closed"
      }
    ],
    "imageUrl": "https://lh3.googleusercontent.com/p/AF1QipNVOD_oYkDOdGXaiGr9VSM_UGhvd2xfzZPt31ru=w408-h306-k-no",
    "url": "https://www.google.com/maps/search/?api=1&query=Reliable%20Motors&query_place_id=ChIJRar1ZnC_5zsRzxZCgWOwsmQ"
  },
  {
    "title": "Royal Motors",
    "subTitle": "रॉयल मोटर्स",
    "categoryName": "Used car dealer",
    "address": "Survey No. 8, Mauje Daighar, Kalyan - Shilphata Rd, near Hotel Shiva, Daighar Gaon, Thane, Maharashtra 421204, India",
    "neighborhood": "Daighar Gaon",
    "street": "Survey No. 8, Mauje Daighar, Kalyan - Shilphata Rd, near Hotel Shiva",
    "city": "Thane",
    "postalCode": "421204",
    "state": "Maharashtra",
    "countryCode": "IN",
    "phone": "+919594582010",
    "phoneUnformatted": "+919594582010",
    "location": {
      "lat": 19.144385,
      "lng": 73.0487443
    },
    "totalScore": 5,
    "permanentlyClosed": false,
    "temporarilyClosed": false,
    "placeId": "ChIJUfUCGgDB5zsRxR-GbmsKbs4",
    "categories": [
      "Used car dealer"
    ],
    "reviewsCount": 7,
    "imagesCount": 90,
    "openingHours": [
      {
        "day": "Monday",
        "hours": "10 AM to 8 PM"
      },
      {
        "day": "Tuesday",
        "hours": "10 AM to 8 PM"
      },
      {
        "day": "Wednesday",
        "hours": "10 AM to 8 PM"
      },
      {
        "day": "Thursday",
        "hours": "10 AM to 8 PM"
      },
      {
        "day": "Friday",
        "hours": "10 AM to 8 PM"
      },
      {
        "day": "Saturday",
        "hours": "10 AM to 8 PM"
      },
      {
        "day": "Sunday",
        "hours": "10 AM to 8 PM"
      }
    ],
    "imageUrl": "https://lh3.googleusercontent.com/p/AF1QipNalP9y-aP_7aU9WON_5Npv3jCue5r28JMgqNxO=w408-h544-k-no",
    "url": "https://www.google.com/maps/search/?api=1&query=Royal%20Motors&query_place_id=ChIJUfUCGgDB5zsRxR-GbmsKbs4"
  },
  {
    "title": "S K Cars - Dream Car Planet",
    "subTitle": "एस् के कार्स - ड्रीम कार प्लानेट",
    "categoryName": "Used car dealer",
    "address": "Manisha Nagar, Kalwa, Thane, Maharashtra 400601, India",
    "neighborhood": "Manisha Nagar, Kalwa",
    "city": "Thane",
    "postalCode": "400601",
    "state": "Maharashtra",
    "countryCode": "IN",
    "phone": "+919029711409",
    "phoneUnformatted": "+919029711409",
    "location": {
      "lat": 19.1990177,
      "lng": 72.9895374
    },
    "totalScore": 4.5,
    "permanentlyClosed": false,
    "temporarilyClosed": false,
    "placeId": "ChIJc1rMIMS-5zsRIQVDboCIrcA",
    "categories": [
      "Used car dealer"
    ],
    "reviewsCount": 31,
    "imagesCount": 26,
    "openingHours": [
      {
        "day": "Monday",
        "hours": "10 AM to 8 PM"
      },
      {
        "day": "Tuesday",
        "hours": "10 AM to 8 PM"
      },
      {
        "day": "Wednesday",
        "hours": "10 AM to 8 PM"
      },
      {
        "day": "Thursday",
        "hours": "10 AM to 8 PM"
      },
      {
        "day": "Friday",
        "hours": "10 AM to 8 PM"
      },
      {
        "day": "Saturday",
        "hours": "10 AM to 8 PM"
      },
      {
        "day": "Sunday",
        "hours": "10 AM to 8 PM"
      }
    ],
    "imageUrl": "https://lh3.googleusercontent.com/p/AF1QipNAchA64hvRj8qlv8YnKmBUSF-r3_kb1qNsHE8f=w408-h306-k-no",
    "url": "https://www.google.com/maps/search/?api=1&query=S%20K%20Cars%20-%20Dream%20Car%20Planet&query_place_id=ChIJc1rMIMS-5zsRIQVDboCIrcA"
  },
  {
    "title": "SK Car Dealer",
    "subTitle": "एसके कार डीलर",
    "categoryName": "Car dealer",
    "address": "Mahape Road Shilphata, Post, Padle, Thane, Maharashtra 400612, India",
    "neighborhood": "Padle",
    "street": "Mahape Road Shilphata, Post",
    "city": "Thane",
    "postalCode": "400612",
    "state": "Maharashtra",
    "countryCode": "IN",
    "phone": "+917021446679",
    "phoneUnformatted": "+917021446679",
    "location": {
      "lat": 19.1399584,
      "lng": 73.0358999
    },
    "totalScore": 4.9,
    "permanentlyClosed": false,
    "temporarilyClosed": false,
    "placeId": "ChIJkZx7ZqvB5zsRNre6nsj2_hA",
    "categories": [
      "Car dealer"
    ],
    "reviewsCount": 13,
    "imagesCount": 4,
    "openingHours": [
      {
        "day": "Monday",
        "hours": "10 AM to 7 PM"
      },
      {
        "day": "Tuesday",
        "hours": "10 AM to 7 PM"
      },
      {
        "day": "Wednesday",
        "hours": "10 AM to 7 PM"
      },
      {
        "day": "Thursday",
        "hours": "10 AM to 7 PM"
      },
      {
        "day": "Friday",
        "hours": "10 AM to 7 PM"
      },
      {
        "day": "Saturday",
        "hours": "10 AM to 7 PM"
      },
      {
        "day": "Sunday",
        "hours": "10 AM to 7 PM"
      }
    ],
    "imageUrl": "https://lh3.googleusercontent.com/p/AF1QipNLwQIqwKQlaDmDDkAx3fQDp6VxtHFGV2x_ayjD=w408-h306-k-no",
    "url": "https://www.google.com/maps/search/?api=1&query=SK%20Car%20Dealer&query_place_id=ChIJkZx7ZqvB5zsRNre6nsj2_hA"
  },
  {
    "title": "SOHAM TRAVELS, THANE",
    "subTitle": "सोहम ट्रेवल्स, ठाणे",
    "categoryName": "Car rental agency",
    "address": "PRIYADARSHANI SOC, 18/ B7, Sawarkar Nagar, Savarkar Nagar, Thane West, Thane, Maharashtra 400606, India",
    "neighborhood": "Sawarkar Nagar, Savarkar Nagar, Thane West",
    "street": "PRIYADARSHANI SOC, 18/ B7",
    "city": "Thane",
    "postalCode": "400606",
    "state": "Maharashtra",
    "countryCode": "IN",
    "phone": "+919967433510",
    "phoneUnformatted": "+919967433510",
    "location": {
      "lat": 19.2069951,
      "lng": 72.9551594
    },
    "totalScore": 4.8,
    "permanentlyClosed": false,
    "temporarilyClosed": false,
    "placeId": "ChIJGwUTKQ255zsRrrb8_LjO9Q4",
    "categories": [
      "Car rental agency",
      "Taxi service",
      "Tour agency",
      "Tour operator"
    ],
    "reviewsCount": 41,
    "imagesCount": 3,
    "openingHours": [
      {
        "day": "Monday",
        "hours": "Open 24 hours"
      },
      {
        "day": "Tuesday",
        "hours": "Open 24 hours"
      },
      {
        "day": "Wednesday",
        "hours": "Open 24 hours"
      },
      {
        "day": "Thursday",
        "hours": "Open 24 hours"
      },
      {
        "day": "Friday",
        "hours": "Open 24 hours"
      },
      {
        "day": "Saturday",
        "hours": "Open 24 hours"
      },
      {
        "day": "Sunday",
        "hours": "Open 24 hours"
      }
    ],
    "imageUrl": "https://streetviewpixels-pa.googleapis.com/v1/thumbnail?panoid=vQ6q_dLFkqbzFHiS3s3wow&cb_client=search.gws-prod.gps&w=408&h=240&yaw=285.8795&pitch=0&thumbfov=100",
    "url": "https://www.google.com/maps/search/?api=1&query=SOHAM%20TRAVELS%2C%20THANE&query_place_id=ChIJGwUTKQ255zsRrrb8_LjO9Q4"
  },
  {
    "title": "SSCR Tours And Travels Thane",
    "subTitle": "एसएससीआर टूर्स एंड ट्रैवल्स ठाणे",
    "categoryName": "Car rental agency",
    "address": "Brahma Shree Society, B/27, C Wing, Shree Nagar, Thane West, Thane, Maharashtra 400604, India",
    "neighborhood": "C Wing, Shree Nagar, Thane West",
    "street": "Brahma Shree Society, B/27",
    "city": "Thane",
    "postalCode": "400604",
    "state": "Maharashtra",
    "countryCode": "IN",
    "phone": "+919769589513",
    "phoneUnformatted": "+919769589513",
    "location": {
      "lat": 19.1897638,
      "lng": 72.9470292
    },
    "totalScore": 4.8,
    "permanentlyClosed": false,
    "temporarilyClosed": false,
    "placeId": "ChIJp2U2_cu55zsRcePrDDtdLdk",
    "categories": [
      "Car rental agency",
      "Bus company",
      "Taxi service",
      "Tour agency",
      "Transportation service",
      "Travel agency"
    ],
    "reviewsCount": 315,
    "imagesCount": 409,
    "openingHours": [
      {
        "day": "Monday",
        "hours": "Open 24 hours"
      },
      {
        "day": "Tuesday",
        "hours": "Open 24 hours"
      },
      {
        "day": "Wednesday",
        "hours": "Open 24 hours"
      },
      {
        "day": "Thursday",
        "hours": "Open 24 hours"
      },
      {
        "day": "Friday",
        "hours": "Open 24 hours"
      },
      {
        "day": "Saturday",
        "hours": "Open 24 hours"
      },
      {
        "day": "Sunday",
        "hours": "Open 24 hours"
      }
    ],
    "imageUrl": "https://lh3.googleusercontent.com/p/AF1QipMy5HAEBEAiqHXi3alszVpHw_VJt7qZ1ax4Qrqq=w436-h240-k-no",
    "url": "https://www.google.com/maps/search/?api=1&query=SSCR%20Tours%20And%20Travels%20Thane&query_place_id=ChIJp2U2_cu55zsRcePrDDtdLdk"
  },
  {
    "title": "Sandeep Self Drive Cars Thane",
    "subTitle": "संदीप सेल्फ ड्राइव कार्स ठाणे",
    "categoryName": "Car rental agency",
    "address": "Shop No 5, Ghodbunder Rd, near Shruti Garden, Manorama Nagar, Thane West, Thane, Maharashtra 400607, India",
    "neighborhood": "Manorama Nagar, Thane West",
    "street": "Shop No 5, Ghodbunder Rd, near Shruti Garden",
    "city": "Thane",
    "postalCode": "400607",
    "state": "Maharashtra",
    "countryCode": "IN",
    "website": "http://selfdrivecarsthane.co.in/",
    "phone": "+919967278477",
    "phoneUnformatted": "+919967278477",
    "location": {
      "lat": 19.2320522,
      "lng": 72.9813032
    },
    "totalScore": 4.9,
    "permanentlyClosed": false,
    "temporarilyClosed": false,
    "placeId": "ChIJ73MQFqq55zsReinY5wTVptY",
    "categories": [
      "Car rental agency"
    ],
    "reviewsCount": 398,
    "imagesCount": 33,
    "openingHours": [
      {
        "day": "Monday",
        "hours": "Open 24 hours"
      },
      {
        "day": "Tuesday",
        "hours": "Open 24 hours"
      },
      {
        "day": "Wednesday",
        "hours": "Open 24 hours"
      },
      {
        "day": "Thursday",
        "hours": "Open 24 hours"
      },
      {
        "day": "Friday",
        "hours": "Open 24 hours"
      },
      {
        "day": "Saturday",
        "hours": "Open 24 hours"
      },
      {
        "day": "Sunday",
        "hours": "Open 24 hours"
      }
    ],
    "imageUrl": "https://lh3.googleusercontent.com/gps-cs-s/AG0ilSwPd4CFMVwXXuyJHK7emspcwzo2JlKJOdHPka2sHvlo8QjYfQC7mJ9H38F-rlCv4XGbxk3HOuROqeP-DgBKZctGxBKLGq7xoSsQB_mFazqmsszjLA7dazVJuaozhI5aUC5Pn_58=w408-h544-k-no",
    "url": "https://www.google.com/maps/search/?api=1&query=Sandeep%20Self%20Drive%20Cars%20Thane&query_place_id=ChIJ73MQFqq55zsReinY5wTVptY"
  },
  {
    "title": "Shailaja Travels",
    "subTitle": "शैलजा ट्रैवल्स",
    "categoryName": "Car rental agency",
    "address": "T9- 2501, Ananke, Runwal Eirene, Dhokali - Balkum Rd, Dhokali, Thane West, Thane, Maharashtra 400601, India",
    "neighborhood": "Dhokali, Thane West",
    "street": "T9- 2501, Ananke, Runwal Eirene, Dhokali - Balkum Rd",
    "city": "Thane",
    "postalCode": "400601",
    "state": "Maharashtra",
    "countryCode": "IN",
    "website": "https://www.shailajatravels.com/",
    "phone": "+919673932754",
    "phoneUnformatted": "+919673932754",
    "location": {
      "lat": 19.2242246,
      "lng": 72.9867931
    },
    "totalScore": 5,
    "permanentlyClosed": false,
    "temporarilyClosed": false,
    "placeId": "ChIJZ9hYuDS55zsRwk7sZ2mKRVg",
    "categories": [
      "Car rental agency",
      "Car leasing service",
      "Tour agency"
    ],
    "reviewsCount": 70,
    "imagesCount": 62,
    "openingHours": [
      {
        "day": "Monday",
        "hours": "Open 24 hours"
      },
      {
        "day": "Tuesday",
        "hours": "Open 24 hours"
      },
      {
        "day": "Wednesday",
        "hours": "Open 24 hours"
      },
      {
        "day": "Thursday",
        "hours": "Open 24 hours"
      },
      {
        "day": "Friday",
        "hours": "Open 24 hours"
      },
      {
        "day": "Saturday",
        "hours": "Open 24 hours"
      },
      {
        "day": "Sunday",
        "hours": "Open 24 hours"
      }
    ],
    "imageUrl": "https://lh3.googleusercontent.com/p/AF1QipNXDoey3F1EKEY_lHNRybfEXcwe30KZXoZxQJ4r=w408-h725-k-no",
    "url": "https://www.google.com/maps/search/?api=1&query=Shailaja%20Travels&query_place_id=ChIJZ9hYuDS55zsRwk7sZ2mKRVg"
  },
  {
    "title": "Shaurya Travels Thane - Taxi service in Thane",
    "subTitle": "शौर्य ट्रैवल्स ठाणे - टैक्सी सर्विस इन ठाणे",
    "categoryName": "Car leasing service",
    "address": "A, Dev Krupa Highland Haven, 604, Balkum Road, Balkum Pada, Thane West, Thane, Maharashtra 400601, India",
    "neighborhood": "Laxmi Nagar, Balkum Pada, Thane West",
    "street": "A, Dev Krupa Highland Haven, 604, Balkum Road",
    "city": "Thane",
    "postalCode": "400601",
    "state": "Maharashtra",
    "countryCode": "IN",
    "website": "https://shauryatravelsthane.co.in/",
    "phone": "+919076019865",
    "phoneUnformatted": "+919076019865",
    "location": {
      "lat": 19.2175627,
      "lng": 72.9918724
    },
    "totalScore": 5,
    "permanentlyClosed": false,
    "temporarilyClosed": false,
    "placeId": "ChIJG2Vrw6O55zsRyqp_g851AB4",
    "categories": [
      "Car leasing service",
      "Taxi service",
      "Minibus taxi service",
      "Travel agency"
    ],
    "reviewsCount": 564,
    "imagesCount": 230,
    "openingHours": [],
    "imageUrl": "https://lh3.googleusercontent.com/p/AF1QipPUzkvFYv1xeHeljpmLChG5Nh45dvknxl3TRLkv=w408-h428-k-no",
    "url": "https://www.google.com/maps/search/?api=1&query=Shaurya%20Travels%20Thane%20-%20Taxi%20service%20in%20Thane&query_place_id=ChIJG2Vrw6O55zsRyqp_g851AB4"
  },
  {
    "title": "Shree Swami Samarth Travels",
    "subTitle": "श्री स्वामी समर्थ ट्रैवल्स",
    "categoryName": "Car leasing service",
    "address": "Shop No. 2, Thane - Belapur Rd, next to ICICI Bank ATM, Kalwa West, Budhaji Nagar, Kalwa, Thane, Maharashtra 400605, India",
    "neighborhood": "Kalwa West, Budhaji Nagar, Kalwa",
    "street": "Shop No. 2, Thane - Belapur Rd, next to ICICI Bank ATM",
    "city": "Thane",
    "postalCode": "400605",
    "state": "Maharashtra",
    "countryCode": "IN",
    "website": "https://www.swamisamarthtravels.in/",
    "phone": "+917700990044",
    "phoneUnformatted": "+917700990044",
    "location": {
      "lat": 19.1958399,
      "lng": 72.9876619
    },
    "totalScore": 4.9,
    "permanentlyClosed": false,
    "temporarilyClosed": false,
    "placeId": "ChIJQS6kKcTA5zsR3KkxZ1nnIy0",
    "categories": [
      "Car leasing service",
      "Bus tour agency",
      "Travel agency"
    ],
    "reviewsCount": 208,
    "imagesCount": 30,
    "openingHours": [],
    "imageUrl": "https://lh3.googleusercontent.com/p/AF1QipOonTdo2Fudb1fCU9ysv9cj3o25UTxUc7aCaaEx=w426-h240-k-no",
    "url": "https://www.google.com/maps/search/?api=1&query=Shree%20Swami%20Samarth%20Travels&query_place_id=ChIJQS6kKcTA5zsR3KkxZ1nnIy0"
  },
  {
    "title": "Siddhivinayak Tours And Travels",
    "subTitle": "सिद्धिविनायक टूर्स एंड ट्रैवल्स",
    "categoryName": "Car rental agency",
    "address": "Wagle Estate Rd, Shivaji Nagar, Kisan Nagar 1, Thane West, Thane, Maharashtra 400604, India",
    "neighborhood": "Shivaji Nagar, Kisan Nagar 1, Thane West",
    "street": "Wagle Estate Rd",
    "city": "Thane",
    "postalCode": "400604",
    "state": "Maharashtra",
    "countryCode": "IN",
    "phone": "+919082464065",
    "phoneUnformatted": "+919082464065",
    "location": {
      "lat": 19.1858481,
      "lng": 72.9559913
    },
    "permanentlyClosed": false,
    "temporarilyClosed": false,
    "placeId": "ChIJR1Rrmwi55zsRfg6hxSnoPMw",
    "categories": [
      "Car rental agency",
      "Tour agency"
    ],
    "imagesCount": 24,
    "openingHours": [
      {
        "day": "Monday",
        "hours": "Open 24 hours"
      },
      {
        "day": "Tuesday",
        "hours": "Open 24 hours"
      },
      {
        "day": "Wednesday",
        "hours": "Open 24 hours"
      },
      {
        "day": "Thursday",
        "hours": "Open 24 hours"
      },
      {
        "day": "Friday",
        "hours": "Open 24 hours"
      },
      {
        "day": "Saturday",
        "hours": "Open 24 hours"
      },
      {
        "day": "Sunday",
        "hours": "Open 24 hours"
      }
    ],
    "imageUrl": "https://lh3.googleusercontent.com/gps-cs-s/AG0ilSyJYnJyhje3_v-sCPZziNIZz5gdrrJhwx-CYGa9J-93fH239Nc1k34XBNUAvRdjOFpA1LykGNc9zYDpS_ONx-4EoTzeb7u1FiKQfx6qafvc4VFAmJn93WmsvsQ9szjsUvxToajqNw=w535-h240-k-no",
    "url": "https://www.google.com/maps/search/?api=1&query=Siddhivinayak%20Tours%20And%20Travels&query_place_id=ChIJR1Rrmwi55zsRfg6hxSnoPMw"
  },
  {
    "title": "Siddiqui Car rental",
    "subTitle": "सिद्दीकी कार रेंटल",
    "categoryName": "Car leasing service",
    "address": "Flat 002, sakina manzil, City Light Co-op Hsg Society Ltd Bld - 3, Almas Colony, kaka nagar, Mumbra, Thane, Maharashtra 400612, India",
    "neighborhood": "Almas Colony, kaka nagar, Mumbra",
    "street": "Flat 002, sakina manzil, City Light Co-op Hsg Society Ltd Bld - 3",
    "city": "Thane",
    "postalCode": "400612",
    "state": "Maharashtra",
    "countryCode": "IN",
    "website": "https://sites.google.com/view/siddiqui-car-rental/home",
    "phone": "+919699983097",
    "phoneUnformatted": "+919699983097",
    "location": {
      "lat": 19.1676899,
      "lng": 73.0263663
    },
    "totalScore": 5,
    "permanentlyClosed": false,
    "temporarilyClosed": false,
    "placeId": "ChIJ5f-hVJy_5zsRuSZp-egPr08",
    "categories": [
      "Car leasing service"
    ],
    "reviewsCount": 3,
    "imagesCount": 13,
    "openingHours": [
      {
        "day": "Monday",
        "hours": "Open 24 hours"
      },
      {
        "day": "Tuesday",
        "hours": "Open 24 hours"
      },
      {
        "day": "Wednesday",
        "hours": "Open 24 hours"
      },
      {
        "day": "Thursday",
        "hours": "Open 24 hours"
      },
      {
        "day": "Friday",
        "hours": "Open 24 hours"
      },
      {
        "day": "Saturday",
        "hours": "Open 24 hours"
      },
      {
        "day": "Sunday",
        "hours": "Open 24 hours"
      }
    ],
    "imageUrl": "https://lh3.googleusercontent.com/p/AF1QipNKRLr6PBF2s9Tq1VxA57NKtj59av20Tz7pMSmE=w436-h240-k-no",
    "url": "https://www.google.com/maps/search/?api=1&query=Siddiqui%20Car%20rental&query_place_id=ChIJ5f-hVJy_5zsRuSZp-egPr08"
  },
  {
    "title": "Space Auto Services | Car Garage, Car Denting Panting, Car AC Repair Service, Car Service Center In Kolshet Thane",
    "subTitle": "स्पेस ऑटो सर्विसेस | कार गैरेज, कार डेंटिंग पेंटिंग, कार एसी रिपेयर सर्विस, कार सर्विस सेंटर इन कोलशेत ठाणे",
    "categoryName": "Car repair and maintenance service",
    "address": "Pipe line Road, opp. 10 no pipe line Lower, Kolshet, Thane West, Thane, Maharashtra 400607, India",
    "neighborhood": "Kolshet, Thane West",
    "street": "Pipe line Road, opp. 10 no pipe line Lower",
    "city": "Thane",
    "postalCode": "400607",
    "state": "Maharashtra",
    "countryCode": "IN",
    "website": "https://wa.me/919769793308",
    "phone": "+919769793308",
    "phoneUnformatted": "+919769793308",
    "location": {
      "lat": 19.242125,
      "lng": 72.9966747
    },
    "totalScore": 4.6,
    "permanentlyClosed": false,
    "temporarilyClosed": false,
    "placeId": "ChIJiSMSCTC75zsRhtUoKrcW3ho",
    "categories": [
      "Car repair and maintenance service",
      "Auto air conditioning service",
      "Auto body shop",
      "Auto painting",
      "Auto repair shop",
      "Auto restoration service",
      "Auto window tinting service",
      "Car wash",
      "Repair service",
      "Vehicle inspection service"
    ],
    "reviewsCount": 47,
    "imagesCount": 379,
    "openingHours": [
      {
        "day": "Monday",
        "hours": "10 AM to 7 PM"
      },
      {
        "day": "Tuesday",
        "hours": "10 AM to 7 PM"
      },
      {
        "day": "Wednesday",
        "hours": "10 AM to 7 PM"
      },
      {
        "day": "Thursday",
        "hours": "10 AM to 7 PM"
      },
      {
        "day": "Friday",
        "hours": "10 AM to 7 PM"
      },
      {
        "day": "Saturday",
        "hours": "10 AM to 7 PM"
      },
      {
        "day": "Sunday",
        "hours": "10 AM to 7 PM"
      }
    ],
    "imageUrl": "https://lh3.googleusercontent.com/p/AF1QipNjVryav1fr5ei8H826FEqfFILd4FMB9Ey6Zv2y=w408-h543-k-no",
    "url": "https://www.google.com/maps/search/?api=1&query=Space%20Auto%20Services%20%7C%20Car%20Garage%2C%20Car%20Denting%20Panting%2C%20Car%20AC%20Repair%20Service%2C%20Car%20Service%20Center%20In%20Kolshet%20Thane&query_place_id=ChIJiSMSCTC75zsRhtUoKrcW3ho"
  },
  {
    "title": "Super motors",
    "subTitle": "सुपर मोटर्स",
    "categoryName": "Car dealer",
    "address": "Shop no 16, Nitin Company, near fire bridage, Ganeshwadi, Thane West, Thane, Maharashtra 400601, India",
    "neighborhood": "Ganeshwadi, Thane West",
    "street": "Shop no 16, Nitin Company, near fire bridage",
    "city": "Thane",
    "postalCode": "400601",
    "state": "Maharashtra",
    "countryCode": "IN",
    "phone": "+917768860860",
    "phoneUnformatted": "+917768860860",
    "location": {
      "lat": 19.2000879,
      "lng": 72.9649202
    },
    "totalScore": 5,
    "permanentlyClosed": false,
    "temporarilyClosed": false,
    "placeId": "ChIJmUChszS55zsRoHEszvLN7mw",
    "categories": [
      "Car dealer"
    ],
    "reviewsCount": 5,
    "imagesCount": 4,
    "openingHours": [
      {
        "day": "Monday",
        "hours": "10 AM to 8 PM"
      },
      {
        "day": "Tuesday",
        "hours": "10 AM to 8 PM"
      },
      {
        "day": "Wednesday",
        "hours": "10 AM to 8 PM"
      },
      {
        "day": "Thursday",
        "hours": "10 AM to 8 PM"
      },
      {
        "day": "Friday",
        "hours": "10 AM to 8 PM"
      },
      {
        "day": "Saturday",
        "hours": "10 AM to 8 PM"
      },
      {
        "day": "Sunday",
        "hours": "10 AM to 8 PM"
      }
    ],
    "imageUrl": "https://lh3.googleusercontent.com/p/AF1QipPyz8eEIKkt_ZB9Mx-5CUiCUfC2XZG_DpjFmE4t=w600-h240-k-no",
    "url": "https://www.google.com/maps/search/?api=1&query=Super%20motors&query_place_id=ChIJmUChszS55zsRoHEszvLN7mw"
  },
  {
    "title": "Supercarz",
    "subTitle": "सुपेर्कॅर्झ",
    "categoryName": "Car dealer",
    "address": "Unit no 308,3rd floor, Mahant Chambers, Rd Number 34, near Cybertech, Sathe Nagar, Jai Bhavani Nagar, Wagle Industrial Estate, Thane West, Thane, Maharashtra 400604, India",
    "neighborhood": "Sathe Nagar, Jai Bhavani Nagar, Wagle Industrial Estate, Thane West",
    "street": "Unit no 308,3rd floor, Mahant Chambers, Rd Number 34, near Cybertech",
    "city": "Thane",
    "postalCode": "400604",
    "state": "Maharashtra",
    "countryCode": "IN",
    "phone": "+919867245555",
    "phoneUnformatted": "+919867245555",
    "location": {
      "lat": 19.2009939,
      "lng": 72.9499942
    },
    "totalScore": 5,
    "permanentlyClosed": false,
    "temporarilyClosed": false,
    "placeId": "ChIJ-T0bPGu55zsR5FZBxaSFiN4",
    "categories": [
      "Car dealer"
    ],
    "reviewsCount": 14,
    "imagesCount": 187,
    "openingHours": [
      {
        "day": "Monday",
        "hours": "10 AM to 8 PM"
      },
      {
        "day": "Tuesday",
        "hours": "10 AM to 8 PM"
      },
      {
        "day": "Wednesday",
        "hours": "10 AM to 8 PM"
      },
      {
        "day": "Thursday",
        "hours": "10 AM to 8 PM"
      },
      {
        "day": "Friday",
        "hours": "10 AM to 8 PM"
      },
      {
        "day": "Saturday",
        "hours": "10 AM to 8 PM"
      },
      {
        "day": "Sunday",
        "hours": "10 AM to 8 PM"
      }
    ],
    "imageUrl": "https://lh3.googleusercontent.com/p/AF1QipPSKCIOSOA8a7HrjsbcKnC50XOOK_lEbCo7HrYS=w408-h544-k-no",
    "url": "https://www.google.com/maps/search/?api=1&query=Supercarz&query_place_id=ChIJ-T0bPGu55zsR5FZBxaSFiN4"
  },
  {
    "title": "THE STREET SMART",
    "subTitle": "द स्ट्रीट स्मार्ट",
    "categoryName": "Car dealer",
    "address": "THE STREET SMART zg-5,flower valley,service road, Eastern Express Hwy, Thane, Maharashtra 400601, India",
    "neighborhood": "Hans Nagar, Thane West",
    "street": "THE STREET SMART zg-5,flower valley,service road, Eastern Express Hwy",
    "city": "Thane",
    "postalCode": "400601",
    "state": "Maharashtra",
    "countryCode": "IN",
    "website": "http://www.thestreetsmart.co.in/",
    "phone": "+917977410318",
    "phoneUnformatted": "+917977410318",
    "location": {
      "lat": 19.2062746,
      "lng": 72.9712905
    },
    "totalScore": 5,
    "permanentlyClosed": false,
    "temporarilyClosed": false,
    "placeId": "ChIJsQLiRV655zsRUK0H2VhYZSY",
    "categories": [
      "Car dealer",
      "Car accessories store"
    ],
    "reviewsCount": 61,
    "imagesCount": 226,
    "openingHours": [
      {
        "day": "Monday",
        "hours": "Closed"
      },
      {
        "day": "Tuesday",
        "hours": "10:30 AM to 8:30 PM"
      },
      {
        "day": "Wednesday",
        "hours": "10:30 AM to 8:30 PM"
      },
      {
        "day": "Thursday",
        "hours": "10:30 AM to 8:30 PM"
      },
      {
        "day": "Friday",
        "hours": "10:30 AM to 8:30 PM"
      },
      {
        "day": "Saturday",
        "hours": "10:30 AM to 8:30 PM"
      },
      {
        "day": "Sunday",
        "hours": "10:30 AM to 8:30 PM"
      }
    ],
    "imageUrl": "https://lh3.googleusercontent.com/gps-cs-s/AG0ilSxR_upQI3uJvlAdNPnUUyKMcIPZYle3iONIc3NFCq-wDl53PQGaS-t1hFxqWOqjh6fyC0UfllSTSgDyqGpSxbGXsSyfizLbjzaJclXU3hWm5dWDA8LdR2TG_DB0q7ldvQXmSt3yDANJ2E-N=w408-h544-k-no",
    "url": "https://www.google.com/maps/search/?api=1&query=THE%20STREET%20SMART&query_place_id=ChIJsQLiRV655zsRUK0H2VhYZSY"
  },
  {
    "title": "TRUST VALUE AUTO",
    "subTitle": "ट्रस्ट वैल्यू ऑटो",
    "categoryName": "Used car dealer",
    "address": "Shop No 15, Plantinum heritage, near kims hospital, Hiranandani Estate, Thane West, Thane, Maharashtra 400607, India",
    "neighborhood": "Hiranandani Estate, Thane West",
    "street": "Shop No 15, Plantinum heritage, near kims hospital",
    "city": "Thane",
    "postalCode": "400607",
    "state": "Maharashtra",
    "countryCode": "IN",
    "phone": "+919870350077",
    "phoneUnformatted": "+919870350077",
    "location": {
      "lat": 19.2510555,
      "lng": 72.9831577
    },
    "totalScore": 5,
    "permanentlyClosed": false,
    "temporarilyClosed": false,
    "placeId": "ChIJe1bIEvW75zsRlPi070pYeyQ",
    "categories": [
      "Used car dealer"
    ],
    "reviewsCount": 89,
    "imagesCount": 114,
    "openingHours": [
      {
        "day": "Monday",
        "hours": "Open 24 hours"
      },
      {
        "day": "Tuesday",
        "hours": "Open 24 hours"
      },
      {
        "day": "Wednesday",
        "hours": "Open 24 hours"
      },
      {
        "day": "Thursday",
        "hours": "Open 24 hours"
      },
      {
        "day": "Friday",
        "hours": "Open 24 hours"
      },
      {
        "day": "Saturday",
        "hours": "Open 24 hours"
      },
      {
        "day": "Sunday",
        "hours": "Open 24 hours"
      }
    ],
    "imageUrl": "https://lh3.googleusercontent.com/gps-cs-s/AG0ilSyahsPzvRvgMTtPqm00Dgz5JGhcGplfo8d0eFMffCkzqcHdvTHjnfu1A-couTeMbIRYBdr6HLVKSNDYYJ7xZzBqTkiWNg6gSmHJycouel_uqoCzIc9Tnr-rRcHHS_lMRVWThDusk5_zRS7b=w408-h544-k-no",
    "url": "https://www.google.com/maps/search/?api=1&query=TRUST%20VALUE%20AUTO&query_place_id=ChIJe1bIEvW75zsRlPi070pYeyQ"
  },
  {
    "title": "Tata Motors Cars Showroom - Heritage Motors, Ghodbunder Road",
    "subTitle": "टाटा मोटर्स कार्स शोरूम - हेरिटेज मोटर्स, घोड़बंदर रोड",
    "categoryName": "Car dealer",
    "address": "Vibgyor, No A1, Junction of Hiranandani Estate, Ghodbunder Rd, near Horizon Prime Hospital, Patlipada, Thane, Maharashtra 400607, India",
    "neighborhood": "Patlipada, Thane West",
    "street": "Vibgyor, No A1, Junction of Hiranandani Estate, Ghodbunder Rd, near Horizon Prime Hospital",
    "city": "Thane",
    "postalCode": "400607",
    "state": "Maharashtra",
    "countryCode": "IN",
    "website": "https://dealer-locator.cars.tatamotors.com/tata-motors-cars-showroom-heritage-motors-ghodbunder-road-car-dealer-patlipada-thane-90054/Home",
    "phone": "+917045247113",
    "phoneUnformatted": "+917045247113",
    "location": {
      "lat": 19.2480965,
      "lng": 72.9754663
    },
    "totalScore": 4.2,
    "permanentlyClosed": false,
    "temporarilyClosed": false,
    "placeId": "ChIJWymUPZW75zsRl7em-9x6L58",
    "categories": [
      "Car dealer"
    ],
    "reviewsCount": 1164,
    "imagesCount": 362,
    "openingHours": [
      {
        "day": "Monday",
        "hours": "10 AM to 9 PM"
      },
      {
        "day": "Tuesday",
        "hours": "10 AM to 9 PM"
      },
      {
        "day": "Wednesday",
        "hours": "10 AM to 9 PM"
      },
      {
        "day": "Thursday",
        "hours": "10 AM to 9 PM"
      },
      {
        "day": "Friday",
        "hours": "10 AM to 9 PM"
      },
      {
        "day": "Saturday",
        "hours": "10 AM to 9 PM"
      },
      {
        "day": "Sunday",
        "hours": "10 AM to 9 PM"
      }
    ],
    "imageUrl": "https://lh3.googleusercontent.com/gps-cs-s/AG0ilSys1rwnBsotk9uvS32xvTebb6FSnPasG3lSHYXL3qbiHU56L9iO6FcTQq-7XohkHRK7wQ0QbYok8MlURvUsK97me2EtRnFsf9T2izK5lN7Pa_bpygyTTpJVYplcNUwHXVE0Sxk=w532-h240-k-no",
    "url": "https://www.google.com/maps/search/?api=1&query=Tata%20Motors%20Cars%20Showroom%20-%20Heritage%20Motors%2C%20Ghodbunder%20Road&query_place_id=ChIJWymUPZW75zsRl7em-9x6L58"
  },
  {
    "title": "Tejas Motors",
    "subTitle": "तेजस मोटर्स",
    "categoryName": "Car dealer",
    "address": "Shop No 1/2, Datta Krupa Housing Society, Near, Service Rd, near Sankalp Heights, opp. Viviana Mall, D N Nagar, Runwal Nagar, Thane West, Thane, Maharashtra 400601, India",
    "neighborhood": "D N Nagar, Runwal Nagar, Thane West",
    "street": "Shop No 1/2, Datta Krupa Housing Society, Near, Service Rd, near Sankalp Heights, opp. Viviana Mall",
    "city": "Thane",
    "postalCode": "400601",
    "state": "Maharashtra",
    "countryCode": "IN",
    "phone": "+919869238872",
    "phoneUnformatted": "+919869238872",
    "location": {
      "lat": 19.2083847,
      "lng": 72.9736403
    },
    "totalScore": 4.6,
    "permanentlyClosed": false,
    "temporarilyClosed": false,
    "placeId": "ChIJlciUbzy55zsRl22TvdipktE",
    "categories": [
      "Car dealer"
    ],
    "reviewsCount": 137,
    "imagesCount": 69,
    "openingHours": [
      {
        "day": "Monday",
        "hours": "9 AM to 8 PM"
      },
      {
        "day": "Tuesday",
        "hours": "9 AM to 8 PM"
      },
      {
        "day": "Wednesday",
        "hours": "9 AM to 8 PM"
      },
      {
        "day": "Thursday",
        "hours": "9 AM to 8 PM"
      },
      {
        "day": "Friday",
        "hours": "9 AM to 8 PM"
      },
      {
        "day": "Saturday",
        "hours": "9 AM to 8 PM"
      },
      {
        "day": "Sunday",
        "hours": "9 AM to 8 PM"
      }
    ],
    "imageUrl": "https://lh3.googleusercontent.com/p/AF1QipNgfW_qCwKvGzub7YviIETv-VBySNhofoeee-UW=w532-h240-k-no",
    "url": "https://www.google.com/maps/search/?api=1&query=Tejas%20Motors&query_place_id=ChIJlciUbzy55zsRl22TvdipktE"
  },
  {
    "title": "The Quick Multi Car Showroom - Best Car Dealers in Thane",
    "subTitle": "द क्विक मल्टी कार शोरूम - बेस्ट कार डीलर्स इन ठाणे",
    "categoryName": "Car dealer",
    "address": "Shop No 11&12 Waghbill, R-plazza Plazza, Swastik Regalia, Ghodbunder Rd, Thane, Maharashtra 400615, India",
    "neighborhood": "Kavesar, Thane West",
    "street": "Shop No 11&12 Waghbill, R-plazza Plazza, Swastik Regalia, Ghodbunder Rd",
    "city": "Thane",
    "postalCode": "400615",
    "state": "Maharashtra",
    "countryCode": "IN",
    "location": {
      "lat": 19.2629947,
      "lng": 72.9770609
    },
    "totalScore": 4.8,
    "permanentlyClosed": false,
    "temporarilyClosed": false,
    "placeId": "ChIJS4S0eCW75zsRtfmf6GT7y84",
    "categories": [
      "Car dealer",
      "Auto broker",
      "Insurance agency"
    ],
    "reviewsCount": 81,
    "imagesCount": 221,
    "openingHours": [
      {
        "day": "Monday",
        "hours": "9:30 AM to 6:30 PM"
      },
      {
        "day": "Tuesday",
        "hours": "9:30 AM to 6:30 PM"
      },
      {
        "day": "Wednesday",
        "hours": "9:30 AM to 6:30 PM"
      },
      {
        "day": "Thursday",
        "hours": "9:30 AM to 6:30 PM"
      },
      {
        "day": "Friday",
        "hours": "9:30 AM to 6:30 PM"
      },
      {
        "day": "Saturday",
        "hours": "9:30 AM to 6:30 PM"
      },
      {
        "day": "Sunday",
        "hours": "9:30 AM to 6:30 PM"
      }
    ],
    "imageUrl": "https://lh3.googleusercontent.com/gps-cs-s/AG0ilSwGkIwbMK4hdXDD10JExe_CyvpZho3m52ZWTNrYsnTvwJP8dmpZraQuxQYqVla0H3d10ij4OTgcdZXbhNT0ExXe5HjbswDXtRIPFTcdCmvm1tRUncxQ0fmNysdlvirbcBsXeSFcpv_UhX6t=w408-h544-k-no",
    "url": "https://www.google.com/maps/search/?api=1&query=The%20Quick%20Multi%20Car%20Showroom%20-%20Best%20Car%20Dealers%20in%20Thane&query_place_id=ChIJS4S0eCW75zsRtfmf6GT7y84"
  },
  {
    "title": "True Cars",
    "subTitle": "ट्रू कार्स",
    "categoryName": "Car dealer",
    "address": "The Walk Gate, 2, Hiranandani Estate Rd, Patlipada, Thane West, Thane, Maharashtra 400610, India",
    "neighborhood": "Patlipada, Thane West",
    "street": "The Walk Gate, 2, Hiranandani Estate Rd",
    "city": "Thane",
    "postalCode": "400610",
    "state": "Maharashtra",
    "countryCode": "IN",
    "phone": "+918104884706",
    "phoneUnformatted": "+918104884706",
    "location": {
      "lat": 19.2469722,
      "lng": 72.9767906
    },
    "totalScore": 4.9,
    "permanentlyClosed": false,
    "temporarilyClosed": false,
    "placeId": "ChIJcXiH8u255zsR-FhWDtbTRUk",
    "categories": [
      "Car dealer"
    ],
    "reviewsCount": 121,
    "imagesCount": 1147,
    "openingHours": [
      {
        "day": "Monday",
        "hours": "Open 24 hours"
      },
      {
        "day": "Tuesday",
        "hours": "Open 24 hours"
      },
      {
        "day": "Wednesday",
        "hours": "Open 24 hours"
      },
      {
        "day": "Thursday",
        "hours": "Open 24 hours"
      },
      {
        "day": "Friday",
        "hours": "Open 24 hours"
      },
      {
        "day": "Saturday",
        "hours": "Open 24 hours"
      },
      {
        "day": "Sunday",
        "hours": "Open 24 hours"
      }
    ],
    "imageUrl": "https://lh3.googleusercontent.com/p/AF1QipNkf85r2ruPdOmsvsujAROIuetAAQCSyQsvJuZE=w408-h306-k-no",
    "url": "https://www.google.com/maps/search/?api=1&query=True%20Cars&query_place_id=ChIJcXiH8u255zsR-FhWDtbTRUk"
  }
]