[
  {
    "title": "AGRA TAJ VISIT (AGRA)",
    "subTitle": "आगरा ताज विजिट (आगरा)",
    "categoryName": "Car leasing service",
    "address": "First Floor, Panchavati Plaza, 31, Agra, Uttar Pradesh 282006, India",
    "neighborhood": "Taj Nagari, R.K. Puram Phase-2",
    "street": "First Floor, Panchavati Plaza, 31",
    "city": "Agra, Dhandhupura",
    "postalCode": "282006",
    "state": "Uttar Pradesh",
    "countryCode": "IN",
    "website": "https://www.agratajvisit.com/",
    "phone": "+919719333551",
    "phoneUnformatted": "+919719333551",
    "location": {
      "lat": 27.1598797,
      "lng": 78.0535361
    },
    "totalScore": 5,
    "permanentlyClosed": false,
    "temporarilyClosed": false,
    "placeId": "ChIJCdqHiFpxdDkRbPsc6Yi-BZc",
    "categories": [
      "Car leasing service",
      "Sightseeing tour agency",
      "Tour agency",
      "Tour operator",
      "Tourist attraction",
      "Travel agency"
    ],
    "reviewsCount": 1,
    "imagesCount": 12,
    "openingHours": [
      {
        "day": "Monday",
        "hours": "10 AM to 8 PM"
      },
      {
        "day": "Tuesday",
        "hours": "10 AM to 8 PM"
      },
      {
        "day": "Wednesday",
        "hours": "10 AM to 8 PM"
      },
      {
        "day": "Thursday",
        "hours": "10 AM to 8 PM"
      },
      {
        "day": "Friday",
        "hours": "10 AM to 8 PM"
      },
      {
        "day": "Saturday",
        "hours": "10 AM to 8:30 PM"
      },
      {
        "day": "Sunday",
        "hours": "Closed"
      }
    ],
    "imageUrl": "https://lh3.googleusercontent.com/p/AF1QipMvbZYQu74i-VxXFNArjByZtQzjzoZlqMDdgiT6=w426-h240-k-no",
    "url": "https://www.google.com/maps/search/?api=1&query=AGRA%20TAJ%20VISIT%20(AGRA)&query_place_id=ChIJCdqHiFpxdDkRbPsc6Yi-BZc"
  },
  {
    "title": "Atul Holidays | Agra Taxi Services | Car Rental Agra | Tempo Traveller In Agra",
    "subTitle": "अतुल हॉलीडे",
    "categoryName": "Car rental agency",
    "address": "HIG/B36, Tin Ka Nagla Rd, Taj Nagari, Telipara, Tajganj, Agra, Dhandhupura, Uttar Pradesh 282006, India",
    "neighborhood": "Taj Nagari, Telipara, Tajganj",
    "street": "HIG/B36, Tin Ka Nagla Rd",
    "city": "Agra, Dhandhupura",
    "postalCode": "282006",
    "state": "Uttar Pradesh",
    "countryCode": "IN",
    "website": "https://www.agrataxi.net/",
    "phone": "+917060112552",
    "phoneUnformatted": "+917060112552",
    "location": {
      "lat": 27.1621145,
      "lng": 78.0537921
    },
    "totalScore": 4.9,
    "permanentlyClosed": false,
    "temporarilyClosed": false,
    "placeId": "ChIJiQ-cQcpxdDkRVziNpbYTlTU",
    "categories": [
      "Car rental agency",
      "Car leasing service",
      "Taxi service"
    ],
    "reviewsCount": 619,
    "imagesCount": 345,
    "openingHours": [],
    "imageUrl": "https://lh3.googleusercontent.com/p/AF1QipNRuCxX-AlN3KQ239BTGX6-t3cWNynop93R0j4v=w426-h240-k-no",
    "url": "https://www.google.com/maps/search/?api=1&query=Atul%20Holidays%20%7C%20Agra%20Taxi%20Services%20%7C%20Car%20Rental%20Agra%20%7C%20Tempo%20Traveller%20In%20Agra&query_place_id=ChIJiQ-cQcpxdDkRVziNpbYTlTU"
  },
  {
    "title": "Maa Gayatri Travel",
    "subTitle": "माँ गायत्री ट्रैवल",
    "categoryName": "Car rental agency",
    "address": "Taj East Gate Rd, opp. kala krati petrol, Agra, Dhandhupura, Uttar Pradesh 282006, India",
    "street": "Taj East Gate Rd, opp. kala krati petrol",
    "city": "Agra, Dhandhupura",
    "postalCode": "282006",
    "state": "Uttar Pradesh",
    "countryCode": "IN",
    "website": "http://maagaytritravelagra.co.in/",
    "phone": "+919758969705",
    "phoneUnformatted": "+919758969705",
    "location": {
      "lat": 27.1604381,
      "lng": 78.0614596
    },
    "totalScore": 4.7,
    "permanentlyClosed": false,
    "temporarilyClosed": false,
    "placeId": "ChIJC-We1e5xdDkRSlWsazL9f1Q",
    "categories": [
      "Car rental agency"
    ],
    "reviewsCount": 45,
    "imagesCount": 72,
    "openingHours": [
      {
        "day": "Monday",
        "hours": "Open 24 hours"
      },
      {
        "day": "Tuesday",
        "hours": "Open 24 hours"
      },
      {
        "day": "Wednesday",
        "hours": "Open 24 hours"
      },
      {
        "day": "Thursday",
        "hours": "Open 24 hours"
      },
      {
        "day": "Friday",
        "hours": "Open 24 hours"
      },
      {
        "day": "Saturday",
        "hours": "Open 24 hours"
      },
      {
        "day": "Sunday",
        "hours": "Open 24 hours"
      }
    ],
    "imageUrl": "https://lh3.googleusercontent.com/gps-cs-s/AG0ilSzP-TiPWLJhBoNc-8pYC1yh_TMe_0lW1a5Pq9Mu8IDK2G4GKgOMH2xFvAUUauSwIwWGvm30g5_74_uNOnFPF_WvJdvFSilCdBTeGJ9muvcnYJJLgxqaQJFstsHXDNOa_fibcZuNoHbcsMwN=w408-h306-k-no",
    "url": "https://www.google.com/maps/search/?api=1&query=Maa%20Gayatri%20Travel&query_place_id=ChIJC-We1e5xdDkRSlWsazL9f1Q"
  }
]
