[
  {
    "title": "Agra Car Rental",
    "subTitle": "आगरा कार रेंटल",
    "categoryName": "Car rental agency",
    "address": "LIG-125, LIG, Indrapuram, Tajganj, Agra, Basai, Uttar Pradesh 282001, India",
    "neighborhood": "LIG, Indrapuram, Tajganj",
    "street": "LIG-125",
    "city": "Agra, Basai",
    "postalCode": "282001",
    "state": "Uttar Pradesh",
    "countryCode": "IN",
    "website": "https://www.facebook.com/TaxiServiceAgra",
    "location": {
      "lat": 27.1483125,
      "lng": 78.0439678
    },
    "totalScore": 5,
    "permanentlyClosed": false,
    "temporarilyClosed": false,
    "placeId": "ChIJpUtzOABxdDkRwTSn64PfdQY",
    "categories": [
      "Car rental agency"
    ],
    "reviewsCount": 5,
    "imagesCount": 42,
    "openingHours": [
      {
        "day": "Monday",
        "hours": "9 AM to 8 PM"
      },
      {
        "day": "Tuesday",
        "hours": "9 AM to 8 PM"
      },
      {
        "day": "Wednesday",
        "hours": "9 AM to 8 PM"
      },
      {
        "day": "Thursday",
        "hours": "9 AM to 8 PM"
      },
      {
        "day": "Friday",
        "hours": "9 AM to 8 PM"
      },
      {
        "day": "Saturday",
        "hours": "9 AM to 8 PM"
      },
      {
        "day": "Sunday",
        "hours": "Closed"
      }
    ],
    "imageUrl": "https://media.indianluxurycars.com/google/0325d6cd403b2ef8c00bcbcaa03ba4c8fdcfb14ca8705a7f773d4d4d85e10277.jpg",
    "url": "https://www.google.com/maps/search/?api=1&query=Agra%20Car%20Rental&query_place_id=ChIJpUtzOABxdDkRwTSn64PfdQY"
  },
  {
    "title": "Book Luxury Car Rental for Wedding in Agra",
    "subTitle": "बुक लक्जरी कार रेंटल फॉर वेडिंग इन आगरा",
    "categoryName": "Car leasing service",
    "address": "Tajganj, Agra, Basai, Uttar Pradesh 282004, India",
    "neighborhood": "Tajganj",
    "city": "Agra, Basai",
    "postalCode": "282004",
    "state": "Uttar Pradesh",
    "countryCode": "IN",
    "phone": "+918448073349",
    "phoneUnformatted": "+918448073349",
    "location": {
      "lat": 27.156026,
      "lng": 78.0581003
    },
    "totalScore": 3,
    "permanentlyClosed": false,
    "temporarilyClosed": false,
    "placeId": "ChIJufiwHYVxdDkRB7sWNfimjsk",
    "categories": [
      "Car leasing service"
    ],
    "reviewsCount": 1,
    "imagesCount": 16,
    "openingHours": [
      {
        "day": "Monday",
        "hours": "Open 24 hours"
      },
      {
        "day": "Tuesday",
        "hours": "Open 24 hours"
      },
      {
        "day": "Wednesday",
        "hours": "Open 24 hours"
      },
      {
        "day": "Thursday",
        "hours": "Open 24 hours"
      },
      {
        "day": "Friday",
        "hours": "Open 24 hours"
      },
      {
        "day": "Saturday",
        "hours": "Open 24 hours"
      },
      {
        "day": "Sunday",
        "hours": "Open 24 hours"
      }
    ],
    "imageUrl": "https://media.indianluxurycars.com/google/dda6103a54feeceeb78982a0970bb4549c81dcefe5ece08f8bd2d58e7d0e0e69.jpg",
    "url": "https://www.google.com/maps/search/?api=1&query=Book%20Luxury%20Car%20Rental%20for%20Wedding%20in%20Agra&query_place_id=ChIJufiwHYVxdDkRB7sWNfimjsk"
  },
  {
    "title": "Car Rentals Agra",
    "subTitle": "कार रेंटल्स आगरा",
    "categoryName": "Car rental agency",
    "address": "Fatehabad Rd, Taj Nagri Phase 2, Tajganj, Agra, Basai, Uttar Pradesh 282001, India",
    "neighborhood": "Taj Nagri Phase 2, Tajganj",
    "street": "Fatehabad Rd",
    "city": "Agra, Basai",
    "postalCode": "282001",
    "state": "Uttar Pradesh",
    "countryCode": "IN",
    "website": "https://carrentalsagra.com/",
    "phone": "+919997183987",
    "phoneUnformatted": "+919997183987",
    "location": {
      "lat": 27.1541998,
      "lng": 78.0498472
    },
    "totalScore": 4.9,
    "permanentlyClosed": false,
    "temporarilyClosed": false,
    "placeId": "ChIJyc24fSNxdDkRE6kz3JrX8t8",
    "categories": [
      "Car rental agency",
      "Car leasing service",
      "Taxi service"
    ],
    "reviewsCount": 41,
    "imagesCount": 47,
    "openingHours": [
      {
        "day": "Monday",
        "hours": "8 AM to 8 PM"
      },
      {
        "day": "Tuesday",
        "hours": "8 AM to 8 PM"
      },
      {
        "day": "Wednesday",
        "hours": "8 AM to 8 PM"
      },
      {
        "day": "Thursday",
        "hours": "8 AM to 8 PM"
      },
      {
        "day": "Friday",
        "hours": "8 AM to 8 PM"
      },
      {
        "day": "Saturday",
        "hours": "8 AM to 8 PM"
      },
      {
        "day": "Sunday",
        "hours": "8 AM to 8 PM"
      }
    ],
    "imageUrl": "https://media.indianluxurycars.com/google/3357501e3d57d626c27be76a2f20f11668395250af77dc861acb258d8ede403a.jpg",
    "url": "https://www.google.com/maps/search/?api=1&query=Car%20Rentals%20Agra&query_place_id=ChIJyc24fSNxdDkRE6kz3JrX8t8"
  },
  {
    "title": "Luxury BMW Wedding Car Rental",
    "subTitle": "लक्जरी बीएमडब्लू वेडिंग कार रेंटल",
    "categoryName": "Car leasing service",
    "address": "C4, Taj Nagri Phase 2, Tajganj, Agra, Basai, Uttar Pradesh 282004, India",
    "neighborhood": "Taj Nagri Phase 2, Tajganj",
    "street": "C4",
    "city": "Agra, Basai",
    "postalCode": "282004",
    "state": "Uttar Pradesh",
    "countryCode": "IN",
    "website": "https://www.rentcaragra.com/",
    "phone": "+918433097793",
    "phoneUnformatted": "+918433097793",
    "location": {
      "lat": 27.1544256,
      "lng": 78.0589834
    },
    "totalScore": 5,
    "permanentlyClosed": false,
    "temporarilyClosed": false,
    "placeId": "ChIJkWOUmslxdDkR9B2ElALHn54",
    "categories": [
      "Car leasing service",
      "Car rental agency"
    ],
    "reviewsCount": 2,
    "imagesCount": 34,
    "openingHours": [
      {
        "day": "Monday",
        "hours": "Open 24 hours"
      },
      {
        "day": "Tuesday",
        "hours": "Open 24 hours"
      },
      {
        "day": "Wednesday",
        "hours": "Open 24 hours"
      },
      {
        "day": "Thursday",
        "hours": "Open 24 hours"
      },
      {
        "day": "Friday",
        "hours": "Open 24 hours"
      },
      {
        "day": "Saturday",
        "hours": "Open 24 hours"
      },
      {
        "day": "Sunday",
        "hours": "Open 24 hours"
      }
    ],
    "imageUrl": "https://media.indianluxurycars.com/google/d3c57bba99ec027d715b7e71b1856e42a281d73e86ecd1b6a8e2c7d3b86bc6cd.jpg",
    "url": "https://www.google.com/maps/search/?api=1&query=Luxury%20BMW%20Wedding%20Car%20Rental&query_place_id=ChIJkWOUmslxdDkR9B2ElALHn54"
  },
  {
    "title": "Rent Luxury Car Agra | Vintage Wedding Cars rental",
    "subTitle": "रेंट लक्जरी कार आगरा | विंटेज वेडिंग कार्स रेंटल",
    "categoryName": "Car leasing service",
    "address": "Taj Royale, Taj Nagri Phase 2, Tajganj, Agra, Basai, Uttar Pradesh 282006, India",
    "neighborhood": "Taj Nagri Phase 2, Tajganj",
    "street": "Taj Royale",
    "city": "Agra, Basai",
    "postalCode": "282006",
    "state": "Uttar Pradesh",
    "countryCode": "IN",
    "website": "http://www.rentcaragra.com/?utm_source=google&utm_medium=wix_google_business_profile&utm_campaign=7518471422611486483",
    "phone": "+918433097793",
    "phoneUnformatted": "+918433097793",
    "location": {
      "lat": 27.1563411,
      "lng": 78.0579865
    },
    "totalScore": 4.8,
    "permanentlyClosed": false,
    "temporarilyClosed": false,
    "placeId": "ChIJhYrqx7BxdDkRrbaxfP94Dy8",
    "categories": [
      "Car leasing service",
      "Car rental agency"
    ],
    "reviewsCount": 35,
    "imagesCount": 157,
    "openingHours": [
      {
        "day": "Monday",
        "hours": "Open 24 hours"
      },
      {
        "day": "Tuesday",
        "hours": "Open 24 hours"
      },
      {
        "day": "Wednesday",
        "hours": "Open 24 hours"
      },
      {
        "day": "Thursday",
        "hours": "Open 24 hours"
      },
      {
        "day": "Friday",
        "hours": "Open 24 hours"
      },
      {
        "day": "Saturday",
        "hours": "Open 24 hours"
      },
      {
        "day": "Sunday",
        "hours": "Open 24 hours"
      }
    ],
    "imageUrl": "https://media.indianluxurycars.com/google/4f2f53982b86d58c836521f7e0a8ca133734e2adc6c08ade691bf9c39d1c6c02.jpg",
    "url": "https://www.google.com/maps/search/?api=1&query=Rent%20Luxury%20Car%20Agra%20%7C%20Vintage%20Wedding%20Cars%20rental&query_place_id=ChIJhYrqx7BxdDkRrbaxfP94Dy8"
  },
  {
    "title": "Saniya Tour & Travels | Hire Taxi in Delhi, Agra, Jaipur",
    "subTitle": "सानिया टूर & ट्रैवल्स | हीरे टैक्सी इन दिल्ली, आगरा, जयपुर",
    "categoryName": "Car rental agency",
    "address": "Abbas nagar, 30A /118, Fatehabad Rd, opp. Saga Emporium, Tajganj, Agra, Basai, Uttar Pradesh 282001, India",
    "neighborhood": "Tajganj",
    "street": "Abbas nagar, 30A /118, Fatehabad Rd, opp. Saga Emporium",
    "city": "Agra, Basai",
    "postalCode": "282001",
    "state": "Uttar Pradesh",
    "countryCode": "IN",
    "website": "https://daytouragra.com/",
    "phone": "+917895208527",
    "phoneUnformatted": "+917895208527",
    "location": {
      "lat": 27.156298,
      "lng": 78.047305
    },
    "totalScore": 4.6,
    "permanentlyClosed": false,
    "temporarilyClosed": false,
    "placeId": "ChIJmXYlQyFxdDkRzxrV1VpVcS0",
    "categories": [
      "Car rental agency",
      "Boat tour agency",
      "Sightseeing tour agency",
      "Taxi service",
      "Tour operator"
    ],
    "reviewsCount": 11,
    "imagesCount": 10,
    "openingHours": [
      {
        "day": "Monday",
        "hours": "Open 24 hours"
      },
      {
        "day": "Tuesday",
        "hours": "Open 24 hours"
      },
      {
        "day": "Wednesday",
        "hours": "Open 24 hours"
      },
      {
        "day": "Thursday",
        "hours": "Open 24 hours"
      },
      {
        "day": "Friday",
        "hours": "Open 24 hours"
      },
      {
        "day": "Saturday",
        "hours": "Open 24 hours"
      },
      {
        "day": "Sunday",
        "hours": "Open 24 hours"
      }
    ],
    "imageUrl": "https://media.indianluxurycars.com/google/8bfa0bb0099778bf7416ca41dda7f0c9aa6ffe137ce41f398c57cfe57c9af0cb.jpg",
    "url": "https://www.google.com/maps/search/?api=1&query=Saniya%20Tour%20%26%20Travels%20%7C%20Hire%20Taxi%20in%20Delhi%2C%20Agra%2C%20Jaipur&query_place_id=ChIJmXYlQyFxdDkRzxrV1VpVcS0"
  },
  {
    "title": "TAJ AGRA TOURS | Taj Agra Tour and Travels",
    "subTitle": "ताज आगरा टूर्स | ताज आगरा टूर एंड ट्रैवल्स",
    "categoryName": "Car leasing service",
    "address": "Taj Royale, G/C-1, Taj Nagri Phase 2, Tajganj, Agra, Basai, Uttar Pradesh 282006, India",
    "neighborhood": "Taj Nagri Phase 2, Tajganj",
    "street": "Taj Royale, G/C-1",
    "city": "Agra, Basai",
    "postalCode": "282006",
    "state": "Uttar Pradesh",
    "countryCode": "IN",
    "website": "https://www.tajagratours.com/",
    "phone": "+918433097793",
    "phoneUnformatted": "+918433097793",
    "location": {
      "lat": 27.1563823,
      "lng": 78.057805
    },
    "totalScore": 5,
    "permanentlyClosed": false,
    "temporarilyClosed": false,
    "placeId": "ChIJJ4iU6oNxdDkRu6PpgcZK57c",
    "categories": [
      "Car leasing service",
      "Tour operator",
      "Sightseeing tour agency",
      "Travel agency"
    ],
    "reviewsCount": 6,
    "imagesCount": 51,
    "openingHours": [
      {
        "day": "Monday",
        "hours": "Open 24 hours"
      },
      {
        "day": "Tuesday",
        "hours": "Open 24 hours"
      },
      {
        "day": "Wednesday",
        "hours": "Open 24 hours"
      },
      {
        "day": "Thursday",
        "hours": "Open 24 hours"
      },
      {
        "day": "Friday",
        "hours": "Open 24 hours"
      },
      {
        "day": "Saturday",
        "hours": "Open 24 hours"
      },
      {
        "day": "Sunday",
        "hours": "Open 24 hours"
      }
    ],
    "imageUrl": "https://media.indianluxurycars.com/google/d3c57bba99ec027d715b7e71b1856e42a281d73e86ecd1b6a8e2c7d3b86bc6cd.jpg",
    "url": "https://www.google.com/maps/search/?api=1&query=TAJ%20AGRA%20TOURS%20%7C%20Taj%20Agra%20Tour%20and%20Travels&query_place_id=ChIJJ4iU6oNxdDkRu6PpgcZK57c"
  },
  {
    "title": "Taj Mahal Cabs ( Taj Mahal Tours)",
    "subTitle": "ताज महल कैब्स ( ताज महल टूर्स)",
    "categoryName": "Car rental agency",
    "address": "44 D, Neethi Bagh Colony, Agra, Uttar Pradesh 282001, India",
    "neighborhood": "Tajganj",
    "street": "44 D, Neethi Bagh Colony",
    "city": "Agra, Basai",
    "postalCode": "282001",
    "state": "Uttar Pradesh",
    "countryCode": "IN",
    "website": "https://tajmahalcabs.com/",
    "phone": "+917500840840",
    "phoneUnformatted": "+917500840840",
    "location": {
      "lat": 27.150946,
      "lng": 78.0448644
    },
    "totalScore": 4.4,
    "permanentlyClosed": false,
    "temporarilyClosed": false,
    "placeId": "ChIJDW_x-mpxdDkRGZ_czQ2ZLP4",
    "categories": [
      "Car rental agency",
      "Car leasing service",
      "Sightseeing tour agency",
      "Hotel",
      "Taxi service",
      "Tour agency",
      "Tour operator",
      "Travel agency"
    ],
    "reviewsCount": 55,
    "imagesCount": 439,
    "openingHours": [],
    "imageUrl": "https://media.indianluxurycars.com/google/599ba85c19d4e2d5d4d4edec7f490dd8fb4b035db8dfaf6f45c974ebc973e98a.jpg",
    "url": "https://www.google.com/maps/search/?api=1&query=Taj%20Mahal%20Cabs%20(%20Taj%20Mahal%20Tours)&query_place_id=ChIJDW_x-mpxdDkRGZ_czQ2ZLP4"
  },
  {
    "title": "Taj Mahal Tours",
    "subTitle": "ताजमहल टूर्स",
    "categoryName": "Car rental agency",
    "address": "Shop No. 12, Near Mughal Hotel, Fatehabad Road, Agra, Uttar Pradesh 282001, India",
    "neighborhood": "Opposite Saga Emporium, Tajganj",
    "street": "Shop No. 12, Near Mughal Hotel, Fatehabad Road",
    "city": "Agra, Basai",
    "postalCode": "282001",
    "state": "Uttar Pradesh",
    "countryCode": "IN",
    "phone": "+919808981402",
    "phoneUnformatted": "+919808981402",
    "location": {
      "lat": 27.15798,
      "lng": 78.0480321
    },
    "totalScore": 4.3,
    "permanentlyClosed": false,
    "temporarilyClosed": false,
    "placeId": "ChIJIWYYuw1xdDkR9sWvqoLGC5Q",
    "categories": [
      "Car rental agency",
      "Car leasing service",
      "Tour agency",
      "Sightseeing tour agency",
      "Tour operator",
      "Travel agency"
    ],
    "reviewsCount": 27,
    "imagesCount": 32,
    "openingHours": [
      {
        "day": "Monday",
        "hours": "9 AM to 6 PM"
      },
      {
        "day": "Tuesday",
        "hours": "9 AM to 6 PM"
      },
      {
        "day": "Wednesday",
        "hours": "9 AM to 6 PM"
      },
      {
        "day": "Thursday",
        "hours": "9 AM to 6 PM"
      },
      {
        "day": "Friday",
        "hours": "9 AM to 6 PM"
      },
      {
        "day": "Saturday",
        "hours": "9 AM to 6 PM"
      },
      {
        "day": "Sunday",
        "hours": "9 AM to 6 PM"
      }
    ],
    "imageUrl": "https://media.indianluxurycars.com/google/13debe372793978b23aea3ea4b19c033db82c11c50d646d00577e71da9bc5898.jpg",
    "url": "https://www.google.com/maps/search/?api=1&query=Taj%20Mahal%20Tours&query_place_id=ChIJIWYYuw1xdDkR9sWvqoLGC5Q"
  }
]
