[
  {
    "title": "707 Tours",
    "subTitle": "707 टूर्स",
    "categoryName": "Car rental agency",
    "address": "Fatehabad Rd, 15th Battallion PAC Quaters, Tajganj, Agra, Uttar Pradesh 282001, India",
    "neighborhood": "15th Battallion PAC Quaters, Tajganj",
    "street": "Fatehabad Rd",
    "city": "Agra",
    "postalCode": "282001",
    "state": "Uttar Pradesh",
    "countryCode": "IN",
    "website": "https://www.707tours.in/",
    "phone": "+919759478370",
    "phoneUnformatted": "+919759478370",
    "location": {
      "lat": 27.160836,
      "lng": 78.030949
    },
    "totalScore": 4.9,
    "permanentlyClosed": false,
    "temporarilyClosed": false,
    "placeId": "ChIJUffaiihxdDkRmsUQSSpBY0c",
    "categories": [
      "Car rental agency",
      "Car leasing service",
      "Tour agency",
      "Hotel",
      "Sightseeing tour agency",
      "Tour operator",
      "Travel agency"
    ],
    "reviewsCount": 61,
    "imagesCount": 17,
    "openingHours": [],
    "imageUrl": "https://media.indianluxurycars.com/google/56f1c9b53ebbd0280109822dec278418bb7d02b0eac4937c5d2b7ddf39c6732b.jpg",
    "url": "https://www.google.com/maps/search/?api=1&query=707%20Tours&query_place_id=ChIJUffaiihxdDkRmsUQSSpBY0c"
  },
  {
    "title": "A V Communications",
    "subTitle": "ए वि कम्युनिकेशंस",
    "categoryName": "Car rental agency",
    "address": "Maharaja Agrasen Marg, Karbala, Kamla Nagar, Agra, Uttar Pradesh 282005, India",
    "neighborhood": "Karbala, Kamla Nagar",
    "street": "Maharaja Agrasen Marg",
    "city": "Agra",
    "postalCode": "282005",
    "state": "Uttar Pradesh",
    "countryCode": "IN",
    "phone": "+919027178989",
    "phoneUnformatted": "+919027178989",
    "location": {
      "lat": 27.2119805,
      "lng": 78.0161922
    },
    "totalScore": 4.6,
    "permanentlyClosed": false,
    "temporarilyClosed": false,
    "placeId": "ChIJJXMYn013dDkRdKd8Dj6sqD4",
    "categories": [
      "Car rental agency",
      "Bus tour agency",
      "Car leasing service",
      "Passport agent",
      "Insurance broker",
      "Taxi service",
      "Train ticket agency",
      "Travel agency"
    ],
    "reviewsCount": 74,
    "imagesCount": 29,
    "openingHours": [
      {
        "day": "Monday",
        "hours": "Open 24 hours"
      },
      {
        "day": "Tuesday",
        "hours": "Open 24 hours"
      },
      {
        "day": "Wednesday",
        "hours": "Open 24 hours"
      },
      {
        "day": "Thursday",
        "hours": "Open 24 hours"
      },
      {
        "day": "Friday",
        "hours": "Open 24 hours"
      },
      {
        "day": "Saturday",
        "hours": "Open 24 hours"
      },
      {
        "day": "Sunday",
        "hours": "Open 24 hours"
      }
    ],
    "imageUrl": "https://media.indianluxurycars.com/google/4d85f44ce5735091e9df77f1c6a3e396534084e8439d1cfaa26fa6ddcaf03488.jpg",
    "url": "https://www.google.com/maps/search/?api=1&query=A%20V%20Communications&query_place_id=ChIJJXMYn013dDkRdKd8Dj6sqD4"
  },
  {
    "title": "A.V. Automotives",
    "subTitle": "ए.व. आटोमोटिव्स",
    "categoryName": "Motor vehicle dealer",
    "address": "35/113 Neta Ji Nagar, Namner Rd, near S.R.Hospital, Agra, Uttar Pradesh 282001, India",
    "neighborhood": "Katlupur, Rakabganj",
    "street": "35/113 Neta Ji Nagar, Namner Rd, near S.R.Hospital",
    "city": "Agra",
    "postalCode": "282001",
    "state": "Uttar Pradesh",
    "countryCode": "IN",
    "phone": "+919997349460",
    "phoneUnformatted": "+919997349460",
    "location": {
      "lat": 27.1683604,
      "lng": 78.0066057
    },
    "totalScore": 5,
    "permanentlyClosed": false,
    "temporarilyClosed": false,
    "placeId": "ChIJxZYwSXJ3dDkRRCRWWnEl7FU",
    "categories": [
      "Motor vehicle dealer",
      "Car finance and loan company",
      "Indian Motorcycle dealer",
      "Insurance broker",
      "Motor scooter dealer",
      "Motor scooter repair shop",
      "Motorcycle dealer",
      "Motorcycle shop",
      "Used car dealer"
    ],
    "reviewsCount": 417,
    "imagesCount": 523,
    "openingHours": [
      {
        "day": "Monday",
        "hours": "10 AM to 8 PM"
      },
      {
        "day": "Tuesday",
        "hours": "Closed"
      },
      {
        "day": "Wednesday",
        "hours": "10 AM to 8 PM"
      },
      {
        "day": "Thursday",
        "hours": "10 AM to 8 PM"
      },
      {
        "day": "Friday",
        "hours": "10 AM to 8 PM"
      },
      {
        "day": "Saturday",
        "hours": "10 AM to 8 PM"
      },
      {
        "day": "Sunday",
        "hours": "10 AM to 8 PM"
      }
    ],
    "imageUrl": "https://media.indianluxurycars.com/google/dfa558ee615bddd5bcd7571551303a9d50d9808cf442e173d12378d8f4e2b3cc.jpg",
    "url": "https://www.google.com/maps/search/?api=1&query=A.V.%20Automotives&query_place_id=ChIJxZYwSXJ3dDkRRCRWWnEl7FU"
  },
  {
    "title": "Advika Cab Taxi Services in Agra",
    "subTitle": "अद्विका कैब टैक्सी सर्विसेस इन आगरा",
    "categoryName": "Car rental agency",
    "address": "T-3, Krishna Arcade, Bypass Rd, Krishna Colony, Agra, Uttar Pradesh 282006, India",
    "neighborhood": "Krishna Colony",
    "street": "T-3, Krishna Arcade, Bypass Rd",
    "city": "Agra",
    "postalCode": "282006",
    "state": "Uttar Pradesh",
    "countryCode": "IN",
    "website": "https://www.advikacab.com/",
    "phone": "+918077302230",
    "phoneUnformatted": "+918077302230",
    "location": {
      "lat": 27.2059832,
      "lng": 78.032669
    },
    "totalScore": 5,
    "permanentlyClosed": false,
    "temporarilyClosed": false,
    "placeId": "ChIJSRQnTSxxdDkRyw_qH_sS6z0",
    "categories": [
      "Car rental agency",
      "Car leasing service",
      "Taxi service",
      "Chauffeur service",
      "Van rental agency"
    ],
    "reviewsCount": 176,
    "imagesCount": 98,
    "openingHours": [],
    "imageUrl": "https://media.indianluxurycars.com/google/416e0db26ddd2444f0154764f2f4ccec9c11d4de332f6b1374f1fd6dc52d7093.png",
    "url": "https://www.google.com/maps/search/?api=1&query=Advika%20Cab%20Taxi%20Services%20in%20Agra&query_place_id=ChIJSRQnTSxxdDkRyw_qH_sS6z0"
  },
  {
    "title": "Agra Car Bazar",
    "subTitle": "आगरा कार बाजार",
    "categoryName": "Used car dealer",
    "address": "Maruti Estate Rd, 100 Feet Bypass Rd, Maruti Estate, Kala Kunj, Agra, Uttar Pradesh 282010, India",
    "neighborhood": "Maruti Estate, Kala Kunj",
    "street": "Maruti Estate Rd, 100 Feet Bypass Rd",
    "city": "Agra",
    "postalCode": "282010",
    "state": "Uttar Pradesh",
    "countryCode": "IN",
    "location": {
      "lat": 27.1822141,
      "lng": 77.9633641
    },
    "totalScore": 3.7,
    "permanentlyClosed": false,
    "temporarilyClosed": false,
    "placeId": "ChIJcZFNRKV3dDkRnVAAIOi6Nw4",
    "categories": [
      "Used car dealer",
      "Car dealer"
    ],
    "reviewsCount": 35,
    "imagesCount": 121,
    "openingHours": [
      {
        "day": "Monday",
        "hours": "10 AM to 10 PM"
      },
      {
        "day": "Tuesday",
        "hours": "10 AM to 10 PM"
      },
      {
        "day": "Wednesday",
        "hours": "10 AM to 10 PM"
      },
      {
        "day": "Thursday",
        "hours": "10 AM to 10 PM"
      },
      {
        "day": "Friday",
        "hours": "10 AM to 10 PM"
      },
      {
        "day": "Saturday",
        "hours": "10 AM to 10 PM"
      },
      {
        "day": "Sunday",
        "hours": "10 AM to 10 PM"
      }
    ],
    "imageUrl": "https://media.indianluxurycars.com/google/f2387847b1dcee81ae8d75efb88994588295323acb3945689c320c50b24c04d5.jpg",
    "url": "https://www.google.com/maps/search/?api=1&query=Agra%20Car%20Bazar&query_place_id=ChIJcZFNRKV3dDkRnVAAIOi6Nw4"
  },
  {
    "title": "Agra Car Rent",
    "subTitle": "आगरा कार रेंट",
    "categoryName": "Car rental agency",
    "address": "Mughal Rd, near Tyagi hospital, Natrajpuram, Kaveri Kunj, Kamla Nagar, Agra, Uttar Pradesh 282005, India",
    "neighborhood": "Natrajpuram, Kaveri Kunj, Kamla Nagar",
    "street": "Mughal Rd, near Tyagi hospital",
    "city": "Agra",
    "postalCode": "282005",
    "state": "Uttar Pradesh",
    "countryCode": "IN",
    "website": "https://www.agracarrent.com/",
    "phone": "+919690099666",
    "phoneUnformatted": "+919690099666",
    "location": {
      "lat": 27.2163304,
      "lng": 78.0248062
    },
    "totalScore": 4.7,
    "permanentlyClosed": false,
    "temporarilyClosed": false,
    "placeId": "ChIJOfM7Zq5xdDkRTIRFdmXNwHA",
    "categories": [
      "Car rental agency",
      "Air taxi",
      "Car leasing service",
      "Taxi service",
      "Trailer rental service",
      "Travel agency"
    ],
    "reviewsCount": 170,
    "imagesCount": 112,
    "openingHours": [],
    "imageUrl": "https://media.indianluxurycars.com/google/4f350696ba8a6fd253737bac13baa0b0c9cc39be165a8860826560fb830aeaf0.png",
    "url": "https://www.google.com/maps/search/?api=1&query=Agra%20Car%20Rent&query_place_id=ChIJOfM7Zq5xdDkRTIRFdmXNwHA"
  },
  {
    "title": "Agra Holidays & Travels",
    "subTitle": "हॉलीडेज & ट्रेवल्स",
    "categoryName": "Car rental agency",
    "address": "Ist Floor, Rashmi Palace, CF-10, Sultanganj Crossing, Sultan Ganj, Ghatwasan, Kamla Nagar, Agra, Uttar Pradesh 282005, India",
    "neighborhood": "Sultanganj Crossing, Sultan Ganj, Ghatwasan, Kamla Nagar",
    "street": "Ist Floor, Rashmi Palace, CF-10",
    "city": "Agra",
    "postalCode": "282005",
    "state": "Uttar Pradesh",
    "countryCode": "IN",
    "website": "http://www.agraholidays.com/",
    "phone": "+919411839440",
    "phoneUnformatted": "+919411839440",
    "location": {
      "lat": 27.2090918,
      "lng": 78.0167939
    },
    "totalScore": 4.8,
    "permanentlyClosed": false,
    "temporarilyClosed": false,
    "placeId": "ChIJUcKo3lxxdDkRekwVCVSx6a8",
    "categories": [
      "Car rental agency",
      "Car leasing service",
      "Taxi service",
      "Minibus taxi service",
      "Sightseeing tour agency",
      "Tour operator",
      "Travel agency"
    ],
    "reviewsCount": 96,
    "imagesCount": 127,
    "openingHours": [],
    "imageUrl": "https://media.indianluxurycars.com/google/a0d2b6744274e77aa907a805c7a50313aba31ffbe877f57d5ac0ce3cacab2eff.jpg",
    "url": "https://www.google.com/maps/search/?api=1&query=Agra%20Holidays%20%26%20Travels&query_place_id=ChIJUcKo3lxxdDkRekwVCVSx6a8"
  },
  {
    "title": "Agra Shiv Tour & Travels",
    "subTitle": "आगरा शिव टूर & ट्रैवल्स",
    "categoryName": "Car leasing service",
    "address": "32D/0-11D/1, Maharaja Agrasen Marg, near Tyagi Medical Store, Shambhu Kunj, Kamala Nagar, DayalBagh, Agra, Uttar Pradesh 282005, India",
    "neighborhood": "Shambhu Kunj, Kamala Nagar, DayalBagh",
    "street": "32D/0-11D/1, Maharaja Agrasen Marg, near Tyagi Medical Store",
    "city": "Agra",
    "postalCode": "282005",
    "state": "Uttar Pradesh",
    "countryCode": "IN",
    "website": "https://www.agrashivtourandtravels.com/",
    "phone": "+919759000249",
    "phoneUnformatted": "+919759000249",
    "location": {
      "lat": 27.2206112,
      "lng": 78.0163647
    },
    "totalScore": 4.9,
    "permanentlyClosed": false,
    "temporarilyClosed": false,
    "placeId": "ChIJSbmXYKVwdDkRhrw_WbHxyFo",
    "categories": [
      "Car leasing service",
      "Taxi service",
      "Car sharing location",
      "Minibus taxi service"
    ],
    "reviewsCount": 3825,
    "imagesCount": 277,
    "openingHours": [],
    "imageUrl": "https://media.indianluxurycars.com/google/64cca90bbada969cbb17c009ddcdfb642accdf2e32e5094b324b04d380d5f7de.jpg",
    "url": "https://www.google.com/maps/search/?api=1&query=Agra%20Shiv%20Tour%20%26%20Travels&query_place_id=ChIJSbmXYKVwdDkRhrw_WbHxyFo"
  },
  {
    "title": "Agra Travel Services",
    "subTitle": "आगरा यात्रा सेवाएँ",
    "categoryName": "Car rental agency",
    "address": "nai, Mau Rd, Shanti Dham, Dayal Bagh, Khandar, Agra, Uttar Pradesh 282005, India",
    "neighborhood": "Shanti Dham, Dayal Bagh, Khandar",
    "street": "nai, Mau Rd",
    "city": "Agra",
    "postalCode": "282005",
    "state": "Uttar Pradesh",
    "countryCode": "IN",
    "website": "http://www.atscabagra.com/",
    "phone": "+919719598274",
    "phoneUnformatted": "+919719598274",
    "location": {
      "lat": 27.2109846,
      "lng": 77.9893125
    },
    "totalScore": 4.8,
    "permanentlyClosed": false,
    "temporarilyClosed": false,
    "placeId": "ChIJx-wifOd5dDkRMmiihHV3iOU",
    "categories": [
      "Car rental agency",
      "Airline ticket agency",
      "Car leasing service",
      "Corporate office",
      "Taxi service",
      "Tour operator",
      "Tourist information center",
      "Train ticket agency",
      "Travel agency"
    ],
    "reviewsCount": 17,
    "imagesCount": 10,
    "openingHours": [
      {
        "day": "Monday",
        "hours": "Open 24 hours"
      },
      {
        "day": "Tuesday",
        "hours": "Open 24 hours"
      },
      {
        "day": "Wednesday",
        "hours": "Open 24 hours"
      },
      {
        "day": "Thursday",
        "hours": "Open 24 hours"
      },
      {
        "day": "Friday",
        "hours": "Open 24 hours"
      },
      {
        "day": "Saturday",
        "hours": "Open 24 hours"
      },
      {
        "day": "Sunday",
        "hours": "Open 24 hours"
      }
    ],
    "imageUrl": "https://media.indianluxurycars.com/google/64351a414350d41b68b4ba63037770eb8fee26da1fd7489f931be85375bc347c.jpg",
    "url": "https://www.google.com/maps/search/?api=1&query=Agra%20Travel%20Services&query_place_id=ChIJx-wifOd5dDkRMmiihHV3iOU"
  },
  {
    "title": "Agracabs - Tempo Traveller in Agra | Taxi Services in Agra | Car Hire in Agra",
    "subTitle": "अग्राकैब्स - टेम्पो ट्रैवलर इन आगरा | टैक्सी सर्विसेस इन आगरा | कार हीरे इन आगरा",
    "categoryName": "Car leasing service",
    "address": "45 , A, EME Enclave, near Silver Line School, Madhu Nagar, Narottam Kunj, Agra, Uttar Pradesh 282001, India",
    "neighborhood": "Madhu Nagar, Narottam Kunj",
    "street": "45 , A, EME Enclave, near Silver Line School",
    "city": "Agra",
    "postalCode": "282001",
    "state": "Uttar Pradesh",
    "countryCode": "IN",
    "phone": "+919639255533",
    "phoneUnformatted": "+919639255533",
    "location": {
      "lat": 27.1439427,
      "lng": 78.004475
    },
    "totalScore": 5,
    "permanentlyClosed": false,
    "temporarilyClosed": false,
    "placeId": "ChIJw2_m5MR3dDkRXMEDU-UXWNk",
    "categories": [
      "Car leasing service"
    ],
    "reviewsCount": 29,
    "imagesCount": 31,
    "openingHours": [
      {
        "day": "Monday",
        "hours": "Open 24 hours"
      },
      {
        "day": "Tuesday",
        "hours": "Open 24 hours"
      },
      {
        "day": "Wednesday",
        "hours": "Open 24 hours"
      },
      {
        "day": "Thursday",
        "hours": "Open 24 hours"
      },
      {
        "day": "Friday",
        "hours": "Open 24 hours"
      },
      {
        "day": "Saturday",
        "hours": "Open 24 hours"
      },
      {
        "day": "Sunday",
        "hours": "Open 24 hours"
      }
    ],
    "imageUrl": "https://media.indianluxurycars.com/google/a2fc9ef960ef5b9224a2792bec50d005cd366a131a21797666a034accc126b15.jpg",
    "url": "https://www.google.com/maps/search/?api=1&query=Agracabs%20-%20Tempo%20Traveller%20in%20Agra%20%7C%20Taxi%20Services%20in%20Agra%20%7C%20Car%20Hire%20in%20Agra&query_place_id=ChIJw2_m5MR3dDkRXMEDU-UXWNk"
  },
  {
    "title": "Auto Travels",
    "subTitle": "ऑटो ट्रेवल्स",
    "categoryName": "Car rental agency",
    "address": "2/203, 2/203, Namner Rd, near Hanuman Mandir, Sultanpura, Namner, Rakabganj, Agra, Uttar Pradesh 282001, India",
    "neighborhood": "Sultanpura, Namner, Rakabganj",
    "street": "2/203, 2/203, Namner Rd, near Hanuman Mandir",
    "city": "Agra",
    "postalCode": "282001",
    "state": "Uttar Pradesh",
    "countryCode": "IN",
    "website": "http://www.autotravelagra.com/",
    "phone": "+919897223395",
    "phoneUnformatted": "+919897223395",
    "location": {
      "lat": 27.1656633,
      "lng": 78.0049658
    },
    "totalScore": 4.8,
    "permanentlyClosed": false,
    "temporarilyClosed": false,
    "placeId": "ChIJSwDKLdp2dDkRKMfQCQtyz7o",
    "categories": [
      "Car rental agency"
    ],
    "reviewsCount": 61,
    "imagesCount": 21,
    "openingHours": [
      {
        "day": "Monday",
        "hours": "7 AM to 9 PM"
      },
      {
        "day": "Tuesday",
        "hours": "7 AM to 9 PM"
      },
      {
        "day": "Wednesday",
        "hours": "7 AM to 9 PM"
      },
      {
        "day": "Thursday",
        "hours": "7 AM to 9 PM"
      },
      {
        "day": "Friday",
        "hours": "7 AM to 9 PM"
      },
      {
        "day": "Saturday",
        "hours": "7 AM to 9 PM"
      },
      {
        "day": "Sunday",
        "hours": "7 AM to 9 PM"
      }
    ],
    "imageUrl": "https://media.indianluxurycars.com/google/ab403268aa87f9e8cfd54c237a8e5e91cbe56c044a0298002ffbff19c381519b.jpg",
    "url": "https://www.google.com/maps/search/?api=1&query=Auto%20Travels&query_place_id=ChIJSwDKLdp2dDkRKMfQCQtyz7o"
  },
  {
    "title": "AV Car Rental",
    "subTitle": "एवी कार रेंटल",
    "categoryName": "Car leasing service",
    "address": "Shop No. 6, Nagla Baghel Tiraha, near Water Tank, Adan Bagh Extension, DayalBagh, Agra, Uttar Pradesh 282005, India",
    "neighborhood": "Adan Bagh Extension, DayalBagh",
    "street": "Shop No. 6, Nagla Baghel Tiraha, near Water Tank",
    "city": "Agra",
    "postalCode": "282005",
    "state": "Uttar Pradesh",
    "countryCode": "IN",
    "website": "https://www.avcarrental.com/",
    "phone": "+918650086060",
    "phoneUnformatted": "+918650086060",
    "location": {
      "lat": 27.2326587,
      "lng": 78.0001977
    },
    "totalScore": 4.9,
    "permanentlyClosed": false,
    "temporarilyClosed": false,
    "placeId": "ChIJe2zGFB55dDkR_NHRAOX0q6M",
    "categories": [
      "Car leasing service"
    ],
    "reviewsCount": 72,
    "imagesCount": 58,
    "openingHours": [
      {
        "day": "Monday",
        "hours": "Open 24 hours"
      },
      {
        "day": "Tuesday",
        "hours": "Open 24 hours"
      },
      {
        "day": "Wednesday",
        "hours": "Open 24 hours"
      },
      {
        "day": "Thursday",
        "hours": "Open 24 hours"
      },
      {
        "day": "Friday",
        "hours": "Open 24 hours"
      },
      {
        "day": "Saturday",
        "hours": "Open 24 hours"
      },
      {
        "day": "Sunday",
        "hours": "Closed"
      }
    ],
    "imageUrl": "https://media.indianluxurycars.com/google/6b70c939021aae6f194b672000c302a24c7028314c720d576f390f7e4d595666.png",
    "url": "https://www.google.com/maps/search/?api=1&query=AV%20Car%20Rental&query_place_id=ChIJe2zGFB55dDkR_NHRAOX0q6M"
  },
  {
    "title": "BMW Speed Motorwagen Agra",
    "subTitle": "बीएमडब्लू स्पीड मोटरवागन आगरा",
    "categoryName": "Car dealer",
    "address": "opposite Rogar Shoes factory, NH-2, Artoni Rd, opposite Shrung Baba Ki Dargah, Artauni, Agra, Uttar Pradesh 282007, India",
    "neighborhood": "Artauni",
    "street": "opposite Rogar Shoes factory, NH-2, Artoni Rd, opposite Shrung Baba Ki Dargah",
    "city": "Agra",
    "postalCode": "282007",
    "state": "Uttar Pradesh",
    "countryCode": "IN",
    "website": "https://www.bmw-speedmotorwagen.in/",
    "phone": "+917317711881",
    "phoneUnformatted": "+917317711881",
    "location": {
      "lat": 27.2265664,
      "lng": 77.8986272
    },
    "totalScore": 4.6,
    "permanentlyClosed": false,
    "temporarilyClosed": false,
    "placeId": "ChIJHWFXE7KHczkRx1GsR6mqnrw",
    "categories": [
      "Car dealer",
      "BMW dealer"
    ],
    "reviewsCount": 62,
    "imagesCount": 299,
    "openingHours": [
      {
        "day": "Monday",
        "hours": "10 AM to 7 PM"
      },
      {
        "day": "Tuesday",
        "hours": "10 AM to 7 PM"
      },
      {
        "day": "Wednesday",
        "hours": "10 AM to 7 PM"
      },
      {
        "day": "Thursday",
        "hours": "10 AM to 7 PM"
      },
      {
        "day": "Friday",
        "hours": "10 AM to 7 PM"
      },
      {
        "day": "Saturday",
        "hours": "10 AM to 7 PM"
      },
      {
        "day": "Sunday",
        "hours": "10 AM to 7 PM"
      }
    ],
    "imageUrl": "https://media.indianluxurycars.com/google/14d0b12850e7caffb34efb55134cf2d49d6c7e2c8b02ca722d1c99c31e11200e.jpg",
    "url": "https://www.google.com/maps/search/?api=1&query=BMW%20Speed%20Motorwagen%20Agra&query_place_id=ChIJHWFXE7KHczkRx1GsR6mqnrw"
  },
  {
    "title": "Car Experts",
    "subTitle": "कार एक्सपर्ट्स",
    "categoryName": "Used car dealer",
    "address": "240, NH 2 Road, Indra Puri, New Agra Colony, Agra, Uttar Pradesh 282005, India",
    "neighborhood": "Indra Puri, New Agra Colony",
    "street": "240, NH 2 Road",
    "city": "Agra",
    "postalCode": "282005",
    "state": "Uttar Pradesh",
    "countryCode": "IN",
    "phone": "+919997137036",
    "phoneUnformatted": "+919997137036",
    "location": {
      "lat": 27.2096286,
      "lng": 78.0095376
    },
    "totalScore": 3,
    "permanentlyClosed": false,
    "temporarilyClosed": false,
    "placeId": "ChIJmwGBFVB3dDkRyCMz-KD9mJQ",
    "categories": [
      "Used car dealer"
    ],
    "reviewsCount": 4,
    "imagesCount": 5,
    "openingHours": [
      {
        "day": "Monday",
        "hours": "10 AM to 8 PM"
      },
      {
        "day": "Tuesday",
        "hours": "10 AM to 8 PM"
      },
      {
        "day": "Wednesday",
        "hours": "10 AM to 8 PM"
      },
      {
        "day": "Thursday",
        "hours": "10 AM to 8 PM"
      },
      {
        "day": "Friday",
        "hours": "10 AM to 8 PM"
      },
      {
        "day": "Saturday",
        "hours": "10 AM to 8 PM"
      },
      {
        "day": "Sunday",
        "hours": "10 AM to 8 PM"
      }
    ],
    "imageUrl": "https://media.indianluxurycars.com/google/f63f68561c054f5865258836bb87fa04a25aed8a649368326d9f879bf6c06a6c.jpg",
    "url": "https://www.google.com/maps/search/?api=1&query=Car%20Experts&query_place_id=ChIJmwGBFVB3dDkRyCMz-KD9mJQ"
  },
  {
    "title": "Car Home - Sudhir & Co.",
    "subTitle": "कार होम - सुधीर & को.",
    "categoryName": "Car accessories store",
    "address": "80, Bypass Rd, Opposite Shree Talkies, Indra Puri, New Agra Colony, Agra, Uttar Pradesh 282005, India",
    "neighborhood": "Opposite Shree Talkies, Indra Puri, New Agra Colony",
    "street": "80, Bypass Rd",
    "city": "Agra",
    "postalCode": "282005",
    "state": "Uttar Pradesh",
    "countryCode": "IN",
    "phone": "+919837071444",
    "phoneUnformatted": "+919837071444",
    "location": {
      "lat": 27.210253,
      "lng": 78.0074764
    },
    "totalScore": 4.2,
    "permanentlyClosed": false,
    "temporarilyClosed": false,
    "placeId": "ChIJF1vG3Pd3dDkRHDdWHl8ZngE",
    "categories": [
      "Car accessories store"
    ],
    "reviewsCount": 104,
    "imagesCount": 16,
    "openingHours": [
      {
        "day": "Monday",
        "hours": "10:30 AM to 9 PM"
      },
      {
        "day": "Tuesday",
        "hours": "10:30 AM to 9 PM"
      },
      {
        "day": "Wednesday",
        "hours": "10:30 AM to 9 PM"
      },
      {
        "day": "Thursday",
        "hours": "10:30 AM to 9 PM"
      },
      {
        "day": "Friday",
        "hours": "10:30 AM to 9 PM"
      },
      {
        "day": "Saturday",
        "hours": "10:30 AM to 9 PM"
      },
      {
        "day": "Sunday",
        "hours": "10:30 AM to 9 PM"
      }
    ],
    "imageUrl": "https://media.indianluxurycars.com/google/6802cb3521e763521f19195d8a7f1d16ec766fdf12eff83bdbb3b3f87e559160.jpg",
    "url": "https://www.google.com/maps/search/?api=1&query=Car%20Home%20-%20Sudhir%20%26%20Co.&query_place_id=ChIJF1vG3Pd3dDkRHDdWHl8ZngE"
  },
  {
    "title": "Car Rental Agra",
    "subTitle": "कार रेंटल आगरा",
    "categoryName": "Car rental agency",
    "address": "15/128 Mp Pura, Gummat, Fatehabad Rd, west gate, Taj Mahal, Tajganj, Agra, Uttar Pradesh 282001, India",
    "neighborhood": "west gate, Taj Mahal, Tajganj",
    "street": "15/128 Mp Pura, Gummat, Fatehabad Rd",
    "city": "Agra",
    "postalCode": "282001",
    "state": "Uttar Pradesh",
    "countryCode": "IN",
    "phone": "+919837029043",
    "phoneUnformatted": "+919837029043",
    "location": {
      "lat": 27.1641321,
      "lng": 78.040664
    },
    "totalScore": 4.5,
    "permanentlyClosed": false,
    "temporarilyClosed": false,
    "placeId": "ChIJ9wAAhDtxdDkR0VYiGphf6Fs",
    "categories": [
      "Car rental agency",
      "Tourist information center",
      "Tour agency",
      "Travel agency"
    ],
    "reviewsCount": 166,
    "imagesCount": 281,
    "openingHours": [
      {
        "day": "Monday",
        "hours": "Open 24 hours"
      },
      {
        "day": "Tuesday",
        "hours": "Open 24 hours"
      },
      {
        "day": "Wednesday",
        "hours": "Open 24 hours"
      },
      {
        "day": "Thursday",
        "hours": "Open 24 hours"
      },
      {
        "day": "Friday",
        "hours": "Open 24 hours"
      },
      {
        "day": "Saturday",
        "hours": "Open 24 hours"
      },
      {
        "day": "Sunday",
        "hours": "Open 24 hours"
      }
    ],
    "imageUrl": "https://media.indianluxurycars.com/google/ac08f87d3d0f845996af5992685718c42958ed3bc49751e536764dfa9a3a305e.jpg",
    "url": "https://www.google.com/maps/search/?api=1&query=Car%20Rental%20Agra&query_place_id=ChIJ9wAAhDtxdDkR0VYiGphf6Fs"
  },
  {
    "title": "Detailing Bull Agra / Ceramic Coating / Graphene Coating / Paint Protection Film PPF / Car Detailing Store Agra",
    "subTitle": "डिटेलिंग बुल आगरा / सेरेमिक कोटिंग / ग्राफीन कोटिंग / पेंट प्रोटेक्शन फिल्म पीपीएफ / कार डिटेलिंग स्टोर आगरा",
    "categoryName": "Car wash",
    "address": "7/32 G, Jawahar Nagar, Bypass Rd, near Omaxe SRK Mall, Khandari, Agra, Uttar Pradesh 282002, India",
    "neighborhood": "Jawaharnagar Colony, Khandari",
    "street": "7/32 G, Jawahar Nagar, Bypass Rd, near Omaxe SRK Mall",
    "city": "Agra",
    "postalCode": "282002",
    "state": "Uttar Pradesh",
    "countryCode": "IN",
    "website": "https://detailingbull.com/",
    "phone": "+917818087272",
    "phoneUnformatted": "+917818087272",
    "location": {
      "lat": 27.21095,
      "lng": 77.9974307
    },
    "totalScore": 4.9,
    "permanentlyClosed": false,
    "temporarilyClosed": false,
    "placeId": "ChIJb5gaQ-13dDkR0dJPGIIgd0I",
    "categories": [
      "Car wash",
      "Bike wash"
    ],
    "reviewsCount": 464,
    "imagesCount": 573,
    "openingHours": [
      {
        "day": "Monday",
        "hours": "10 AM to 8 PM"
      },
      {
        "day": "Tuesday",
        "hours": "10 AM to 8 PM"
      },
      {
        "day": "Wednesday",
        "hours": "10 AM to 8 PM"
      },
      {
        "day": "Thursday",
        "hours": "10 AM to 8 PM"
      },
      {
        "day": "Friday",
        "hours": "10 AM to 8 PM"
      },
      {
        "day": "Saturday",
        "hours": "10 AM to 8 PM"
      },
      {
        "day": "Sunday",
        "hours": "10 AM to 8 PM"
      }
    ],
    "imageUrl": "https://media.indianluxurycars.com/google/aba197c7ead55ca4567ec77d6c12a4f773e78d82ca30f6368af893de691bf928.jpg",
    "url": "https://www.google.com/maps/search/?api=1&query=Detailing%20Bull%20Agra%20%2F%20Ceramic%20Coating%20%2F%20Graphene%20Coating%20%2F%20Paint%20Protection%20Film%20PPF%20%2F%20Car%20Detailing%20Store%20Agra&query_place_id=ChIJb5gaQ-13dDkR0dJPGIIgd0I"
  },
  {
    "title": "DEV Motors & Car - Used Car Dealer || Trusted Car Resellers in Agra",
    "subTitle": "देव मोटर्स & कार - यूज्ड कार डीलर || ट्रस्टेड कार रेसलर्स इन आगरा",
    "categoryName": "Used car dealer",
    "address": "Service Rd, Suresh Nagar, New Agra Colony, Agra, Uttar Pradesh 282005, India",
    "neighborhood": "Suresh Nagar, New Agra Colony",
    "street": "Service Rd",
    "city": "Agra",
    "postalCode": "282005",
    "state": "Uttar Pradesh",
    "countryCode": "IN",
    "phone": "+917983081093",
    "phoneUnformatted": "+917983081093",
    "location": {
      "lat": 27.2092249,
      "lng": 78.0105188
    },
    "totalScore": 5,
    "permanentlyClosed": false,
    "temporarilyClosed": false,
    "placeId": "ChIJRdjcMVB3dDkRKmvLk4IRClo",
    "categories": [
      "Used car dealer",
      "Auto broker"
    ],
    "reviewsCount": 4,
    "imagesCount": 5,
    "openingHours": [],
    "imageUrl": "https://media.indianluxurycars.com/google/dd121aae35afd450aa6a7eb3f8e780f5bfeb9dfd571335304fa8ef924c59e7f6.jpg",
    "url": "https://www.google.com/maps/search/?api=1&query=DEV%20Motors%20%26%20Car%20-%20Used%20Car%20Dealer%20%7C%7C%20Trusted%20Car%20Resellers%20in%20Agra&query_place_id=ChIJRdjcMVB3dDkRKmvLk4IRClo"
  },
  {
    "title": "DUBEY LUXURY TOUR",
    "subTitle": "दुबे लक्जरी टूर",
    "categoryName": "Car rental agency",
    "address": "Bharti Complex, Awadhpuri Chowraha, Sector 3, Avas Vikas Colony, Shahganj, Agra, Uttar Pradesh 282007, India",
    "neighborhood": "Sector 3, Avas Vikas Colony, Shahganj",
    "street": "Bharti Complex, Awadhpuri Chowraha",
    "city": "Agra",
    "postalCode": "282007",
    "state": "Uttar Pradesh",
    "countryCode": "IN",
    "location": {
      "lat": 27.193029,
      "lng": 77.9644586
    },
    "permanentlyClosed": false,
    "temporarilyClosed": false,
    "placeId": "ChIJDVJVdph3dDkRDNKOI1mVFws",
    "categories": [
      "Car rental agency"
    ],
    "imagesCount": 1,
    "openingHours": [],
    "imageUrl": "https://media.indianluxurycars.com/google/478309c1fdeeafa8b466b62a61ad8bbbbc7dd7de50d12bd2a0b5a4e5c066427b.jpg",
    "url": "https://www.google.com/maps/search/?api=1&query=DUBEY%20LUXURY%20TOUR&query_place_id=ChIJDVJVdph3dDkRDNKOI1mVFws"
  },
  {
    "title": "EVACARS self drive car rental",
    "subTitle": "इवेकर्स सेल्फ ड्राइव कार रेंटल",
    "categoryName": "Car rental agency",
    "address": "PHASE-1, PLOT NO.53, Sharda Vihar, SECTOR-1, DayalBagh, Agra, Uttar Pradesh 282005, India",
    "neighborhood": "Sharda Vihar, SECTOR-1, DayalBagh",
    "street": "PHASE-1, PLOT NO.53",
    "city": "Agra",
    "postalCode": "282005",
    "state": "Uttar Pradesh",
    "countryCode": "IN",
    "website": "https://evacarsindia.com/",
    "phone": "+916399988814",
    "phoneUnformatted": "+916399988814",
    "location": {
      "lat": 27.2307002,
      "lng": 77.9996449
    },
    "totalScore": 5,
    "permanentlyClosed": false,
    "temporarilyClosed": false,
    "placeId": "ChIJrdJeLBh5dDkRfqXp32TnSoI",
    "categories": [
      "Car rental agency",
      "Car leasing service",
      "Car wash",
      "Motoring club",
      "Rental car return location"
    ],
    "reviewsCount": 11,
    "imagesCount": 12,
    "openingHours": [
      {
        "day": "Monday",
        "hours": "Open 24 hours"
      },
      {
        "day": "Tuesday",
        "hours": "Open 24 hours"
      },
      {
        "day": "Wednesday",
        "hours": "Open 24 hours"
      },
      {
        "day": "Thursday",
        "hours": "Open 24 hours"
      },
      {
        "day": "Friday",
        "hours": "Open 24 hours"
      },
      {
        "day": "Saturday",
        "hours": "Open 24 hours"
      },
      {
        "day": "Sunday",
        "hours": "Open 24 hours"
      }
    ],
    "imageUrl": "https://media.indianluxurycars.com/google/528621651abbf2e1daa8acbc77b1f833bb313b05743466a698bb2955dab51296.jpg",
    "url": "https://www.google.com/maps/search/?api=1&query=EVACARS%20self%20drive%20car%20rental&query_place_id=ChIJrdJeLBh5dDkRfqXp32TnSoI"
  },
  {
    "title": "Ifra Holidays",
    "subTitle": "इफरा होलीडेज",
    "categoryName": "Car rental agency",
    "address": "MMIG-7, Shaheed Nagar, Tajganj, Agra, Uttar Pradesh 282001, India",
    "neighborhood": "Shaheed Nagar, Tajganj",
    "street": "MMIG-7",
    "city": "Agra",
    "postalCode": "282001",
    "state": "Uttar Pradesh",
    "countryCode": "IN",
    "phone": "+917500334006",
    "phoneUnformatted": "+917500334006",
    "location": {
      "lat": 27.1533152,
      "lng": 78.0371226
    },
    "permanentlyClosed": false,
    "temporarilyClosed": false,
    "placeId": "ChIJdb4TUT9xdDkRRa7dM1_-jHQ",
    "categories": [
      "Car rental agency",
      "Tour operator",
      "Travel agency"
    ],
    "imagesCount": 16,
    "openingHours": [
      {
        "day": "Monday",
        "hours": "9 AM to 8 PM"
      },
      {
        "day": "Tuesday",
        "hours": "9 AM to 8 PM"
      },
      {
        "day": "Wednesday",
        "hours": "9 AM to 8 PM"
      },
      {
        "day": "Thursday",
        "hours": "Open 24 hours"
      },
      {
        "day": "Friday",
        "hours": "Closed"
      },
      {
        "day": "Saturday",
        "hours": "9 AM to 8 PM"
      },
      {
        "day": "Sunday",
        "hours": "9 AM to 8 PM"
      }
    ],
    "imageUrl": "https://media.indianluxurycars.com/google/fbb41612dd092c386e979361271b0034cba51f2e4924357aed5fc67fbe44f527.jpg",
    "url": "https://www.google.com/maps/search/?api=1&query=Ifra%20Holidays&query_place_id=ChIJdb4TUT9xdDkRRa7dM1_-jHQ"
  },
  {
    "title": "India Travel Choice",
    "subTitle": "सफर विकल्प (इंडिया)",
    "categoryName": "Car rental agency",
    "address": "60/174AB/6 new khawaspura, kheriya more,, near Millat masjid, Agra, 282001, India",
    "neighborhood": "Govind Kunj, South Arjun Nagar, Saraikhwaja, Arjun Nagar",
    "street": "60/174AB/6 new khawaspura, kheriya more,, near Millat masjid",
    "city": "Agra",
    "postalCode": "282001",
    "state": "Uttar Pradesh",
    "countryCode": "IN",
    "website": "http://www.indiatravelchoice.com/",
    "phone": "+919258738066",
    "phoneUnformatted": "+919258738066",
    "location": {
      "lat": 27.164098,
      "lng": 77.985548
    },
    "totalScore": 4.9,
    "permanentlyClosed": false,
    "temporarilyClosed": false,
    "placeId": "ChIJp8m3y-R2dDkRLD_30Gr6vLI",
    "categories": [
      "Car rental agency",
      "Tour operator",
      "Sightseeing tour agency",
      "Tour agency",
      "Tourist attraction"
    ],
    "reviewsCount": 79,
    "imagesCount": 29,
    "openingHours": [
      {
        "day": "Monday",
        "hours": "Open 24 hours"
      },
      {
        "day": "Tuesday",
        "hours": "Open 24 hours"
      },
      {
        "day": "Wednesday",
        "hours": "Open 24 hours"
      },
      {
        "day": "Thursday",
        "hours": "Open 24 hours"
      },
      {
        "day": "Friday",
        "hours": "Open 24 hours"
      },
      {
        "day": "Saturday",
        "hours": "Open 24 hours"
      },
      {
        "day": "Sunday",
        "hours": "Open 24 hours"
      }
    ],
    "imageUrl": "https://media.indianluxurycars.com/google/1cb73986f7c0e84a95be6131cc9281cba21e566494336d70bf9799c990f212d3.jpg",
    "url": "https://www.google.com/maps/search/?api=1&query=India%20Travel%20Choice&query_place_id=ChIJp8m3y-R2dDkRLD_30Gr6vLI"
  },
  {
    "title": "India Travel With Leisure",
    "subTitle": "इंडिया ट्रैवल विथ लीजर",
    "categoryName": "Car rental agency",
    "address": "Rawat Palace, Near Maruti Showroom 45 M. G. Road, Agra, Uttar Pradesh 282002, India",
    "neighborhood": "Raja Mandi, Gokul Pura",
    "street": "Rawat Palace, Near Maruti Showroom 45 M. G. Road",
    "city": "Agra",
    "postalCode": "282002",
    "state": "Uttar Pradesh",
    "countryCode": "IN",
    "phone": "+919412723888",
    "phoneUnformatted": "+919412723888",
    "location": {
      "lat": 27.1851752,
      "lng": 78.0008363
    },
    "totalScore": 5,
    "permanentlyClosed": false,
    "temporarilyClosed": false,
    "placeId": "ChIJ09TZuTx3dDkRnMFoOz32GOI",
    "categories": [
      "Car rental agency",
      "Travel agency",
      "Hotel",
      "Sightseeing tour agency",
      "Tour agency",
      "Tour operator"
    ],
    "reviewsCount": 1,
    "imagesCount": 2,
    "openingHours": [],
    "imageUrl": "https://media.indianluxurycars.com/google/4bd1787f7980ca84f8aa9b2d69bdd70a7a69180e8da1915ecfb0446214b80173.jpg",
    "url": "https://www.google.com/maps/search/?api=1&query=India%20Travel%20With%20Leisure&query_place_id=ChIJ09TZuTx3dDkRnMFoOz32GOI"
  },
  {
    "title": "J2s tour and travels - Best taxi services in Agra | Best travel agency in Agra | Tempo Traveler booking in Agra |",
    "subTitle": "जा2से टूर एंड ट्रैवल्स - बेस्ट टैक्सी सर्विसेस इन आगरा | बेस्ट ट्रैवल एजेंसी इन आगरा | टेम्पो ट्रैवलर बुकिंग इन आगरा |",
    "categoryName": "Car leasing service",
    "address": "shop 39/1, Hotel Viren Plaza, Nagariya, Model Town, Idgah Colony, Agra, Uttar Pradesh 282001, India",
    "neighborhood": "Nagariya, Model Town, Idgah Colony",
    "street": "shop 39/1, Hotel Viren Plaza",
    "city": "Agra",
    "postalCode": "282001",
    "state": "Uttar Pradesh",
    "countryCode": "IN",
    "website": "https://www.j2stourtravels.com/index.php",
    "phone": "+919359779797",
    "phoneUnformatted": "+919359779797",
    "location": {
      "lat": 27.1669661,
      "lng": 78.0017952
    },
    "totalScore": 4.8,
    "permanentlyClosed": false,
    "temporarilyClosed": false,
    "placeId": "ChIJrfD4Xd52dDkRain3VQ6CwoA",
    "categories": [
      "Car leasing service",
      "Bus ticket agency",
      "Taxi service",
      "Sightseeing tour agency",
      "Tour operator"
    ],
    "reviewsCount": 118,
    "imagesCount": 113,
    "openingHours": [],
    "imageUrl": "https://media.indianluxurycars.com/google/bd976440d2fb4323dd93b50bffa0d591d037c3510425a12378c2d4c0877a4abf.jpg",
    "url": "https://www.google.com/maps/search/?api=1&query=J2s%20tour%20and%20travels%20-%20Best%20taxi%20services%20in%20Agra%20%7C%20Best%20travel%20agency%20in%20Agra%20%7C%20Tempo%20Traveler%20booking%20in%20Agra%20%7C&query_place_id=ChIJrfD4Xd52dDkRain3VQ6CwoA"
  },
  {
    "title": "James Tour & Travels Car rental company",
    "subTitle": "जेम्स टूर & ट्रैवल्स कार रेंटल कंपनी",
    "categoryName": "Car rental agency",
    "address": "MMIG 38, Agra Shamshabad Raja Kherah Marg, Anantpuram, Indrapuram, Kaveri Vihar Phase II, Nehru Enclave, Agra, Uttar Pradesh 282001, India",
    "neighborhood": "Anantpuram, Indrapuram, Kaveri Vihar Phase II, Nehru Enclave",
    "street": "MMIG 38, Agra Shamshabad Raja Kherah Marg",
    "city": "Agra",
    "postalCode": "282001",
    "state": "Uttar Pradesh",
    "countryCode": "IN",
    "website": "https://jamestourandtravels.in.net/",
    "phone": "+918218192922",
    "phoneUnformatted": "+918218192922",
    "location": {
      "lat": 27.1441889,
      "lng": 78.0459643
    },
    "totalScore": 4.3,
    "permanentlyClosed": false,
    "temporarilyClosed": false,
    "placeId": "ChIJZeUFbb1xdDkRPdsgAYnQyNE",
    "categories": [
      "Car rental agency",
      "Bus tour agency",
      "Taxi service"
    ],
    "reviewsCount": 11,
    "imagesCount": 7,
    "openingHours": [
      {
        "day": "Monday",
        "hours": "7 AM to 12 AM"
      },
      {
        "day": "Tuesday",
        "hours": "7 AM to 12 AM"
      },
      {
        "day": "Wednesday",
        "hours": "7 AM to 12 AM"
      },
      {
        "day": "Thursday",
        "hours": "7 AM to 12 AM"
      },
      {
        "day": "Friday",
        "hours": "7 AM to 12 AM"
      },
      {
        "day": "Saturday",
        "hours": "7 AM to 12 AM"
      },
      {
        "day": "Sunday",
        "hours": "7 AM to 12 AM"
      }
    ],
    "imageUrl": "https://media.indianluxurycars.com/google/1e87db775dc4fc723055985c3aa9b7583fb51f03eb67936ce549f3ffa1b63108.jpg",
    "url": "https://www.google.com/maps/search/?api=1&query=James%20Tour%20%26%20Travels%20Car%20rental%20company&query_place_id=ChIJZeUFbb1xdDkRPdsgAYnQyNE"
  },
  {
    "title": "JR Auto Xperts",
    "subTitle": "जेआर ऑटो क्स्पेर्ट्स",
    "categoryName": "Car dealer",
    "address": "JR Automotives, NH-2, near National Filling station, Mahadev Pur, Sikandra, Agra, Uttar Pradesh 282007, India",
    "neighborhood": "Mahadev Pur, Sikandra",
    "street": "JR Automotives, NH-2, near National Filling station",
    "city": "Agra",
    "postalCode": "282007",
    "state": "Uttar Pradesh",
    "countryCode": "IN",
    "phone": "+919568009152",
    "phoneUnformatted": "+919568009152",
    "location": {
      "lat": 27.2174711,
      "lng": 77.9455073
    },
    "totalScore": 5,
    "permanentlyClosed": false,
    "temporarilyClosed": false,
    "placeId": "ChIJIZyb1-R5dDkRCqTrwiBgdmo",
    "categories": [
      "Car dealer",
      "Auto repair shop"
    ],
    "reviewsCount": 22,
    "imagesCount": 615,
    "openingHours": [
      {
        "day": "Monday",
        "hours": "9:30 AM to 7 PM"
      },
      {
        "day": "Tuesday",
        "hours": "9:30 AM to 7 PM"
      },
      {
        "day": "Wednesday",
        "hours": "9:30 AM to 7 PM"
      },
      {
        "day": "Thursday",
        "hours": "9:30 AM to 7 PM"
      },
      {
        "day": "Friday",
        "hours": "9:30 AM to 7 PM"
      },
      {
        "day": "Saturday",
        "hours": "Closed"
      },
      {
        "day": "Sunday",
        "hours": "9:30 AM to 7 PM"
      }
    ],
    "imageUrl": "https://media.indianluxurycars.com/google/b0c6ed33c6c1512dd538a6735a1f76747b802d1e8a6afb8d6787137cb5d13c98.jpg",
    "url": "https://www.google.com/maps/search/?api=1&query=JR%20Auto%20Xperts&query_place_id=ChIJIZyb1-R5dDkRCqTrwiBgdmo"
  },
  {
    "title": "Junglee Thar Car Rental",
    "subTitle": "जंगली थार कार रेंटल",
    "categoryName": "Car leasing service",
    "address": "nikhil woodland apartment, opp. Bhawna Estate, police chowki, Sikandra, Agra, Uttar Pradesh 282007, India",
    "neighborhood": "police chowki, Sikandra",
    "street": "nikhil woodland apartment, opp. Bhawna Estate",
    "city": "Agra",
    "postalCode": "282007",
    "state": "Uttar Pradesh",
    "countryCode": "IN",
    "website": "https://royglobalwebbussiness.in/Jungleetharcarrental",
    "location": {
      "lat": 27.2167483,
      "lng": 77.9599449
    },
    "totalScore": 5,
    "permanentlyClosed": false,
    "temporarilyClosed": true,
    "placeId": "ChIJP2J9Wap5dDkRT3gdf1FLKEM",
    "categories": [
      "Car leasing service"
    ],
    "reviewsCount": 1,
    "openingHours": [],
    "url": "https://www.google.com/maps/search/?api=1&query=Junglee%20Thar%20Car%20Rental&query_place_id=ChIJP2J9Wap5dDkRT3gdf1FLKEM"
  },
  {
    "title": "Mama Car Bazar",
    "subTitle": "मामा कार बाजार",
    "categoryName": "Car dealer",
    "address": "X-ing, A, 170, Dargah Rd, Nehru Nagar, Abbulala, Agra, Uttar Pradesh 282002, India",
    "neighborhood": "Nehru Nagar, Abbulala",
    "street": "X-ing, A, 170, Dargah Rd",
    "city": "Agra",
    "postalCode": "282002",
    "state": "Uttar Pradesh",
    "countryCode": "IN",
    "phone": "+919368780655",
    "phoneUnformatted": "+919368780655",
    "location": {
      "lat": 27.208675,
      "lng": 78.0103976
    },
    "totalScore": 3.6,
    "permanentlyClosed": false,
    "temporarilyClosed": false,
    "placeId": "ChIJ3fKHMlB3dDkRkmleIai5CHk",
    "categories": [
      "Car dealer",
      "Banking and finance"
    ],
    "reviewsCount": 8,
    "imagesCount": 29,
    "openingHours": [
      {
        "day": "Monday",
        "hours": "10 AM to 7 PM"
      },
      {
        "day": "Tuesday",
        "hours": "10 AM to 7 PM"
      },
      {
        "day": "Wednesday",
        "hours": "10 AM to 7 PM"
      },
      {
        "day": "Thursday",
        "hours": "10 AM to 7 PM"
      },
      {
        "day": "Friday",
        "hours": "10 AM to 7 PM"
      },
      {
        "day": "Saturday",
        "hours": "10 AM to 7 PM"
      },
      {
        "day": "Sunday",
        "hours": "10 AM to 7 PM"
      }
    ],
    "imageUrl": "https://media.indianluxurycars.com/google/b29bb3d9d33d6f4e0f8a96723c25c9716def69cdcbfb74b79553976058cb36e0.jpg",
    "url": "https://www.google.com/maps/search/?api=1&query=Mama%20Car%20Bazar&query_place_id=ChIJ3fKHMlB3dDkRkmleIai5CHk"
  },
  {
    "title": "Mercedes-Benz Prime Star Agra Showroom & Service Center",
    "subTitle": "मर्सिडीज-बेंज प्राइम स्टार आगरा शोरूम & सर्विस सेंटर",
    "categoryName": "Car dealer",
    "address": "M/s, PR Wheels LLP, 660/2, Shastripuram Flyover, N.H. 19, Artauni, Agra, Uttar Pradesh 282007, India",
    "neighborhood": "N.H. 19, Artauni",
    "street": "M/s, PR Wheels LLP, 660/2, Shastripuram Flyover",
    "city": "Agra",
    "postalCode": "282007",
    "state": "Uttar Pradesh",
    "countryCode": "IN",
    "website": "http://www.primestar.mercedes-benz.co.in/",
    "phone": "+917310373737",
    "phoneUnformatted": "+917310373737",
    "location": {
      "lat": 27.2210406,
      "lng": 77.9172303
    },
    "totalScore": 4.9,
    "permanentlyClosed": false,
    "temporarilyClosed": false,
    "placeId": "ChIJ49fDnQB3dDkR7jih_y5UlDY",
    "categories": [
      "Car dealer"
    ],
    "reviewsCount": 215,
    "imagesCount": 24,
    "openingHours": [
      {
        "day": "Monday",
        "hours": "10 AM to 7 PM"
      },
      {
        "day": "Tuesday",
        "hours": "10 AM to 7 PM"
      },
      {
        "day": "Wednesday",
        "hours": "10 AM to 7 PM"
      },
      {
        "day": "Thursday",
        "hours": "10 AM to 7 PM"
      },
      {
        "day": "Friday",
        "hours": "10 AM to 7 PM"
      },
      {
        "day": "Saturday",
        "hours": "10 AM to 7 PM"
      },
      {
        "day": "Sunday",
        "hours": "10 AM to 7 PM"
      }
    ],
    "imageUrl": "https://media.indianluxurycars.com/google/b118b52ae1c96e150c7c2c3855e0e1737a70190a25f1485f40032b7c7695c19c.jpg",
    "url": "https://www.google.com/maps/search/?api=1&query=Mercedes-Benz%20Prime%20Star%20Agra%20Showroom%20%26%20Service%20Center&query_place_id=ChIJ49fDnQB3dDkR7jih_y5UlDY"
  },
  {
    "title": "MG Motor NRL Car Showroom",
    "subTitle": "एमजी मोटर इंडिया एन आर एल",
    "categoryName": "MG dealer",
    "address": "404, near Arvind Hyundai, Nagla Padi, Vidya Nagar, Kaushalpura, Agra, Uttar Pradesh 282005, India",
    "neighborhood": "Nagla Padi, Vidya Nagar, Kaushalpura",
    "street": "404, near Arvind Hyundai",
    "city": "Agra",
    "postalCode": "282005",
    "state": "Uttar Pradesh",
    "countryCode": "IN",
    "website": "https://dealers.mgmotor.co.in/mg-motor-nrl-car-showroom-car-dealer-vidya-nagar-agra-371818/Home",
    "phone": "+918448444767",
    "phoneUnformatted": "+918448444767",
    "location": {
      "lat": 27.211639,
      "lng": 77.9973928
    },
    "totalScore": 4.1,
    "permanentlyClosed": false,
    "temporarilyClosed": false,
    "placeId": "ChIJT8OMaBd3dDkRl1C4hSNIMX8",
    "categories": [
      "MG dealer",
      "Car dealer",
      "Motor vehicle dealer"
    ],
    "reviewsCount": 352,
    "imagesCount": 59,
    "openingHours": [
      {
        "day": "Monday",
        "hours": "10 AM to 7 PM"
      },
      {
        "day": "Tuesday",
        "hours": "10 AM to 7 PM"
      },
      {
        "day": "Wednesday",
        "hours": "10 AM to 7 PM"
      },
      {
        "day": "Thursday",
        "hours": "10 AM to 7 PM"
      },
      {
        "day": "Friday",
        "hours": "10 AM to 7 PM"
      },
      {
        "day": "Saturday",
        "hours": "10 AM to 7 PM"
      },
      {
        "day": "Sunday",
        "hours": "10 AM to 12 AM"
      }
    ],
    "imageUrl": "https://media.indianluxurycars.com/google/093fe07808cda3d4baf166921e3fb489ac33844643e40b49721ee0b74541c693.jpg",
    "url": "https://www.google.com/maps/search/?api=1&query=MG%20Motor%20NRL%20Car%20Showroom&query_place_id=ChIJT8OMaBd3dDkRl1C4hSNIMX8"
  },
  {
    "title": "Rai Cabs",
    "subTitle": "राय कैब्स",
    "categoryName": "Car rental agency",
    "address": "51A/58A, West Arjun Nagar, Raghuvirpuri West, Arjun Nagar, Agra, Uttar Pradesh 282001, India",
    "neighborhood": "West Arjun Nagar, Raghuvirpuri West, Arjun Nagar",
    "street": "51A/58A",
    "city": "Agra",
    "postalCode": "282001",
    "state": "Uttar Pradesh",
    "countryCode": "IN",
    "website": "https://www.raicabs.com/agra-airport-taxi.html",
    "phone": "+918899808009",
    "phoneUnformatted": "+918899808009",
    "location": {
      "lat": 27.1705048,
      "lng": 77.9783715
    },
    "totalScore": 4.7,
    "permanentlyClosed": false,
    "temporarilyClosed": false,
    "placeId": "ChIJ8xZ1dP52dDkR9s-xLpzPscQ",
    "categories": [
      "Car rental agency",
      "Car leasing service",
      "Taxi service",
      "Sightseeing tour agency",
      "Travel agency"
    ],
    "reviewsCount": 309,
    "imagesCount": 123,
    "openingHours": [],
    "imageUrl": "https://media.indianluxurycars.com/google/d55ab27dcebde66fcdfae7247f4a5353890eda20cd0e6e28000d4424bef434c1.jpg",
    "url": "https://www.google.com/maps/search/?api=1&query=Rai%20Cabs&query_place_id=ChIJ8xZ1dP52dDkR9s-xLpzPscQ"
  },
  {
    "title": "Raj Travels (India) | Taj Mahal Tours | Delhi Day Tours | | Golden Triangle Tours | Rajasthan Tours",
    "subTitle": "राज ट्रैवल्स भारत",
    "categoryName": "Car leasing service",
    "address": "Shop No. 10 GF, M.G. Tower, Fatehabad Rd, opposite Hotel Idea Inn, Bansal Nagar, Tajganj, Agra, Uttar Pradesh 282001, India",
    "neighborhood": "Bansal Nagar, Tajganj",
    "street": "Shop No. 10 GF, M.G. Tower, Fatehabad Rd, opposite Hotel Idea Inn",
    "city": "Agra",
    "postalCode": "282001",
    "state": "Uttar Pradesh",
    "countryCode": "IN",
    "website": "http://www.rajtravelsindia.net/",
    "phone": "+919837153415",
    "phoneUnformatted": "+919837153415",
    "location": {
      "lat": 27.1618922,
      "lng": 78.0370769
    },
    "totalScore": 4.9,
    "permanentlyClosed": false,
    "temporarilyClosed": false,
    "placeId": "ChIJlaJDMxRxdDkRv6tDUzcSOU8",
    "categories": [
      "Car leasing service",
      "Travel agency",
      "Sightseeing tour agency",
      "Tour operator",
      "Train ticket office"
    ],
    "reviewsCount": 947,
    "imagesCount": 227,
    "openingHours": [
      {
        "day": "Monday",
        "hours": "Open 24 hours"
      },
      {
        "day": "Tuesday",
        "hours": "Open 24 hours"
      },
      {
        "day": "Wednesday",
        "hours": "Open 24 hours"
      },
      {
        "day": "Thursday",
        "hours": "Open 24 hours"
      },
      {
        "day": "Friday",
        "hours": "Open 24 hours"
      },
      {
        "day": "Saturday",
        "hours": "Open 24 hours"
      },
      {
        "day": "Sunday",
        "hours": "Open 24 hours"
      }
    ],
    "imageUrl": "https://media.indianluxurycars.com/google/d9bf0be715c25b702f599542d35809873864c29fe72dfef85e9adb2287cfcdc1.jpg",
    "url": "https://www.google.com/maps/search/?api=1&query=Raj%20Travels%20(India)%20%7C%20Taj%20Mahal%20Tours%20%7C%20Delhi%20Day%20Tours%20%7C%20%7C%20Golden%20Triangle%20Tours%20%7C%20Rajasthan%20Tours&query_place_id=ChIJlaJDMxRxdDkRv6tDUzcSOU8"
  },
  {
    "title": "Roshan Car Shoppe",
    "subTitle": "रोशन कार शोपे",
    "categoryName": "Car accessories store",
    "address": "Dayal arcade, Bypass Rd, Opposite Shree Talkies, Indra Puri, New Agra Colony, Agra, Uttar Pradesh 282005, India",
    "neighborhood": "Opposite Shree Talkies, Indra Puri, New Agra Colony",
    "street": "Dayal arcade, Bypass Rd",
    "city": "Agra",
    "postalCode": "282005",
    "state": "Uttar Pradesh",
    "countryCode": "IN",
    "phone": "+919897493391",
    "phoneUnformatted": "+919897493391",
    "location": {
      "lat": 27.2101057,
      "lng": 78.0078951
    },
    "totalScore": 4.9,
    "permanentlyClosed": false,
    "temporarilyClosed": false,
    "placeId": "ChIJrYDOHiZ3dDkR8H5EdAYGCCQ",
    "categories": [
      "Car accessories store",
      "Auto parts store",
      "Car stereo store"
    ],
    "reviewsCount": 105,
    "imagesCount": 52,
    "openingHours": [
      {
        "day": "Monday",
        "hours": "11 AM to 8 PM"
      },
      {
        "day": "Tuesday",
        "hours": "11 AM to 8 PM"
      },
      {
        "day": "Wednesday",
        "hours": "11 AM to 8 PM"
      },
      {
        "day": "Thursday",
        "hours": "11 AM to 8 PM"
      },
      {
        "day": "Friday",
        "hours": "11 AM to 8 PM"
      },
      {
        "day": "Saturday",
        "hours": "11 AM to 8 PM"
      },
      {
        "day": "Sunday",
        "hours": "11 AM to 8 PM"
      }
    ],
    "imageUrl": "https://media.indianluxurycars.com/google/cdade264c5aea40e5701765edfaaaba850f075553a91eb7e3c3f5c13d20d724b.jpg",
    "url": "https://www.google.com/maps/search/?api=1&query=Roshan%20Car%20Shoppe&query_place_id=ChIJrYDOHiZ3dDkR8H5EdAYGCCQ"
  },
  {
    "title": "Sahib Motor And Cars",
    "subTitle": "साहिब मोटर और कारें",
    "categoryName": "Car dealer",
    "address": "Inside of Premises of Gurdwara Shri Mitha Khoo Sahib 10 Behind Amar Ujala Press; Maharishipuram, Sikandra, Agra, Uttar Pradesh 282007, India",
    "neighborhood": "Sikandra",
    "street": "Inside of Premises of Gurdwara Shri Mitha Khoo Sahib 10 Behind Amar Ujala Press; Maharishipuram",
    "city": "Agra",
    "postalCode": "282007",
    "state": "Uttar Pradesh",
    "countryCode": "IN",
    "website": "http://www.sahibmotors.in/",
    "phone": "+919897098980",
    "phoneUnformatted": "+919897098980",
    "location": {
      "lat": 27.2136162,
      "lng": 77.9640049
    },
    "totalScore": 4.2,
    "permanentlyClosed": false,
    "temporarilyClosed": false,
    "placeId": "ChIJT-EjY3p3dDkRlowKgIkPlys",
    "categories": [
      "Car dealer",
      "Motorcycle dealer",
      "Used motorcycle dealer"
    ],
    "reviewsCount": 22,
    "imagesCount": 7,
    "openingHours": [
      {
        "day": "Monday",
        "hours": "10:30 AM to 6 PM"
      },
      {
        "day": "Tuesday",
        "hours": "10:30 AM to 6 PM"
      },
      {
        "day": "Wednesday",
        "hours": "10:30 AM to 6 PM"
      },
      {
        "day": "Thursday",
        "hours": "10:30 AM to 6 PM"
      },
      {
        "day": "Friday",
        "hours": "10:30 AM to 6 PM"
      },
      {
        "day": "Saturday",
        "hours": "10:30 AM to 6 PM"
      },
      {
        "day": "Sunday",
        "hours": "Closed"
      }
    ],
    "imageUrl": "https://media.indianluxurycars.com/google/2ce4bcd03d01ed3a4af358b65e2cbbd5349f936834250388e4529cacf36b78f1.jpg",
    "url": "https://www.google.com/maps/search/?api=1&query=Sahib%20Motor%20And%20Cars&query_place_id=ChIJT-EjY3p3dDkRlowKgIkPlys"
  },
  {
    "title": "Sam Enterprises -Electric motor scooter dealer - Two Wheeler Dealer Motor scooter dealer Motor scooter repair shop",
    "subTitle": "सैम एंटरप्राइजेस -इलेक्ट्रिक मोटर स्कूटर डीलर - टू व्हीलर डीलर मोटर स्कूटर डीलर मोटर स्कूटर रिपेयर शॉप",
    "categoryName": "Electric motor scooter dealer",
    "address": "Sai ki Takiya chouraha, 33/100, Namner Rd, near Jan Kalyan Blood bank, Katlupur, Rakabganj, Agra, Uttar Pradesh 282001, India",
    "neighborhood": "Katlupur, Rakabganj",
    "street": "Sai ki Takiya chouraha, 33/100, Namner Rd, near Jan Kalyan Blood bank",
    "city": "Agra",
    "postalCode": "282001",
    "state": "Uttar Pradesh",
    "countryCode": "IN",
    "phone": "+919803992222",
    "phoneUnformatted": "+919803992222",
    "location": {
      "lat": 27.1696334,
      "lng": 78.0080275
    },
    "totalScore": 4.3,
    "permanentlyClosed": false,
    "temporarilyClosed": false,
    "placeId": "ChIJoUlXAgd3dDkRQmIgn_u_Rzw",
    "categories": [
      "Electric motor scooter dealer",
      "Electric motor vehicle dealer",
      "Motor scooter dealer",
      "Motor scooter repair shop",
      "Motorcycle dealer"
    ],
    "reviewsCount": 17,
    "imagesCount": 18,
    "openingHours": [
      {
        "day": "Monday",
        "hours": "10 AM to 7:30 PM"
      },
      {
        "day": "Tuesday",
        "hours": "10 AM to 7:30 PM"
      },
      {
        "day": "Wednesday",
        "hours": "10 AM to 7:30 PM"
      },
      {
        "day": "Thursday",
        "hours": "10 AM to 7:30 PM"
      },
      {
        "day": "Friday",
        "hours": "10 AM to 7:30 PM"
      },
      {
        "day": "Saturday",
        "hours": "10 AM to 7:30 PM"
      },
      {
        "day": "Sunday",
        "hours": "10 AM to 7:30 PM"
      }
    ],
    "imageUrl": "https://media.indianluxurycars.com/google/d55e37e4c6888235ed97f3f9564ecb6fc83ef2aa9ba52623c9647f8962086ad2.jpg",
    "url": "https://www.google.com/maps/search/?api=1&query=Sam%20Enterprises%20-Electric%20motor%20scooter%20dealer%20-%20Two%20Wheeler%20Dealer%20Motor%20scooter%20dealer%20Motor%20scooter%20repair%20shop&query_place_id=ChIJoUlXAgd3dDkRQmIgn_u_Rzw"
  },
  {
    "title": "Saundarya Tour & Travels",
    "subTitle": "सौंदर्य टूर & ट्रैवल्स",
    "categoryName": "Car leasing service",
    "address": "Pushpanjali Commercial Complex, Shastri Puram Rd, opposite kargil petrol pump, New Agra Colony, Agra, Uttar Pradesh 282007, India",
    "neighborhood": "Kargil Petrol Pump, Suruchipuram Colony, New Agra Colony",
    "street": "Pushpanjali Commercial Complex, Shastri Puram Rd, opposite kargil petrol pump",
    "city": "Agra",
    "postalCode": "282007",
    "state": "Uttar Pradesh",
    "countryCode": "IN",
    "website": "https://saundaryatourtravels.com/",
    "phone": "+917302831777",
    "phoneUnformatted": "+917302831777",
    "location": {
      "lat": 27.2032004,
      "lng": 77.9530599
    },
    "totalScore": 4.9,
    "permanentlyClosed": false,
    "temporarilyClosed": false,
    "placeId": "ChIJcbgp4_d3dDkRVueYbzObapQ",
    "categories": [
      "Car leasing service",
      "Taxi service",
      "Travel agency"
    ],
    "reviewsCount": 47,
    "imagesCount": 39,
    "openingHours": [
      {
        "day": "Monday",
        "hours": "Open 24 hours"
      },
      {
        "day": "Tuesday",
        "hours": "Open 24 hours"
      },
      {
        "day": "Wednesday",
        "hours": "Open 24 hours"
      },
      {
        "day": "Thursday",
        "hours": "Open 24 hours"
      },
      {
        "day": "Friday",
        "hours": "Open 24 hours"
      },
      {
        "day": "Saturday",
        "hours": "Open 24 hours"
      },
      {
        "day": "Sunday",
        "hours": "Open 24 hours"
      }
    ],
    "imageUrl": "https://media.indianluxurycars.com/google/0109f91514ebb563f220d2bfbd8a7246bb2358e077f6124a035a58af7c0b019d.jpg",
    "url": "https://www.google.com/maps/search/?api=1&query=Saundarya%20Tour%20%26%20Travels&query_place_id=ChIJcbgp4_d3dDkRVueYbzObapQ"
  },
  {
    "title": "Sawaari Dekho - Buy & Sell Cars",
    "subTitle": "सवारी देखो - बी & सेल कार्स",
    "categoryName": "Used car dealer",
    "address": "6/21D, near Dayal Dairy, Azad Nagar, Khandari, Agra, Uttar Pradesh 282002, India",
    "neighborhood": "Azad Nagar, Khandari",
    "street": "6/21D, near Dayal Dairy",
    "city": "Agra",
    "postalCode": "282002",
    "state": "Uttar Pradesh",
    "countryCode": "IN",
    "website": "http://www.sawaaridekho.com/",
    "location": {
      "lat": 27.2074758,
      "lng": 77.9877381
    },
    "permanentlyClosed": false,
    "temporarilyClosed": true,
    "placeId": "ChIJKy_8tZJ3dDkRWEfxIaoIsXo",
    "categories": [
      "Used car dealer"
    ],
    "imagesCount": 13,
    "openingHours": [],
    "imageUrl": "https://media.indianluxurycars.com/google/0476537da2e795c09da35826dfd31344ddefc0cf3e2f925955343ac1c6e0fbea.jpg",
    "url": "https://www.google.com/maps/search/?api=1&query=Sawaari%20Dekho%20-%20Buy%20%26%20Sell%20Cars&query_place_id=ChIJKy_8tZJ3dDkRWEfxIaoIsXo"
  },
  {
    "title": "SELF DRIVE CAR HIRE AGRA",
    "subTitle": "स्वयं ड्राइव कार किराया आगरा",
    "categoryName": "Car rental agency",
    "address": "Gandhi park, 56/314, Kishan Garh, Idgah Colony, Agra, Uttar Pradesh 282001, India",
    "neighborhood": "Kishan Garh, Idgah Colony",
    "street": "Gandhi park, 56/314",
    "city": "Agra",
    "postalCode": "282001",
    "state": "Uttar Pradesh",
    "countryCode": "IN",
    "website": "http://www.selfdrivecarhire.net/self-drive-car-hire-agra/",
    "phone": "+918279480437",
    "phoneUnformatted": "+918279480437",
    "location": {
      "lat": 27.1683665,
      "lng": 77.9944897
    },
    "totalScore": 4.5,
    "permanentlyClosed": false,
    "temporarilyClosed": false,
    "placeId": "ChIJW1bidiNxdDkRSc9ANm-uKLs",
    "categories": [
      "Car rental agency"
    ],
    "reviewsCount": 92,
    "imagesCount": 50,
    "openingHours": [
      {
        "day": "Monday",
        "hours": "Open 24 hours"
      },
      {
        "day": "Tuesday",
        "hours": "Open 24 hours"
      },
      {
        "day": "Wednesday",
        "hours": "Open 24 hours"
      },
      {
        "day": "Thursday",
        "hours": "Open 24 hours"
      },
      {
        "day": "Friday",
        "hours": "Open 24 hours"
      },
      {
        "day": "Saturday",
        "hours": "Open 24 hours"
      },
      {
        "day": "Sunday",
        "hours": "Open 24 hours"
      }
    ],
    "imageUrl": "https://media.indianluxurycars.com/google/73d315bafbc79179ff746b807ac8267d188282fdc62ce9c84489457a39d87e34.jpg",
    "url": "https://www.google.com/maps/search/?api=1&query=SELF%20DRIVE%20CAR%20HIRE%20AGRA&query_place_id=ChIJW1bidiNxdDkRSc9ANm-uKLs"
  },
  {
    "title": "Self Drive Taxi Service",
    "subTitle": "सेल्फ ड्राइव टैक्सी सर्विस",
    "categoryName": "Car leasing service",
    "address": "Shop No 18, UGF Kripa Dham Complex, Fatehabad Rd, Impeypura, Tajganj, Agra, Uttar Pradesh 282001, India",
    "neighborhood": "Impeypura, Tajganj",
    "street": "Shop No 18, UGF Kripa Dham Complex, Fatehabad Rd",
    "city": "Agra",
    "postalCode": "282001",
    "state": "Uttar Pradesh",
    "countryCode": "IN",
    "website": "https://self-drive-taxi-agra.localo.site/",
    "location": {
      "lat": 27.162711,
      "lng": 78.039406
    },
    "totalScore": 4.2,
    "permanentlyClosed": false,
    "temporarilyClosed": false,
    "placeId": "ChIJu59NbrpxdDkRIlacDnHpIsw",
    "categories": [
      "Car leasing service",
      "Taxi service",
      "Tour operator",
      "Tourist information center",
      "Travel agency"
    ],
    "reviewsCount": 20,
    "imagesCount": 8,
    "openingHours": [],
    "imageUrl": "https://media.indianluxurycars.com/google/014a562180bcd8f4c867082f1ddb19fe99af4d59167423d839f1a0f9afdafa12.jpg",
    "url": "https://www.google.com/maps/search/?api=1&query=Self%20Drive%20Taxi%20Service&query_place_id=ChIJu59NbrpxdDkRIlacDnHpIsw"
  },
  {
    "title": "Shri ladli ji travels Agra",
    "subTitle": "श्री लाडली जी ट्रैवल्स आगरा",
    "categoryName": "Car rental agency",
    "address": "C1/B, Shamsabad Rd, Rajpur Chungi, Indrapuram, Kaveri Vihar Phase II, Shamsabad, Agra, Uttar Pradesh 282001, India",
    "neighborhood": "Rajpur Chungi, Indrapuram, Kaveri Vihar Phase II, Shamsabad",
    "street": "C1/B, Shamsabad Rd",
    "city": "Agra",
    "postalCode": "282001",
    "state": "Uttar Pradesh",
    "countryCode": "IN",
    "phone": "+919259105055",
    "phoneUnformatted": "+919259105055",
    "location": {
      "lat": 27.1422306,
      "lng": 78.0452042
    },
    "totalScore": 5,
    "permanentlyClosed": false,
    "temporarilyClosed": true,
    "placeId": "ChIJC2kDYsVxdDkRpMxAg78q494",
    "categories": [
      "Car rental agency"
    ],
    "reviewsCount": 13,
    "imagesCount": 16,
    "openingHours": [],
    "imageUrl": "https://media.indianluxurycars.com/google/3c398b2b3272c465dafaf0ad93521f638c73d808c7e75d199c08b361d4964961.jpg",
    "url": "https://www.google.com/maps/search/?api=1&query=Shri%20ladli%20ji%20travels%20Agra&query_place_id=ChIJC2kDYsVxdDkRpMxAg78q494"
  },
  {
    "title": "Taj Car Rental Agra",
    "subTitle": "ताज कार रेंटल आगरा",
    "categoryName": "Car rental agency",
    "address": "62/10, Radhey Wali Gali, Nagla Puliya, Rasulpur, Idgah Colony, Agra, Uttar Pradesh 282001, India",
    "neighborhood": "Nagla Puliya, Rasulpur, Idgah Colony",
    "street": "62/10, Radhey Wali Gali",
    "city": "Agra",
    "postalCode": "282001",
    "state": "Uttar Pradesh",
    "countryCode": "IN",
    "website": "https://tajcarrentalagra.com/",
    "phone": "+919897157158",
    "phoneUnformatted": "+919897157158",
    "location": {
      "lat": 27.1531876,
      "lng": 77.9845241
    },
    "totalScore": 5,
    "permanentlyClosed": false,
    "temporarilyClosed": false,
    "placeId": "ChIJoQZxn1aN6WQRd8G17Uyq8tQ",
    "categories": [
      "Car rental agency"
    ],
    "reviewsCount": 198,
    "imagesCount": 26,
    "openingHours": [
      {
        "day": "Monday",
        "hours": "Open 24 hours"
      },
      {
        "day": "Tuesday",
        "hours": "Open 24 hours"
      },
      {
        "day": "Wednesday",
        "hours": "Open 24 hours"
      },
      {
        "day": "Thursday",
        "hours": "Open 24 hours"
      },
      {
        "day": "Friday",
        "hours": "Open 24 hours"
      },
      {
        "day": "Saturday",
        "hours": "Open 24 hours"
      },
      {
        "day": "Sunday",
        "hours": "Open 24 hours"
      }
    ],
    "imageUrl": "https://media.indianluxurycars.com/google/95443294e7c01f2de950ad7c01a769317c384aeb3ca70b7a438804b3a296b809.jpg",
    "url": "https://www.google.com/maps/search/?api=1&query=Taj%20Car%20Rental%20Agra&query_place_id=ChIJoQZxn1aN6WQRd8G17Uyq8tQ"
  },
  {
    "title": "Taj Club Holiday",
    "subTitle": "ताज क्लब हॉलिडे",
    "categoryName": "Car rental agency",
    "address": "214, Maruti City, Shamshabad Road Agar Raja Kherah Marg, near Corporation Bank, Agra, Uttar Pradesh 282001, India",
    "neighborhood": "Jyoti Nagar, Indrapuram, Shamsabad",
    "street": "214, Maruti City, Shamshabad Road Agar Raja Kherah Marg, near Corporation Bank",
    "city": "Agra",
    "postalCode": "282001",
    "state": "Uttar Pradesh",
    "countryCode": "IN",
    "website": "http://tajclubholiday.com/",
    "phone": "+919897147811",
    "phoneUnformatted": "+919897147811",
    "location": {
      "lat": 27.1433472,
      "lng": 78.0435384
    },
    "totalScore": 5,
    "permanentlyClosed": false,
    "temporarilyClosed": false,
    "placeId": "ChIJc3dRVt5zdDkRzV4U4AM7Fn0",
    "categories": [
      "Car rental agency",
      "Bus tour agency",
      "Car leasing service",
      "Sightseeing tour agency",
      "Event management company",
      "Tour operator",
      "Tourist attraction",
      "Tourist information center",
      "Train ticket office",
      "Travel agency"
    ],
    "reviewsCount": 140,
    "imagesCount": 563,
    "openingHours": [
      {
        "day": "Monday",
        "hours": "7 AM to 11 PM"
      },
      {
        "day": "Tuesday",
        "hours": "7 AM to 11 PM"
      },
      {
        "day": "Wednesday",
        "hours": "7 AM to 11 PM"
      },
      {
        "day": "Thursday",
        "hours": "7 AM to 11 PM"
      },
      {
        "day": "Friday",
        "hours": "7 AM to 11 PM"
      },
      {
        "day": "Saturday",
        "hours": "7 AM to 11 PM"
      },
      {
        "day": "Sunday",
        "hours": "7 AM to 11 PM"
      }
    ],
    "imageUrl": "https://media.indianluxurycars.com/google/d286e3000ea37d7c369d36c65d09057bbaec9898cfe7cdb996de67a6fe68f1af.jpg",
    "url": "https://www.google.com/maps/search/?api=1&query=Taj%20Club%20Holiday&query_place_id=ChIJc3dRVt5zdDkRzV4U4AM7Fn0"
  },
  {
    "title": "Taj Mahal Sunrise Experience Trip Holidays car rental taj mahal best tour guide agra golden triangle tour agra fatehpur sikri",
    "subTitle": "ट्रिप ताज महल",
    "categoryName": "Car rental agency",
    "address": "Maya hotel, Fatehabad Rd, Purani Mandi, Tajganj, Agra, Uttar Pradesh 282001, India",
    "neighborhood": "Purani Mandi, Tajganj",
    "street": "Maya hotel, Fatehabad Rd",
    "city": "Agra",
    "postalCode": "282001",
    "state": "Uttar Pradesh",
    "countryCode": "IN",
    "website": "http://www.triptajmahal.in/",
    "phone": "+919149185848",
    "phoneUnformatted": "+919149185848",
    "location": {
      "lat": 27.1662895,
      "lng": 78.0373255
    },
    "totalScore": 4.9,
    "permanentlyClosed": false,
    "temporarilyClosed": false,
    "placeId": "ChIJfVwGawhxdDkRyZ6nEwx_Yio",
    "categories": [
      "Car rental agency",
      "Bus tour agency",
      "Sightseeing tour agency",
      "Taxi service",
      "Tour operator",
      "Tourist attraction",
      "Tourist information center",
      "Transportation escort service",
      "Transportation service",
      "Travel agency"
    ],
    "reviewsCount": 154,
    "imagesCount": 282,
    "openingHours": [
      {
        "day": "Monday",
        "hours": "Open 24 hours"
      },
      {
        "day": "Tuesday",
        "hours": "Open 24 hours"
      },
      {
        "day": "Wednesday",
        "hours": "Open 24 hours"
      },
      {
        "day": "Thursday",
        "hours": "Open 24 hours"
      },
      {
        "day": "Friday",
        "hours": "Open 24 hours"
      },
      {
        "day": "Saturday",
        "hours": "Open 24 hours"
      },
      {
        "day": "Sunday",
        "hours": "Open 24 hours"
      }
    ],
    "imageUrl": "https://media.indianluxurycars.com/google/ae380e84bf5d1e19e71af26438424c496d1f732c66e94c02b284d552cdfcc26e.jpg",
    "url": "https://www.google.com/maps/search/?api=1&query=Taj%20Mahal%20Sunrise%20Experience%20Trip%20Holidays%20car%20rental%20taj%20mahal%20best%20tour%20guide%20agra%20golden%20triangle%20tour%20agra%20fatehpur%20sikri&query_place_id=ChIJfVwGawhxdDkRyZ6nEwx_Yio"
  },
  {
    "title": "Taxi Booking Agra - Agra Taxi Booking",
    "subTitle": "टैक्सी बुकिंग आगरा - आगरा टैक्सी बुकिंग",
    "categoryName": "Car rental agency",
    "address": "Plot # 5, Pashchimpuri Rd, Dushyant Nagar, Bodla, Sikandra, Agra, Uttar Pradesh 282007, India",
    "neighborhood": "Dushyant Nagar, Bodla, Sikandra",
    "street": "Plot # 5, Pashchimpuri Rd",
    "city": "Agra",
    "postalCode": "282007",
    "state": "Uttar Pradesh",
    "countryCode": "IN",
    "website": "https://tajmahalinagra.com/",
    "phone": "+917838408274",
    "phoneUnformatted": "+917838408274",
    "location": {
      "lat": 27.1979198,
      "lng": 77.9524769
    },
    "totalScore": 5,
    "permanentlyClosed": false,
    "temporarilyClosed": false,
    "placeId": "ChIJCwx6lfN3dDkRaXmjkqvkN5Y",
    "categories": [
      "Car rental agency",
      "Car leasing service",
      "Taxi service"
    ],
    "reviewsCount": 19,
    "imagesCount": 15,
    "openingHours": [],
    "imageUrl": "https://media.indianluxurycars.com/google/7dc63a9861796e80f8ffb8c51249d86a544a60e1f3ae9b4387ad1c3ccb84fa77.jpg",
    "url": "https://www.google.com/maps/search/?api=1&query=Taxi%20Booking%20Agra%20-%20Agra%20Taxi%20Booking&query_place_id=ChIJCwx6lfN3dDkRaXmjkqvkN5Y"
  },
  {
    "title": "The Car Mall - All Used Cars Under One Roof",
    "subTitle": "कार मॉल",
    "categoryName": "Used car dealer",
    "address": "68, Byepass road, NH 2, near Saket Mall, Gandhi Nagar, Agra, Uttar Pradesh 282002, India",
    "neighborhood": "Sultan Ganj, Gandhi Nagar, Civil Lines",
    "street": "68, Byepass road, NH 2, near Saket Mall",
    "city": "Agra",
    "postalCode": "282002",
    "state": "Uttar Pradesh",
    "countryCode": "IN",
    "website": "http://thecarmall.in/",
    "phone": "+919897370008",
    "phoneUnformatted": "+919897370008",
    "location": {
      "lat": 27.2083788,
      "lng": 78.0125795
    },
    "totalScore": 4.1,
    "permanentlyClosed": false,
    "temporarilyClosed": false,
    "placeId": "ChIJszubZWd3dDkRpnFTmCnOCVY",
    "categories": [
      "Used car dealer",
      "Audi dealer",
      "Auto insurance agency",
      "BMW dealer",
      "Car dealer",
      "Car finance and loan company",
      "Jaguar dealer",
      "Land Rover dealer",
      "Mercedes-Benz dealer",
      "Volvo dealer"
    ],
    "reviewsCount": 73,
    "imagesCount": 61,
    "openingHours": [
      {
        "day": "Monday",
        "hours": "10:30 AM to 7:30 PM"
      },
      {
        "day": "Tuesday",
        "hours": "10:30 AM to 7:30 PM"
      },
      {
        "day": "Wednesday",
        "hours": "10:30 AM to 7:30 PM"
      },
      {
        "day": "Thursday",
        "hours": "10:30 AM to 7:30 PM"
      },
      {
        "day": "Friday",
        "hours": "10:30 AM to 7:30 PM"
      },
      {
        "day": "Saturday",
        "hours": "10:30 AM to 7:30 PM"
      },
      {
        "day": "Sunday",
        "hours": "10:30 AM to 7:30 PM"
      }
    ],
    "imageUrl": "https://media.indianluxurycars.com/google/6e0cdd8b45557ee3f5bff3d4134e0f1f24d21bb3c3d222c7f977074fd0286f56.jpg",
    "url": "https://www.google.com/maps/search/?api=1&query=The%20Car%20Mall%20-%20All%20Used%20Cars%20Under%20One%20Roof&query_place_id=ChIJszubZWd3dDkRpnFTmCnOCVY"
  },
  {
    "title": "The Car Mall Premium Outlet",
    "subTitle": "द कार मॉल प्रीमियम आउटलेट",
    "categoryName": "Motor vehicle dealer",
    "address": "68, Gandhi Nagar Rd, Sultan Ganj, Gandhi Nagar, Civil Lines, Agra, Uttar Pradesh 282002, India",
    "neighborhood": "Sultan Ganj, Gandhi Nagar, Civil Lines",
    "street": "68, Gandhi Nagar Rd",
    "city": "Agra",
    "postalCode": "282002",
    "state": "Uttar Pradesh",
    "countryCode": "IN",
    "website": "http://www.thecarmall.in/",
    "location": {
      "lat": 27.2083416,
      "lng": 78.0137456
    },
    "totalScore": 4.1,
    "permanentlyClosed": false,
    "temporarilyClosed": false,
    "placeId": "ChIJdYWrQ_B3dDkR4Twayx_Fr4I",
    "categories": [
      "Motor vehicle dealer"
    ],
    "reviewsCount": 34,
    "imagesCount": 9,
    "openingHours": [
      {
        "day": "Monday",
        "hours": "10:15 AM to 7:45 PM"
      },
      {
        "day": "Tuesday",
        "hours": "10:15 AM to 7:45 PM"
      },
      {
        "day": "Wednesday",
        "hours": "10:15 AM to 7:45 PM"
      },
      {
        "day": "Thursday",
        "hours": "10:15 AM to 7:45 PM"
      },
      {
        "day": "Friday",
        "hours": "10:15 AM to 7:45 PM"
      },
      {
        "day": "Saturday",
        "hours": "10:15 AM to 7:45 PM"
      },
      {
        "day": "Sunday",
        "hours": "10:15 AM to 7:45 PM"
      }
    ],
    "imageUrl": "https://media.indianluxurycars.com/google/8d5116e56d94770e836f9039fad63a2fae66a2641c9a6f4ba63011c2d329447e.jpg",
    "url": "https://www.google.com/maps/search/?api=1&query=The%20Car%20Mall%20Premium%20Outlet&query_place_id=ChIJdYWrQ_B3dDkR4Twayx_Fr4I"
  },
  {
    "title": "The Car Planet",
    "subTitle": "द कार प्लानेट",
    "categoryName": "Used car dealer",
    "address": "Shop No.1, Jail Rd, Azad Nagar, Transport Nagar, Agra, Uttar Pradesh 282002, India",
    "neighborhood": "Azad Nagar, Transport Nagar",
    "street": "Shop No.1, Jail Rd",
    "city": "Agra",
    "postalCode": "282002",
    "state": "Uttar Pradesh",
    "countryCode": "IN",
    "phone": "+916395163323",
    "phoneUnformatted": "+916395163323",
    "location": {
      "lat": 27.20577,
      "lng": 77.9852265
    },
    "permanentlyClosed": false,
    "temporarilyClosed": false,
    "placeId": "ChIJ4cKGAnB3dDkRwHL7kqrKNJc",
    "categories": [
      "Used car dealer"
    ],
    "imagesCount": 5,
    "openingHours": [
      {
        "day": "Monday",
        "hours": "10 AM to 8 PM"
      },
      {
        "day": "Tuesday",
        "hours": "10 AM to 8 PM"
      },
      {
        "day": "Wednesday",
        "hours": "10 AM to 8 PM"
      },
      {
        "day": "Thursday",
        "hours": "10 AM to 8 PM"
      },
      {
        "day": "Friday",
        "hours": "10 AM to 8 PM"
      },
      {
        "day": "Saturday",
        "hours": "10 AM to 8 PM"
      },
      {
        "day": "Sunday",
        "hours": "Closed"
      }
    ],
    "imageUrl": "https://media.indianluxurycars.com/google/12d030c324874e58b3a69c4bfef4054803d36686166d038e7a20045856cb3721.png",
    "url": "https://www.google.com/maps/search/?api=1&query=The%20Car%20Planet&query_place_id=ChIJ4cKGAnB3dDkRwHL7kqrKNJc"
  },
  {
    "title": "The Car Selection",
    "subTitle": "कार चुनाव",
    "categoryName": "Used car dealer",
    "address": "Highway Rd, National Highway 2, Mathura Rd, Sikandra, Agra, Uttar Pradesh 282007, India",
    "neighborhood": "Sikandra",
    "street": "Highway Rd, National Highway 2, Mathura Rd",
    "city": "Agra",
    "postalCode": "282007",
    "state": "Uttar Pradesh",
    "countryCode": "IN",
    "phone": "+919719160001",
    "phoneUnformatted": "+919719160001",
    "location": {
      "lat": 27.2100279,
      "lng": 77.9637203
    },
    "totalScore": 4.6,
    "permanentlyClosed": false,
    "temporarilyClosed": false,
    "placeId": "ChIJx0r14IV3dDkRZyl17Lekc_A",
    "categories": [
      "Used car dealer"
    ],
    "reviewsCount": 20,
    "imagesCount": 17,
    "openingHours": [
      {
        "day": "Monday",
        "hours": "9:30 AM to 7:30 PM"
      },
      {
        "day": "Tuesday",
        "hours": "9:30 AM to 7:30 PM"
      },
      {
        "day": "Wednesday",
        "hours": "9:30 AM to 7:30 PM"
      },
      {
        "day": "Thursday",
        "hours": "9:30 AM to 7:30 PM"
      },
      {
        "day": "Friday",
        "hours": "9:30 AM to 7:30 PM"
      },
      {
        "day": "Saturday",
        "hours": "9:30 AM to 7:30 PM"
      },
      {
        "day": "Sunday",
        "hours": "9:30 AM to 7:30 PM"
      }
    ],
    "imageUrl": "https://media.indianluxurycars.com/google/f37037bd9ac258fa4b9592765be22549fb2a6fb6b42212edb85e86267ac8fe36.jpg",
    "url": "https://www.google.com/maps/search/?api=1&query=The%20Car%20Selection&query_place_id=ChIJx0r14IV3dDkRZyl17Lekc_A"
  },
  {
    "title": "The Great India Tour & Travels[ Agra Taxi service ]",
    "subTitle": "द ग्रेट इंडिया टूर & ट्रेवल्स[ आगरा टैक्सी सर्विस ]",
    "categoryName": "Car rental agency",
    "address": "V. S. Tower, B 28, Sector 3, Avas Vikas Colony, Sikandra, Agra, Uttar Pradesh 282007, India",
    "neighborhood": "Sector 3, Avas Vikas Colony, Sikandra",
    "street": "V. S. Tower, B 28",
    "city": "Agra",
    "postalCode": "282007",
    "state": "Uttar Pradesh",
    "countryCode": "IN",
    "website": "http://thegreatindiatourandtravels.com/",
    "phone": "+919520371809",
    "phoneUnformatted": "+919520371809",
    "location": {
      "lat": 27.1961159,
      "lng": 77.9607455
    },
    "totalScore": 4.9,
    "permanentlyClosed": false,
    "temporarilyClosed": false,
    "placeId": "ChIJHW7F7mV3dDkREcv1GnaoJWc",
    "categories": [
      "Car rental agency",
      "Airport shuttle service",
      "Car leasing service",
      "Taxi service",
      "Tour operator",
      "Travel agency"
    ],
    "reviewsCount": 42,
    "imagesCount": 43,
    "openingHours": [],
    "imageUrl": "https://media.indianluxurycars.com/google/b28299cb0529b953ce56aac15651381868fe9362d8d12fcbbd324dd6d7a89132.jpg",
    "url": "https://www.google.com/maps/search/?api=1&query=The%20Great%20India%20Tour%20%26%20Travels%5B%20Agra%20Taxi%20service%20%5D&query_place_id=ChIJHW7F7mV3dDkREcv1GnaoJWc"
  },
  {
    "title": "Vanshika cabs - Car Rental in Agra |Tempo Traveler in Agra | Cheapest Taxi in Agra",
    "subTitle": "वंशिका कैब्स - कार रेंटल इन आगरा |टेंपो ट्रैवलर इन आगरा | चिपेसट टैक्सी इन आगरा",
    "categoryName": "Car rental agency",
    "address": "377, Hotel Vanshika, near Canara Bank, Sadar Bazar, Agra, Uttar Pradesh 282001, India",
    "neighborhood": "Sadar Bazar, Agra Cantt, Idgah Colony",
    "street": "377, Hotel Vanshika, near Canara Bank",
    "city": "Agra",
    "postalCode": "282001",
    "state": "Uttar Pradesh",
    "countryCode": "IN",
    "website": "http://www.vanshikacabs.com/",
    "phone": "+918881238888",
    "phoneUnformatted": "+918881238888",
    "location": {
      "lat": 27.1474722,
      "lng": 78.0098082
    },
    "totalScore": 4.7,
    "permanentlyClosed": false,
    "temporarilyClosed": false,
    "placeId": "ChIJO1j5TNd2dDkRHqyrusaNSls",
    "categories": [
      "Car rental agency",
      "Airport shuttle service",
      "Car leasing service",
      "Travel agency",
      "Consultant",
      "Minibus taxi service",
      "Taxi service",
      "Tour agency",
      "Tour operator",
      "Transportation service"
    ],
    "reviewsCount": 643,
    "imagesCount": 225,
    "openingHours": [
      {
        "day": "Monday",
        "hours": "Open 24 hours"
      },
      {
        "day": "Tuesday",
        "hours": "Open 24 hours"
      },
      {
        "day": "Wednesday",
        "hours": "Open 24 hours"
      },
      {
        "day": "Thursday",
        "hours": "Open 24 hours"
      },
      {
        "day": "Friday",
        "hours": "Open 24 hours"
      },
      {
        "day": "Saturday",
        "hours": "Open 24 hours"
      },
      {
        "day": "Sunday",
        "hours": "Open 24 hours"
      }
    ],
    "imageUrl": "https://media.indianluxurycars.com/google/f92ca02dfdc42b29621642ec65cfa4cbb7076fccbf8df4bd0a09d4feb2e2f32e.jpg",
    "url": "https://www.google.com/maps/search/?api=1&query=Vanshika%20cabs%20-%20Car%20Rental%20in%20Agra%20%7CTempo%20Traveler%20in%20Agra%20%7C%20Cheapest%20Taxi%20in%20Agra&query_place_id=ChIJO1j5TNd2dDkRHqyrusaNSls"
  },
  {
    "title": "Volkswagen Agra",
    "subTitle": "फॉक्सवैगन आगरा",
    "categoryName": "Motor vehicle dealer",
    "address": "2nd Floor, 404, Bypass Rd, above MG car showroom, Nagla Padi, Civil Lines, Agra, Uttar Pradesh 282005, India",
    "neighborhood": "Nagla Padi, Civil Lines",
    "street": "2nd Floor, 404, Bypass Rd, above MG car showroom",
    "city": "Agra",
    "postalCode": "282005",
    "state": "Uttar Pradesh",
    "countryCode": "IN",
    "phone": "+918447828077",
    "phoneUnformatted": "+918447828077",
    "location": {
      "lat": 27.2115647,
      "lng": 77.9973339
    },
    "totalScore": 4.3,
    "permanentlyClosed": false,
    "temporarilyClosed": false,
    "placeId": "ChIJv7SZLoR3dDkRXhSFVSp-Xx4",
    "categories": [
      "Motor vehicle dealer"
    ],
    "reviewsCount": 94,
    "imagesCount": 84,
    "openingHours": [
      {
        "day": "Monday",
        "hours": "10 AM to 7:30 PM"
      },
      {
        "day": "Tuesday",
        "hours": "10 AM to 7:30 PM"
      },
      {
        "day": "Wednesday",
        "hours": "10 AM to 7:30 PM"
      },
      {
        "day": "Thursday",
        "hours": "10 AM to 7:30 PM"
      },
      {
        "day": "Friday",
        "hours": "10 AM to 7:30 PM"
      },
      {
        "day": "Saturday",
        "hours": "10 AM to 7:30 PM"
      },
      {
        "day": "Sunday",
        "hours": "10 AM to 7:30 PM"
      }
    ],
    "imageUrl": "https://media.indianluxurycars.com/google/2fe53f1b7a5ba5432be002943732d4e382c26e8429a8a5d29cf0dad5c03e5e97.jpg",
    "url": "https://www.google.com/maps/search/?api=1&query=Volkswagen%20Agra&query_place_id=ChIJv7SZLoR3dDkRXhSFVSp-Xx4"
  },
  {
    "title": "Walks By Arif",
    "subTitle": "वाक्स बाय आरिफ",
    "categoryName": "Car rental agency",
    "address": "Durga Complex, Maa, near Gyan Bharti School, Shaheed Nagar, Agra, Uttar Pradesh 282001, India",
    "neighborhood": "Shaheed Nagar, Tajganj",
    "street": "Durga Complex, Maa, near Gyan Bharti School",
    "city": "Agra",
    "postalCode": "282001",
    "state": "Uttar Pradesh",
    "countryCode": "IN",
    "website": "https://www.walksbyarif.com/",
    "phone": "+919917344456",
    "phoneUnformatted": "+919917344456",
    "location": {
      "lat": 27.1527502,
      "lng": 78.0378211
    },
    "totalScore": 5,
    "permanentlyClosed": false,
    "temporarilyClosed": false,
    "placeId": "ChIJKyogHUFxdDkRoMMnJo8RXDY",
    "categories": [
      "Car rental agency",
      "Bus tour agency",
      "Car leasing service",
      "Travel agency",
      "Sightseeing tour agency",
      "Tour agency",
      "Tour operator"
    ],
    "reviewsCount": 15,
    "imagesCount": 22,
    "openingHours": [
      {
        "day": "Monday",
        "hours": "Open 24 hours"
      },
      {
        "day": "Tuesday",
        "hours": "Open 24 hours"
      },
      {
        "day": "Wednesday",
        "hours": "Open 24 hours"
      },
      {
        "day": "Thursday",
        "hours": "Open 24 hours"
      },
      {
        "day": "Friday",
        "hours": "Open 24 hours"
      },
      {
        "day": "Saturday",
        "hours": "Open 24 hours"
      },
      {
        "day": "Sunday",
        "hours": "Open 24 hours"
      }
    ],
    "imageUrl": "https://media.indianluxurycars.com/google/abf9abfd50c27af5a9127a3dc0e471b636a2ab56df22aa6efcc41add0d89819f.jpg",
    "url": "https://www.google.com/maps/search/?api=1&query=Walks%20By%20Arif&query_place_id=ChIJKyogHUFxdDkRoMMnJo8RXDY"
  }
]
