[
  {
    "title": "Ajitnath Travels Pvt.Ltd. ( An ISO 9001-2008 Certified Company).",
    "subTitle": "અજિતનાથ ટ્રાવેલ્સ પવત.એલટીડી. ( અન ઇસો 9001-2008 સર્ટિફાઇડ કંપની).",
    "categoryName": "Car rental agency",
    "address": "4th Floor, Advance Business Park, A-412, opp. Sawaminarayan Temple, Shahibag, Ahmedabad, Gujarat 380004, India",
    "neighborhood": "Shahibag",
    "street": "4th Floor, Advance Business Park, A-412, opp. Sawaminarayan Temple",
    "city": "Ahmedabad",
    "postalCode": "380004",
    "state": "Gujarat",
    "countryCode": "IN",
    "website": "http://www.ajitnathtravels.com/",
    "phone": "+919978620511",
    "phoneUnformatted": "+919978620511",
    "location": {
      "lat": 23.0453268,
      "lng": 72.5893805
    },
    "totalScore": 4.6,
    "permanentlyClosed": false,
    "temporarilyClosed": false,
    "placeId": "ChIJVVVVlVyEXjkRVNix6l9eo2A",
    "categories": [
      "Car rental agency",
      "Bus charter",
      "Car leasing service",
      "Tour operator",
      "Minibus taxi service"
    ],
    "reviewsCount": 369,
    "imagesCount": 27,
    "openingHours": [
      {
        "day": "Monday",
        "hours": "Open 24 hours"
      },
      {
        "day": "Tuesday",
        "hours": "Open 24 hours"
      },
      {
        "day": "Wednesday",
        "hours": "Open 24 hours"
      },
      {
        "day": "Thursday",
        "hours": "Open 24 hours"
      },
      {
        "day": "Friday",
        "hours": "Open 24 hours"
      },
      {
        "day": "Saturday",
        "hours": "Open 24 hours"
      },
      {
        "day": "Sunday",
        "hours": "Open 24 hours"
      }
    ],
    "imageUrl": "https://media.indianluxurycars.com/google/157fa52fc385fb2a8850d8e4429b57b1c1682a217e2c2b5c1c93f9775ff43736.jpg",
    "url": "https://www.google.com/maps/search/?api=1&query=Ajitnath%20Travels%20Pvt.Ltd.%20(%20An%20ISO%209001-2008%20Certified%20Company).&query_place_id=ChIJVVVVlVyEXjkRVNix6l9eo2A"
  },
  {
    "title": "Alpha cars",
    "categoryName": "Car rental agency",
    "address": "Gujarat Housing Board Nr, SHOP NO.B-08, TEJENDRA ARCADE, CHAR RASTA, nr. GANJIFARAK MILL COMPUND, Rakhial, Ahmedabad, Gujarat 380021, India",
    "neighborhood": "Rakhial",
    "street": "Gujarat Housing Board Nr, SHOP NO.B-08, TEJENDRA ARCADE, CHAR RASTA, nr. GANJIFARAK MILL COMPUND",
    "city": "Ahmedabad",
    "postalCode": "380021",
    "state": "Gujarat",
    "countryCode": "IN",
    "location": {
      "lat": 23.0210304,
      "lng": 72.6194872
    },
    "totalScore": 5,
    "permanentlyClosed": false,
    "temporarilyClosed": false,
    "placeId": "ChIJo7LVYQCFXjkRMXkwdStLvrc",
    "categories": [
      "Car rental agency"
    ],
    "reviewsCount": 3,
    "imagesCount": 3,
    "openingHours": [
      {
        "day": "Monday",
        "hours": "10 AM to 8 PM"
      },
      {
        "day": "Tuesday",
        "hours": "10 AM to 8 PM"
      },
      {
        "day": "Wednesday",
        "hours": "10 AM to 8 PM"
      },
      {
        "day": "Thursday",
        "hours": "10 AM to 8 PM"
      },
      {
        "day": "Friday",
        "hours": "10 AM to 8 PM"
      },
      {
        "day": "Saturday",
        "hours": "10 AM to 8 PM"
      },
      {
        "day": "Sunday",
        "hours": "10 AM to 8 PM"
      }
    ],
    "imageUrl": "https://media.indianluxurycars.com/google/3282717932bc3679146dd1807711c3ffcf95967846d8b1cad7b9805b67737607.jpg",
    "url": "https://www.google.com/maps/search/?api=1&query=Alpha%20cars&query_place_id=ChIJo7LVYQCFXjkRMXkwdStLvrc"
  },
  {
    "title": "Amy Cab - One Way Cab Ahmedabad, One Way Taxi Ahmedabad, One Side Cab Service In Ahmedabad, Outstation Taxi & Cab, Oneway Cab",
    "subTitle": "એમી કેબ - વન વે કેબ અમદાવાદ, વન વે ટેક્સી અમદાવાદ, અમદાવાદમાં વન સાઇડ કેબ સેવા, બહારની ટેક્સી અને કેબ, વનવે કેબ",
    "categoryName": "Car rental agency",
    "address": "209, Ashwmegh Elligance - 1, Bhudarpura Rd, near Kalyan Jewellers - Ambawadi, Ahmedabad, Ahmedabad, Gujarat 380006, India",
    "neighborhood": "Ambawadi",
    "street": "209, Ashwmegh Elligance - 1, Bhudarpura Rd, near Kalyan Jewellers - Ambawadi, Ahmedabad",
    "city": "Ahmedabad",
    "postalCode": "380006",
    "state": "Gujarat",
    "countryCode": "IN",
    "website": "http://www.amy.cab/",
    "phone": "+917600009227",
    "phoneUnformatted": "+917600009227",
    "location": {
      "lat": 23.0192152,
      "lng": 72.5531728
    },
    "totalScore": 3.7,
    "permanentlyClosed": false,
    "temporarilyClosed": false,
    "placeId": "ChIJbb_hduOEXjkRurHvhmIA3E0",
    "categories": [
      "Car rental agency",
      "Car leasing service",
      "Taxi service",
      "Travel agency"
    ],
    "reviewsCount": 23,
    "imagesCount": 57,
    "openingHours": [],
    "imageUrl": "https://media.indianluxurycars.com/google/75db42e306c71e4c00712c1ceb824a48a66503c2549115b77ba8b12cd3f7cbdf.jpg",
    "url": "https://www.google.com/maps/search/?api=1&query=Amy%20Cab%20-%20One%20Way%20Cab%20Ahmedabad%2C%20One%20Way%20Taxi%20Ahmedabad%2C%20One%20Side%20Cab%20Service%20In%20Ahmedabad%2C%20Outstation%20Taxi%20%26%20Cab%2C%20Oneway%20Cab&query_place_id=ChIJbb_hduOEXjkRurHvhmIA3E0"
  },
  {
    "title": "Ashish Motors Office - Vehicle Fabrication | Ambulance Modification | Bus Body Building Manufacturer",
    "subTitle": "આશિષ મોટર્સ",
    "categoryName": "Car manufacturer",
    "address": "24, JALARAMPARK SOC., NR PRANSHANKAR HALL, PUSHAPKUNJ, Kankaria, Maninagar, Ahmedabad, Gujarat 380028, India",
    "neighborhood": "Prankunj Society, Kankaria, Maninagar",
    "street": "24, JALARAMPARK SOC., NR PRANSHANKAR HALL, PUSHAPKUNJ",
    "city": "Ahmedabad",
    "postalCode": "380028",
    "state": "Gujarat",
    "countryCode": "IN",
    "website": "https://ashishmotors.com/",
    "phone": "+919725021898",
    "phoneUnformatted": "+919725021898",
    "location": {
      "lat": 23.000402,
      "lng": 72.5981105
    },
    "totalScore": 4.3,
    "permanentlyClosed": false,
    "temporarilyClosed": false,
    "placeId": "ChIJSfHP98OFXjkRHIpOxhiepYI",
    "categories": [
      "Car manufacturer"
    ],
    "reviewsCount": 51,
    "imagesCount": 10,
    "openingHours": [
      {
        "day": "Monday",
        "hours": "9 AM to 9 PM"
      },
      {
        "day": "Tuesday",
        "hours": "9 AM to 9 PM"
      },
      {
        "day": "Wednesday",
        "hours": "9 AM to 9 PM"
      },
      {
        "day": "Thursday",
        "hours": "9 AM to 9 PM"
      },
      {
        "day": "Friday",
        "hours": "9 AM to 9 PM"
      },
      {
        "day": "Saturday",
        "hours": "9 AM to 9 PM"
      },
      {
        "day": "Sunday",
        "hours": "9 AM to 9 PM"
      }
    ],
    "imageUrl": "https://media.indianluxurycars.com/google/53468b24ceba9a8ef4db5a4b35fc2542258da9e3c2735e3718db19717f610a18.jpg",
    "url": "https://www.google.com/maps/search/?api=1&query=Ashish%20Motors%20Office%20-%20Vehicle%20Fabrication%20%7C%20Ambulance%20Modification%20%7C%20Bus%20Body%20Building%20Manufacturer&query_place_id=ChIJSfHP98OFXjkRHIpOxhiepYI"
  },
  {
    "title": "Ashmeet Travels",
    "categoryName": "Car leasing service",
    "address": "Shakti Appartment, 6, Kankaria, Ahmedabad, Gujarat 380022, India",
    "neighborhood": "Kankaria, Sherkotda",
    "street": "Shakti Appartment, 6",
    "city": "Ahmedabad",
    "postalCode": "380022",
    "state": "Gujarat",
    "countryCode": "IN",
    "website": "https://ashmeettravels.in/",
    "phone": "+917778999225",
    "phoneUnformatted": "+917778999225",
    "location": {
      "lat": 23.0131794,
      "lng": 72.6027676
    },
    "totalScore": 5,
    "permanentlyClosed": false,
    "temporarilyClosed": false,
    "placeId": "ChIJR2if4W-FXjkROfx-SGNRz-A",
    "categories": [
      "Car leasing service"
    ],
    "reviewsCount": 2,
    "imagesCount": 4,
    "openingHours": [
      {
        "day": "Monday",
        "hours": "9 AM to 7:30 PM"
      },
      {
        "day": "Tuesday",
        "hours": "9 AM to 7:30 PM"
      },
      {
        "day": "Wednesday",
        "hours": "9 AM to 7:30 PM"
      },
      {
        "day": "Thursday",
        "hours": "9 AM to 7:30 PM"
      },
      {
        "day": "Friday",
        "hours": "9 AM to 5 PM"
      },
      {
        "day": "Saturday",
        "hours": "9 AM to 7:30 PM"
      },
      {
        "day": "Sunday",
        "hours": "9 AM to 7:30 PM"
      }
    ],
    "imageUrl": "https://media.indianluxurycars.com/google/4120dae56a23ec040d40d4b4fd88d1c63824693973fa8a64c4d3f9c25e594a80.jpg",
    "url": "https://www.google.com/maps/search/?api=1&query=Ashmeet%20Travels&query_place_id=ChIJR2if4W-FXjkROfx-SGNRz-A"
  },
  {
    "title": "Bharat Motors Luxurious Car",
    "categoryName": "Motor vehicle dealer",
    "address": "and The New, Gujarat Kabadi Market, Shop Number 114, BHARAT MOTORS, near Bhulabhai Park, Behrampura, Ahmedabad, 380022, India",
    "neighborhood": "kabaddi Bazar II, Navyug Colony, Behrampura",
    "street": "and The New, Gujarat Kabadi Market, Shop Number 114, BHARAT MOTORS, near Bhulabhai Park",
    "city": "Ahmedabad",
    "postalCode": "380022",
    "state": "Gujarat",
    "countryCode": "IN",
    "location": {
      "lat": 23.0069509,
      "lng": 72.5883852
    },
    "permanentlyClosed": false,
    "temporarilyClosed": false,
    "placeId": "ChIJi8ifcbeFXjkR-F8BDtx3QCw",
    "categories": [
      "Motor vehicle dealer"
    ],
    "imagesCount": 1,
    "openingHours": [],
    "imageUrl": "https://media.indianluxurycars.com/google/52ff6a5f63d0ff6cf782c9879a8f5edbed9b1a49738c7346fefbe9cbc628594d.jpg",
    "url": "https://www.google.com/maps/search/?api=1&query=Bharat%20Motors%20Luxurious%20Car&query_place_id=ChIJi8ifcbeFXjkR-F8BDtx3QCw"
  },
  {
    "title": "Bharat Travels",
    "subTitle": "ભારત ટ્રાવેલ્સ",
    "categoryName": "Car leasing service",
    "address": "B/2, A.V Complex, Jain Merchant, Paldi Ahmedabad, Ahmedabad, India 380007, Ahmedabad, Gujarat 380007, India",
    "neighborhood": "Fatehpura, Paldi",
    "street": "B/2, A.V Complex, Jain Merchant, Paldi Ahmedabad, Ahmedabad, India 380007",
    "city": "Ahmedabad",
    "postalCode": "380007",
    "state": "Gujarat",
    "countryCode": "IN",
    "website": "https://www.bharattravels.in/",
    "phone": "+919723455844",
    "phoneUnformatted": "+919723455844",
    "location": {
      "lat": 23.0097433,
      "lng": 72.561749
    },
    "totalScore": 4.6,
    "permanentlyClosed": false,
    "temporarilyClosed": false,
    "placeId": "ChIJV1YAhwaFXjkRHDTqCfuDcuM",
    "categories": [
      "Car leasing service"
    ],
    "reviewsCount": 44,
    "imagesCount": 45,
    "openingHours": [
      {
        "day": "Monday",
        "hours": "Open 24 hours"
      },
      {
        "day": "Tuesday",
        "hours": "Open 24 hours"
      },
      {
        "day": "Wednesday",
        "hours": "Open 24 hours"
      },
      {
        "day": "Thursday",
        "hours": "Open 24 hours"
      },
      {
        "day": "Friday",
        "hours": "Open 24 hours"
      },
      {
        "day": "Saturday",
        "hours": "Open 24 hours"
      },
      {
        "day": "Sunday",
        "hours": "Open 24 hours"
      }
    ],
    "imageUrl": "https://media.indianluxurycars.com/google/e024b0baee787c76bd904922af628bce8b63413b454fa5e20ace745ca092bcae.jpg",
    "url": "https://www.google.com/maps/search/?api=1&query=Bharat%20Travels&query_place_id=ChIJV1YAhwaFXjkRHDTqCfuDcuM"
  },
  {
    "title": "Bhavya Motors",
    "categoryName": "Used car dealer",
    "address": "Bhavya Motors, Sardar Patel Stadium Rd, opp. Kalupur Co .op. Bank Ltd, nr. Golden Temple Complex, Chaitanya Nagar, Navrangpura, Ahmedabad, Gujarat 380009, India",
    "neighborhood": "Chaitanya Nagar, Navrangpura",
    "street": "Bhavya Motors, Sardar Patel Stadium Rd, opp. Kalupur Co .op. Bank Ltd, nr. Golden Temple Complex",
    "city": "Ahmedabad",
    "postalCode": "380009",
    "state": "Gujarat",
    "countryCode": "IN",
    "phone": "+919427386065",
    "phoneUnformatted": "+919427386065",
    "location": {
      "lat": 23.0449378,
      "lng": 72.561838
    },
    "totalScore": 4.6,
    "permanentlyClosed": false,
    "temporarilyClosed": false,
    "placeId": "ChIJNZwH4wSFXjkRWg-GzZEY_zo",
    "categories": [
      "Used car dealer",
      "Audi dealer",
      "BMW dealer",
      "Car dealer",
      "Car finance and loan company",
      "Ford dealer",
      "Jaguar dealer",
      "Mercedes-Benz dealer",
      "Suzuki dealer",
      "Toyota dealer"
    ],
    "reviewsCount": 50,
    "imagesCount": 244,
    "openingHours": [
      {
        "day": "Monday",
        "hours": "9:30 AM to 7:15 PM"
      },
      {
        "day": "Tuesday",
        "hours": "9:30 AM to 7:15 PM"
      },
      {
        "day": "Wednesday",
        "hours": "9:30 AM to 7:15 PM"
      },
      {
        "day": "Thursday",
        "hours": "9:30 AM to 7:15 PM"
      },
      {
        "day": "Friday",
        "hours": "9:30 AM to 7:15 PM"
      },
      {
        "day": "Saturday",
        "hours": "9:30 AM to 7:15 PM"
      },
      {
        "day": "Sunday",
        "hours": "9:30 AM to 4 PM"
      }
    ],
    "imageUrl": "https://media.indianluxurycars.com/google/6efb3d332ded335fb78c2d0568349fde4019c90f3d0ed0e609bd32442df1336f.jpg",
    "url": "https://www.google.com/maps/search/?api=1&query=Bhavya%20Motors&query_place_id=ChIJNZwH4wSFXjkRWg-GzZEY_zo"
  },
  {
    "title": "BLUE ESCAPE TRAVEL SOLUTIONS",
    "subTitle": "બ્લુ એસ્કેપ ટ્રાવેલ સોલ્યુશન્સ",
    "categoryName": "Car rental agency",
    "address": "Federal Bank, Eventi Complex, 507, opp. Lords Hotel, Ahmedabad, Gujarat 380009, India",
    "neighborhood": "Sardar Patel Nagar, Ellisbridge",
    "street": "Federal Bank, Eventi Complex, 507, opp. Lords Hotel",
    "city": "Ahmedabad",
    "postalCode": "380009",
    "state": "Gujarat",
    "countryCode": "IN",
    "website": "https://www.blueescapeholidays.com/",
    "phone": "+917600014939",
    "phoneUnformatted": "+917600014939",
    "location": {
      "lat": 23.0327648,
      "lng": 72.5580958
    },
    "totalScore": 4.6,
    "permanentlyClosed": false,
    "temporarilyClosed": false,
    "placeId": "ChIJSQBWjfaEXjkRqCVZ6HfkJrA",
    "categories": [
      "Car rental agency",
      "Travel agency",
      "Tour agency"
    ],
    "reviewsCount": 54,
    "imagesCount": 20,
    "openingHours": [
      {
        "day": "Monday",
        "hours": "10:30 AM to 7 PM"
      },
      {
        "day": "Tuesday",
        "hours": "10:30 AM to 7 PM"
      },
      {
        "day": "Wednesday",
        "hours": "10:30 AM to 7 PM"
      },
      {
        "day": "Thursday",
        "hours": "10:30 AM to 7 PM"
      },
      {
        "day": "Friday",
        "hours": "10:30 AM to 7 PM"
      },
      {
        "day": "Saturday",
        "hours": "10:30 AM to 5 PM"
      },
      {
        "day": "Sunday",
        "hours": "Closed"
      }
    ],
    "imageUrl": "https://media.indianluxurycars.com/google/07995c70374fca7f0e1b612903bfe65f97f2fcc56dad48b697b3ea8023a1fba9.jpg",
    "url": "https://www.google.com/maps/search/?api=1&query=BLUE%20ESCAPE%20TRAVEL%20SOLUTIONS&query_place_id=ChIJSQBWjfaEXjkRqCVZ6HfkJrA"
  },
  {
    "title": "BR Driver Service",
    "subTitle": "બર ડ્રાઇવર સર્વિસ",
    "categoryName": "Car rental agency",
    "address": "G-5, Abhinandan Complex, Airport Rd, Jain Colony, Shahibag, Ahmedabad, Gujarat 380004, India",
    "neighborhood": "Jain Colony, Shahibag",
    "street": "G-5, Abhinandan Complex, Airport Rd",
    "city": "Ahmedabad",
    "postalCode": "380004",
    "state": "Gujarat",
    "countryCode": "IN",
    "website": "https://brdriverservice.com/",
    "phone": "+918460331333",
    "phoneUnformatted": "+918460331333",
    "location": {
      "lat": 23.0520505,
      "lng": 72.5941153
    },
    "totalScore": 4.6,
    "permanentlyClosed": false,
    "temporarilyClosed": false,
    "placeId": "ChIJX0pbdC-BXjkRJf5sAUDrqqc",
    "categories": [
      "Car rental agency",
      "Tourist attraction",
      "Driver's license office",
      "Golf driving range",
      "Private tutor",
      "Taxi service"
    ],
    "reviewsCount": 55,
    "imagesCount": 9,
    "openingHours": [
      {
        "day": "Monday",
        "hours": "Open 24 hours"
      },
      {
        "day": "Tuesday",
        "hours": "Open 24 hours"
      },
      {
        "day": "Wednesday",
        "hours": "Open 24 hours"
      },
      {
        "day": "Thursday",
        "hours": "Open 24 hours"
      },
      {
        "day": "Friday",
        "hours": "Open 24 hours"
      },
      {
        "day": "Saturday",
        "hours": "Open 24 hours"
      },
      {
        "day": "Sunday",
        "hours": "Open 24 hours"
      }
    ],
    "imageUrl": "https://media.indianluxurycars.com/google/91b3b9ff02ef1b5aecdfcf238e7aa256c1f3eb45f4cc91bd6c4d632bb56de69e.jpg",
    "url": "https://www.google.com/maps/search/?api=1&query=BR%20Driver%20Service&query_place_id=ChIJX0pbdC-BXjkRJf5sAUDrqqc"
  },
  {
    "title": "Car Link Auto Consultant",
    "subTitle": "કાર લિંક ઓટો સલાહકાર",
    "categoryName": "Car dealer",
    "address": "Shree Krishna Centre, F/84, Mithakhali Cir, near Latitude Book Store, Mithakhali, Navrangpura, Ahmedabad, Gujarat 380009, India",
    "neighborhood": "Mithakhali, Navrangpura",
    "street": "Shree Krishna Centre, F/84, Mithakhali Cir, near Latitude Book Store",
    "city": "Ahmedabad",
    "postalCode": "380009",
    "state": "Gujarat",
    "countryCode": "IN",
    "website": "https://www.carlinkauto.in/",
    "phone": "+919879418804",
    "phoneUnformatted": "+919879418804",
    "location": {
      "lat": 23.0333173,
      "lng": 72.5652183
    },
    "totalScore": 4.1,
    "permanentlyClosed": false,
    "temporarilyClosed": false,
    "placeId": "ChIJ____P_WEXjkRjYD49Qx3GxE",
    "categories": [
      "Car dealer",
      "Auto broker",
      "Consultant"
    ],
    "reviewsCount": 33,
    "imagesCount": 33,
    "openingHours": [
      {
        "day": "Monday",
        "hours": "9 AM to 9 PM"
      },
      {
        "day": "Tuesday",
        "hours": "9 AM to 9 PM"
      },
      {
        "day": "Wednesday",
        "hours": "9 AM to 9 PM"
      },
      {
        "day": "Thursday",
        "hours": "9 AM to 9 PM"
      },
      {
        "day": "Friday",
        "hours": "9 AM to 9 PM"
      },
      {
        "day": "Saturday",
        "hours": "9 AM to 9 PM"
      },
      {
        "day": "Sunday",
        "hours": "9 AM to 7 PM"
      }
    ],
    "imageUrl": "https://media.indianluxurycars.com/google/827478ff8684f2153fe7aa719ddc5a544b5e0cb6df2bf4e9fd281de5f6cfb4ea.jpg",
    "url": "https://www.google.com/maps/search/?api=1&query=Car%20Link%20Auto%20Consultant&query_place_id=ChIJ____P_WEXjkRjYD49Qx3GxE"
  },
  {
    "title": "Car World",
    "subTitle": "કાર વર્લ્ડ ઓટો સલાહ",
    "categoryName": "Used car dealer",
    "address": "Opp SHREEJI COMPLEX Near, navrang school, Ankur Rd, PALIYAD NAGAR, Naranpura, Ahmedabad, Gujarat 380013, India",
    "neighborhood": "PALIYAD NAGAR, Naranpura",
    "street": "Opp SHREEJI COMPLEX Near, navrang school, Ankur Rd",
    "city": "Ahmedabad",
    "postalCode": "380013",
    "state": "Gujarat",
    "countryCode": "IN",
    "website": "https://www.instagram.com/car_world_kaumil_mehra?igsh=NmxkbDg2b2Q2d2Vs",
    "phone": "+919825520702",
    "phoneUnformatted": "+919825520702",
    "location": {
      "lat": 23.0491458,
      "lng": 72.5546786
    },
    "totalScore": 4.1,
    "permanentlyClosed": false,
    "temporarilyClosed": false,
    "placeId": "ChIJuRc5hz-HXjkR9Mmpsc9vK9o",
    "categories": [
      "Used car dealer"
    ],
    "reviewsCount": 144,
    "imagesCount": 94,
    "openingHours": [
      {
        "day": "Monday",
        "hours": "10 AM to 8 PM"
      },
      {
        "day": "Tuesday",
        "hours": "10 AM to 8 PM"
      },
      {
        "day": "Wednesday",
        "hours": "10 AM to 8 PM"
      },
      {
        "day": "Thursday",
        "hours": "10 AM to 8 PM"
      },
      {
        "day": "Friday",
        "hours": "10 AM to 8 PM"
      },
      {
        "day": "Saturday",
        "hours": "10 AM to 8 PM"
      },
      {
        "day": "Sunday",
        "hours": "10 AM to 8 PM"
      }
    ],
    "imageUrl": "https://media.indianluxurycars.com/google/604ac2d683523d0c8a1a9c0383cb481be74c6a1ea159c21c052bf6040959e8cf.jpg",
    "url": "https://www.google.com/maps/search/?api=1&query=Car%20World&query_place_id=ChIJuRc5hz-HXjkR9Mmpsc9vK9o"
  },
  {
    "title": "Carpediem Cars | New Car Dealer | Used Car Dealer",
    "categoryName": "Car dealer",
    "address": "904, Mahalay Complex, Chimanlal Girdharlal Rd, nr. President Hotel, Vasant Vihar, Navrangpura, Ahmedabad, Gujarat 380009, India",
    "neighborhood": "Vasant Vihar, Navrangpura",
    "street": "904, Mahalay Complex, Chimanlal Girdharlal Rd, nr. President Hotel",
    "city": "Ahmedabad",
    "postalCode": "380009",
    "state": "Gujarat",
    "countryCode": "IN",
    "website": "http://www.carpediemcars.com/",
    "phone": "+919825311234",
    "phoneUnformatted": "+919825311234",
    "location": {
      "lat": 23.0358128,
      "lng": 72.5594403
    },
    "totalScore": 4.9,
    "permanentlyClosed": false,
    "temporarilyClosed": false,
    "placeId": "ChIJMTOs36iFXjkRNNpEpAs1GOc",
    "categories": [
      "Car dealer"
    ],
    "reviewsCount": 110,
    "imagesCount": 88,
    "openingHours": [
      {
        "day": "Monday",
        "hours": "9:30 AM to 7:30 PM"
      },
      {
        "day": "Tuesday",
        "hours": "9:30 AM to 7:30 PM"
      },
      {
        "day": "Wednesday",
        "hours": "9:30 AM to 7:30 PM"
      },
      {
        "day": "Thursday",
        "hours": "9:30 AM to 7:30 PM"
      },
      {
        "day": "Friday",
        "hours": "9:30 AM to 7:30 PM"
      },
      {
        "day": "Saturday",
        "hours": "9:30 AM to 7:30 PM"
      },
      {
        "day": "Sunday",
        "hours": "Closed"
      }
    ],
    "imageUrl": "https://media.indianluxurycars.com/google/b9f37bd0fa10cf6abc513ca31cdce0346638bc9739aed640df8bf133d41881e7.jpg",
    "url": "https://www.google.com/maps/search/?api=1&query=Carpediem%20Cars%20%7C%20New%20Car%20Dealer%20%7C%20Used%20Car%20Dealer&query_place_id=ChIJMTOs36iFXjkRNNpEpAs1GOc"
  },
  {
    "title": "Cars4u",
    "categoryName": "Used car dealer",
    "address": "Supath Complex, 903, Vijay Cross Rd, Sarvottam Nagar Society, Navrangpura, Ahmedabad, Gujarat 380009, India",
    "neighborhood": "Sarvottam Nagar Society, Navrangpura",
    "street": "Supath Complex, 903, Vijay Cross Rd",
    "city": "Ahmedabad",
    "postalCode": "380009",
    "state": "Gujarat",
    "countryCode": "IN",
    "website": "https://cars4u.in/",
    "phone": "+918013592296",
    "phoneUnformatted": "+918013592296",
    "location": {
      "lat": 23.0419615,
      "lng": 72.5493664
    },
    "permanentlyClosed": false,
    "temporarilyClosed": false,
    "placeId": "ChIJJz8ETKaIZigR9UZsqAa2CRY",
    "categories": [
      "Used car dealer"
    ],
    "openingHours": [
      {
        "day": "Monday",
        "hours": "9 AM to 5 PM"
      },
      {
        "day": "Tuesday",
        "hours": "9 AM to 5 PM"
      },
      {
        "day": "Wednesday",
        "hours": "9 AM to 5 PM"
      },
      {
        "day": "Thursday",
        "hours": "9 AM to 5 PM"
      },
      {
        "day": "Friday",
        "hours": "9 AM to 5 PM"
      },
      {
        "day": "Saturday",
        "hours": "9 AM to 5 PM"
      },
      {
        "day": "Sunday",
        "hours": "Closed"
      }
    ],
    "url": "https://www.google.com/maps/search/?api=1&query=Cars4u&query_place_id=ChIJJz8ETKaIZigR9UZsqAa2CRY"
  },
  {
    "title": "Castrol Auto Service - Yogi Auto Care Pvt Ltd",
    "subTitle": "યોગી ઓટો કેર પ્રાઇવેટ લિમિટેડ",
    "categoryName": "Car repair and maintenance service",
    "address": "Gb Shah College Lane, Plot No 412, Swaminarayan Nagar Road, Gyan Mandir Society, Vasna Telephone Exchange, Revati Nagar, Narayan Nagar, Ahmedabad, Gujarat 380007, India",
    "neighborhood": "Gyan Mandir Society, Vasna Telephone Exchange, Revati Nagar, Narayan Nagar",
    "street": "Gb Shah College Lane, Plot No 412, Swaminarayan Nagar Road",
    "city": "Ahmedabad",
    "postalCode": "380007",
    "state": "Gujarat",
    "countryCode": "IN",
    "website": "https://www.castrolautoservice.in/castrol-auto-service-yogi-auto-care-pvt-ltd-car-service-station-vasna-ahmedabad-333907/Home?utm_source=locator&utm_medium=googleplaces",
    "phone": "+919825804799",
    "phoneUnformatted": "+919825804799",
    "location": {
      "lat": 22.9969926,
      "lng": 72.5475691
    },
    "totalScore": 4.3,
    "permanentlyClosed": false,
    "temporarilyClosed": false,
    "placeId": "ChIJt12XwfaEXjkR1ehM5VnXnGs",
    "categories": [
      "Car repair and maintenance service",
      "Auto bodywork mechanic",
      "Auto radiator repair service",
      "Car wash",
      "Oil change service",
      "Repair service"
    ],
    "reviewsCount": 104,
    "imagesCount": 112,
    "openingHours": [
      {
        "day": "Monday",
        "hours": "9:30 AM to 7:30 PM"
      },
      {
        "day": "Tuesday",
        "hours": "9:30 AM to 7:30 PM"
      },
      {
        "day": "Wednesday",
        "hours": "9:30 AM to 7:30 PM"
      },
      {
        "day": "Thursday",
        "hours": "9:30 AM to 7:30 PM"
      },
      {
        "day": "Friday",
        "hours": "9:30 AM to 7:30 PM"
      },
      {
        "day": "Saturday",
        "hours": "9:30 AM to 7:30 PM"
      },
      {
        "day": "Sunday",
        "hours": "Closed"
      }
    ],
    "imageUrl": "https://media.indianluxurycars.com/google/fba0dec4b0449dd16dd4b89a4077f96302ed1bcb009d00ae57872b305b65c90d.jpg",
    "url": "https://www.google.com/maps/search/?api=1&query=Castrol%20Auto%20Service%20-%20Yogi%20Auto%20Care%20Pvt%20Ltd&query_place_id=ChIJt12XwfaEXjkR1ehM5VnXnGs"
  },
  {
    "title": "Chirag Auto",
    "subTitle": "ચિરાગ ઓટો",
    "categoryName": "Car dealer",
    "address": "2HC6+55P, Old Sharda Mandir Cross Road, Ellisbridge, Paldi, Ahmedabad, Gujarat 380006, India",
    "neighborhood": "Paldi",
    "street": "2HC6+55P, Old Sharda Mandir Cross Road, Ellisbridge",
    "city": "Ahmedabad",
    "postalCode": "380006",
    "state": "Gujarat",
    "countryCode": "IN",
    "phone": "+917926444817",
    "phoneUnformatted": "+917926444817",
    "location": {
      "lat": 23.0204503,
      "lng": 72.5604672
    },
    "totalScore": 4.3,
    "permanentlyClosed": false,
    "temporarilyClosed": false,
    "placeId": "ChIJKTVh3AGFXjkRRblyfOzmoMo",
    "categories": [
      "Car dealer"
    ],
    "reviewsCount": 146,
    "imagesCount": 89,
    "openingHours": [
      {
        "day": "Monday",
        "hours": "10 AM to 7:30 PM"
      },
      {
        "day": "Tuesday",
        "hours": "10 AM to 7:30 PM"
      },
      {
        "day": "Wednesday",
        "hours": "10 AM to 7:30 PM"
      },
      {
        "day": "Thursday",
        "hours": "10 AM to 7:30 PM"
      },
      {
        "day": "Friday",
        "hours": "10 AM to 7:30 PM"
      },
      {
        "day": "Saturday",
        "hours": "10 AM to 7:30 PM"
      },
      {
        "day": "Sunday",
        "hours": "10 AM to 7 PM"
      }
    ],
    "imageUrl": "https://media.indianluxurycars.com/google/c2a1cd0450423c92cee60d7d6138404f38be0d013480f62a1f1b41f622d43230.jpg",
    "url": "https://www.google.com/maps/search/?api=1&query=Chirag%20Auto&query_place_id=ChIJKTVh3AGFXjkRRblyfOzmoMo"
  },
  {
    "title": "CONCEPT DRIVERS",
    "subTitle": "કોન્સેપ્ટ ડ્રાઈવર્સ",
    "categoryName": "Car rental agency",
    "address": "krunal complex, 10 a, Relief Rd, Old City, Panchkuwa, Gheekanta, Kalupur, Ahmedabad, Gujarat 380001, India",
    "neighborhood": "Old City, Panchkuwa, Gheekanta, Kalupur",
    "street": "krunal complex, 10 a, Relief Rd",
    "city": "Ahmedabad",
    "postalCode": "380001",
    "state": "Gujarat",
    "countryCode": "IN",
    "website": "http://www.conceptdrivers.co.in/",
    "phone": "+919409414131",
    "phoneUnformatted": "+919409414131",
    "location": {
      "lat": 23.028074,
      "lng": 72.5901901
    },
    "totalScore": 4.6,
    "permanentlyClosed": false,
    "temporarilyClosed": false,
    "placeId": "ChIJgT4aOUiEXjkReVUGPT4nKoQ",
    "categories": [
      "Car rental agency",
      "Bus company",
      "Bus ticket agency",
      "Business networking company",
      "Tour agency",
      "Driver's license office",
      "Tour operator",
      "Tourist information center",
      "Travel agency"
    ],
    "reviewsCount": 10,
    "imagesCount": 37,
    "openingHours": [
      {
        "day": "Monday",
        "hours": "Open 24 hours"
      },
      {
        "day": "Tuesday",
        "hours": "Open 24 hours"
      },
      {
        "day": "Wednesday",
        "hours": "Open 24 hours"
      },
      {
        "day": "Thursday",
        "hours": "Open 24 hours"
      },
      {
        "day": "Friday",
        "hours": "Open 24 hours"
      },
      {
        "day": "Saturday",
        "hours": "Open 24 hours"
      },
      {
        "day": "Sunday",
        "hours": "Open 24 hours"
      }
    ],
    "imageUrl": "https://media.indianluxurycars.com/google/32393769b20238057f3cf58b7e8da875eee165b1ab8b3ff4113af2939b7dd6e1.jpg",
    "url": "https://www.google.com/maps/search/?api=1&query=CONCEPT%20DRIVERS&query_place_id=ChIJgT4aOUiEXjkReVUGPT4nKoQ"
  },
  {
    "title": "Crystal Travels - Taxi Service In Ahmedabad",
    "categoryName": "Car leasing service",
    "address": "Crystal Travels, Dudheshwar Rd, opp. Amrut Industrial Estate, near Torrent Power, Dudheshwar, Ahmedabad, Gujarat 380004, India",
    "neighborhood": "Dudheshwar",
    "street": "Crystal Travels, Dudheshwar Rd, opp. Amrut Industrial Estate, near Torrent Power",
    "city": "Ahmedabad",
    "postalCode": "380004",
    "state": "Gujarat",
    "countryCode": "IN",
    "website": "https://www.crystaltravels.in/",
    "phone": "+919898585854",
    "phoneUnformatted": "+919898585854",
    "location": {
      "lat": 23.0510434,
      "lng": 72.5815542
    },
    "totalScore": 4.9,
    "permanentlyClosed": false,
    "temporarilyClosed": false,
    "placeId": "ChIJDRxJE7SFXjkRKmaHefKWjlM",
    "categories": [
      "Car leasing service",
      "Taxi service"
    ],
    "reviewsCount": 131,
    "imagesCount": 29,
    "openingHours": [],
    "imageUrl": "https://media.indianluxurycars.com/google/95f21aad9cd92eb4f534f2a9d1027442003dd51525999238250aadc78147cddf.jpg",
    "url": "https://www.google.com/maps/search/?api=1&query=Crystal%20Travels%20-%20Taxi%20Service%20In%20Ahmedabad&query_place_id=ChIJDRxJE7SFXjkRKmaHefKWjlM"
  },
  {
    "title": "DECENT CAR",
    "categoryName": "Used car dealer",
    "address": "V.S HOSPITAL, Shreeji Complex, 18, near RAJIV GHANDI BHAVAN, Paldi, Ahmedabad, Gujarat 380006, India",
    "neighborhood": "Pritam Nagar, Paldi",
    "street": "V.S HOSPITAL, Shreeji Complex, 18, near RAJIV GHANDI BHAVAN",
    "city": "Ahmedabad",
    "postalCode": "380006",
    "state": "Gujarat",
    "countryCode": "IN",
    "phone": "+919925556669",
    "phoneUnformatted": "+919925556669",
    "location": {
      "lat": 23.018451,
      "lng": 72.5699279
    },
    "totalScore": 4.9,
    "permanentlyClosed": false,
    "temporarilyClosed": false,
    "placeId": "ChIJH1RolqKFXjkRXegniL6gUtU",
    "categories": [
      "Used car dealer"
    ],
    "reviewsCount": 114,
    "imagesCount": 10,
    "openingHours": [
      {
        "day": "Monday",
        "hours": "11 AM to 8 PM"
      },
      {
        "day": "Tuesday",
        "hours": "11 AM to 8 PM"
      },
      {
        "day": "Wednesday",
        "hours": "11 AM to 8 PM"
      },
      {
        "day": "Thursday",
        "hours": "11 AM to 8 PM"
      },
      {
        "day": "Friday",
        "hours": "11 AM to 8 PM"
      },
      {
        "day": "Saturday",
        "hours": "11 AM to 8 PM"
      },
      {
        "day": "Sunday",
        "hours": "11 AM to 8 PM"
      }
    ],
    "imageUrl": "https://media.indianluxurycars.com/google/e81f20f8d22330a0ee2e6df9a72a6939d70e073900dc678c24d2e092ff4a027f.jpg",
    "url": "https://www.google.com/maps/search/?api=1&query=DECENT%20CAR&query_place_id=ChIJH1RolqKFXjkRXegniL6gUtU"
  },
  {
    "title": "DREAM CARz",
    "categoryName": "Car dealer",
    "address": "A-142, Sakar-7 Ashram Road, near Nehru bridge, opp. Patang Hotel, Ahmedabad, Gujarat 380009, India",
    "neighborhood": "Vishalpur, Ellisbridge",
    "street": "A-142, Sakar-7 Ashram Road, near Nehru bridge, opp. Patang Hotel",
    "city": "Ahmedabad",
    "postalCode": "380009",
    "state": "Gujarat",
    "countryCode": "IN",
    "phone": "+918849820016",
    "phoneUnformatted": "+918849820016",
    "location": {
      "lat": 23.0273561,
      "lng": 72.5716006
    },
    "totalScore": 3.9,
    "permanentlyClosed": false,
    "temporarilyClosed": false,
    "placeId": "ChIJS6GhZVeEXjkRFi7u9WacL48",
    "categories": [
      "Car dealer",
      "Used car dealer"
    ],
    "reviewsCount": 25,
    "imagesCount": 9,
    "openingHours": [
      {
        "day": "Monday",
        "hours": "11 AM to 7 PM"
      },
      {
        "day": "Tuesday",
        "hours": "11 AM to 7 PM"
      },
      {
        "day": "Wednesday",
        "hours": "11 AM to 7 PM"
      },
      {
        "day": "Thursday",
        "hours": "11 AM to 7 PM"
      },
      {
        "day": "Friday",
        "hours": "11 AM to 7 PM"
      },
      {
        "day": "Saturday",
        "hours": "11 AM to 7 PM"
      },
      {
        "day": "Sunday",
        "hours": "11 AM to 7 PM"
      }
    ],
    "imageUrl": "https://media.indianluxurycars.com/google/e2d82d6a9a643c9b31bca2452b4cf5a215174dde0930b93901ca57793d16c6ae.jpg",
    "url": "https://www.google.com/maps/search/?api=1&query=DREAM%20CARz&query_place_id=ChIJS6GhZVeEXjkRFi7u9WacL48"
  },
  {
    "title": "Garuda Events & car",
    "categoryName": "Car rental agency",
    "address": "S/100 vivekanand estate ,rakhiyal char rasta, Rakhial, Ahmedabad, Gujarat 380021, India",
    "neighborhood": "Krishna Nagar, Rakhial",
    "street": "S/100 vivekanand estate ,rakhiyal char rasta",
    "city": "Ahmedabad",
    "postalCode": "380021",
    "state": "Gujarat",
    "countryCode": "IN",
    "phone": "+919824388889",
    "phoneUnformatted": "+919824388889",
    "location": {
      "lat": 23.0231415,
      "lng": 72.6156654
    },
    "totalScore": 4.9,
    "permanentlyClosed": false,
    "temporarilyClosed": false,
    "placeId": "ChIJZ0IEY_SHXjkRiqeEQIwPe3s",
    "categories": [
      "Car rental agency"
    ],
    "reviewsCount": 18,
    "imagesCount": 40,
    "openingHours": [
      {
        "day": "Monday",
        "hours": "9 AM to 8 PM"
      },
      {
        "day": "Tuesday",
        "hours": "10 AM to 8 PM"
      },
      {
        "day": "Wednesday",
        "hours": "10 AM to 8 PM"
      },
      {
        "day": "Thursday",
        "hours": "10 AM to 8 PM"
      },
      {
        "day": "Friday",
        "hours": "10 AM to 8 PM"
      },
      {
        "day": "Saturday",
        "hours": "10 AM to 8 PM"
      },
      {
        "day": "Sunday",
        "hours": "10 AM to 8 PM"
      }
    ],
    "imageUrl": "https://media.indianluxurycars.com/google/509c51e8c663eec3ab64157e582676bdc6c1c12d2cc81f84b3f9402aee108be8.jpg",
    "url": "https://www.google.com/maps/search/?api=1&query=Garuda%20Events%20%26%20car&query_place_id=ChIJZ0IEY_SHXjkRiqeEQIwPe3s"
  },
  {
    "title": "GoldenWay",
    "categoryName": "Car rental agency",
    "address": "337/3, Shakti Society, Chandola, Danilimda, Ahmedabad, Gujarat 380043, India",
    "neighborhood": "Shakti Society, Chandola, Danilimda",
    "street": "337/3",
    "city": "Ahmedabad",
    "postalCode": "380043",
    "state": "Gujarat",
    "countryCode": "IN",
    "website": "https://www.goldenwaytaxi.com/",
    "phone": "+919601094774",
    "phoneUnformatted": "+919601094774",
    "location": {
      "lat": 22.9985588,
      "lng": 72.5828738
    },
    "totalScore": 4.9,
    "permanentlyClosed": false,
    "temporarilyClosed": false,
    "placeId": "ChIJV-FpV-uFXjkRYwEQblz3g8A",
    "categories": [
      "Car rental agency",
      "Airport shuttle service",
      "Car leasing service",
      "Taxi service",
      "Tour operator"
    ],
    "reviewsCount": 14,
    "imagesCount": 21,
    "openingHours": [
      {
        "day": "Monday",
        "hours": "Open 24 hours"
      },
      {
        "day": "Tuesday",
        "hours": "Open 24 hours"
      },
      {
        "day": "Wednesday",
        "hours": "Open 24 hours"
      },
      {
        "day": "Thursday",
        "hours": "Open 24 hours"
      },
      {
        "day": "Friday",
        "hours": "Open 24 hours"
      },
      {
        "day": "Saturday",
        "hours": "Open 24 hours"
      },
      {
        "day": "Sunday",
        "hours": "Open 24 hours"
      }
    ],
    "imageUrl": "https://media.indianluxurycars.com/google/e3aef16c53a6ae9ed31fc4cfaeed8e997ce658a0d9bb463b2c12b1126c06391b.png",
    "url": "https://www.google.com/maps/search/?api=1&query=GoldenWay&query_place_id=ChIJV-FpV-uFXjkRYwEQblz3g8A"
  },
  {
    "title": "Gopal Auto Decor",
    "subTitle": "ગોપાલ ઑટો ડેકોર",
    "categoryName": "Car accessories store",
    "address": "5, Utsav Complex, opp. Ravjibhai Towers, Krishna Baug, Maninagar, Ahmedabad, Gujarat 380008, India",
    "neighborhood": "Krishna Baug, Maninagar",
    "street": "5, Utsav Complex, opp. Ravjibhai Towers",
    "city": "Ahmedabad",
    "postalCode": "380008",
    "state": "Gujarat",
    "countryCode": "IN",
    "phone": "+918398970970",
    "phoneUnformatted": "+918398970970",
    "location": {
      "lat": 22.997419,
      "lng": 72.6057351
    },
    "totalScore": 4,
    "permanentlyClosed": false,
    "temporarilyClosed": false,
    "placeId": "ChIJQQDQ6N2FXjkR_B8Qo4XOdiM",
    "categories": [
      "Car accessories store"
    ],
    "reviewsCount": 9,
    "imagesCount": 108,
    "openingHours": [
      {
        "day": "Monday",
        "hours": "9 AM to 9 PM"
      },
      {
        "day": "Tuesday",
        "hours": "9 AM to 9 PM"
      },
      {
        "day": "Wednesday",
        "hours": "9 AM to 9 PM"
      },
      {
        "day": "Thursday",
        "hours": "9 AM to 9 PM"
      },
      {
        "day": "Friday",
        "hours": "9 AM to 9 PM"
      },
      {
        "day": "Saturday",
        "hours": "9 AM to 9 PM"
      },
      {
        "day": "Sunday",
        "hours": "9 AM to 9 PM"
      }
    ],
    "imageUrl": "https://media.indianluxurycars.com/google/9b81e4d46f7a52b6f7618a2ba054932d8d198a461c64cdf53b5505ae247439ba.jpg",
    "url": "https://www.google.com/maps/search/?api=1&query=Gopal%20Auto%20Decor&query_place_id=ChIJQQDQ6N2FXjkR_B8Qo4XOdiM"
  },
  {
    "title": "H H",
    "categoryName": "Car rental agency",
    "address": "B-510, 5th Floor, Sivanta One, opp. Bank Of Baroda, Pritam Nagar, Paldi, Ahmedabad, Gujarat 380006, India",
    "neighborhood": "Pritam Nagar, Paldi",
    "street": "B-510, 5th Floor, Sivanta One, opp. Bank Of Baroda",
    "city": "Ahmedabad",
    "postalCode": "380006",
    "state": "Gujarat",
    "countryCode": "IN",
    "website": "https://www.carrentaltravels.com/",
    "phone": "+919898354560",
    "phoneUnformatted": "+919898354560",
    "location": {
      "lat": 23.018875,
      "lng": 72.5679195
    },
    "totalScore": 4.9,
    "permanentlyClosed": false,
    "temporarilyClosed": false,
    "placeId": "ChIJaeXLczSFXjkREs-L4zREpQs",
    "categories": [
      "Car rental agency",
      "Airport shuttle service",
      "Car leasing service",
      "Taxi service",
      "Tour agency",
      "Travel agency"
    ],
    "reviewsCount": 89,
    "imagesCount": 41,
    "openingHours": [],
    "imageUrl": "https://media.indianluxurycars.com/google/494bd0a7617a68ec7c5bea637d9d8bb645a1504f34d5ee03007578e797475cf7.jpg",
    "url": "https://www.google.com/maps/search/?api=1&query=H%20H&query_place_id=ChIJaeXLczSFXjkREs-L4zREpQs"
  },
  {
    "title": "Happy Car Rental",
    "categoryName": "Car rental agency",
    "address": "209, Ashwamegh Elegance, Bhudarpura Road, Opp. S.B.I., Ambawadi, Ahmedabad, Gujarat 380006, India",
    "neighborhood": "Ambawadi",
    "street": "209, Ashwamegh Elegance, Bhudarpura Road, Opp. S.B.I., Ambawadi",
    "city": "Ahmedabad",
    "postalCode": "380006",
    "state": "Gujarat",
    "countryCode": "IN",
    "website": "https://www.ahmedabadtaxi.co.in/?utm_source=googlemap&utm_medium=GMBorganic&utm_campaign=gbp_tracking",
    "phone": "+917600009227",
    "phoneUnformatted": "+917600009227",
    "location": {
      "lat": 23.019307,
      "lng": 72.5534335
    },
    "totalScore": 4.4,
    "permanentlyClosed": false,
    "temporarilyClosed": false,
    "placeId": "ChIJ1TM0cOOEXjkRDZx3evFY_lc",
    "categories": [
      "Car rental agency",
      "Car leasing service",
      "Taxi service",
      "Tour operator",
      "Travel agency"
    ],
    "reviewsCount": 265,
    "imagesCount": 388,
    "openingHours": [
      {
        "day": "Monday",
        "hours": "Open 24 hours"
      },
      {
        "day": "Tuesday",
        "hours": "Open 24 hours"
      },
      {
        "day": "Wednesday",
        "hours": "Open 24 hours"
      },
      {
        "day": "Thursday",
        "hours": "Open 24 hours"
      },
      {
        "day": "Friday",
        "hours": "Open 24 hours"
      },
      {
        "day": "Saturday",
        "hours": "Open 24 hours"
      },
      {
        "day": "Sunday",
        "hours": "Open 24 hours"
      }
    ],
    "imageUrl": "https://media.indianluxurycars.com/google/e1b072cd69a50b0a37d49872368aae0a6371eb0b164a90c94ad0c27d0bb9264e.jpg",
    "url": "https://www.google.com/maps/search/?api=1&query=Happy%20Car%20Rental&query_place_id=ChIJ1TM0cOOEXjkRDZx3evFY_lc"
  },
  {
    "title": "Happy Travels",
    "subTitle": "હેપ્પી ટ્રાવેલ્સ",
    "categoryName": "Car rental agency",
    "address": "Kasturbanagar Soc, 72, Saraspur, Ahmedabad, Gujarat 380018, India",
    "neighborhood": "Kasturbanagar Society, Krishna Nagar, Saraspur",
    "street": "Kasturbanagar Soc, 72",
    "city": "Ahmedabad",
    "postalCode": "380018",
    "state": "Gujarat",
    "countryCode": "IN",
    "website": "https://www.caronrent.net/",
    "phone": "+917600009227",
    "phoneUnformatted": "+917600009227",
    "location": {
      "lat": 23.0282247,
      "lng": 72.612564
    },
    "totalScore": 4.8,
    "permanentlyClosed": false,
    "temporarilyClosed": false,
    "placeId": "ChIJpYBlNYuFXjkRlAtkki7msVg",
    "categories": [
      "Car rental agency",
      "Taxi service"
    ],
    "reviewsCount": 11,
    "imagesCount": 2,
    "openingHours": [],
    "imageUrl": "https://media.indianluxurycars.com/google/80f94d3570ba4d0f1b0910a595ac8ebd53c39965334c03a280676dbc43df9f0e.jpg",
    "url": "https://www.google.com/maps/search/?api=1&query=Happy%20Travels&query_place_id=ChIJpYBlNYuFXjkRlAtkki7msVg"
  },
  {
    "title": "HET TRAVELS",
    "categoryName": "Car rental agency",
    "address": "nr. Riverfront Road, Khodiyarnagar, Behrampura, Ahmedabad, Gujarat 380028, India",
    "neighborhood": "Khodiyarnagar, Behrampura",
    "street": "nr. Riverfront Road",
    "city": "Ahmedabad",
    "postalCode": "380028",
    "state": "Gujarat",
    "countryCode": "IN",
    "phone": "+918306809700",
    "phoneUnformatted": "+918306809700",
    "location": {
      "lat": 22.9971241,
      "lng": 72.5675404
    },
    "totalScore": 5,
    "permanentlyClosed": false,
    "temporarilyClosed": false,
    "placeId": "ChIJz71cak-FXjkRcc1dYZo3nd4",
    "categories": [
      "Car rental agency",
      "Tour operator"
    ],
    "reviewsCount": 4,
    "imagesCount": 23,
    "openingHours": [
      {
        "day": "Monday",
        "hours": "Open 24 hours"
      },
      {
        "day": "Tuesday",
        "hours": "Open 24 hours"
      },
      {
        "day": "Wednesday",
        "hours": "Open 24 hours"
      },
      {
        "day": "Thursday",
        "hours": "Open 24 hours"
      },
      {
        "day": "Friday",
        "hours": "Open 24 hours"
      },
      {
        "day": "Saturday",
        "hours": "Open 24 hours"
      },
      {
        "day": "Sunday",
        "hours": "Open 24 hours"
      }
    ],
    "imageUrl": "https://media.indianluxurycars.com/google/c8763c680ea5a7c1ea0a58e6251d0af5bfbe8099edb507cdd1c8144483a349bf.jpg",
    "url": "https://www.google.com/maps/search/?api=1&query=HET%20TRAVELS&query_place_id=ChIJz71cak-FXjkRcc1dYZo3nd4"
  },
  {
    "title": "International Motors",
    "subTitle": "ઇન્ટરનેશનલ મોટર્સ",
    "categoryName": "Car dealer",
    "address": "Thakorebaug Market, 8, near Induben Khakharawala, opposite Sardar Patel Seva Samaj Hall, Navrangpura, Ahmedabad, Gujarat 380009, India",
    "neighborhood": "Mithakhali, Navrangpura",
    "street": "Thakorebaug Market, 8, near Induben Khakharawala, opposite Sardar Patel Seva Samaj Hall",
    "city": "Ahmedabad",
    "postalCode": "380009",
    "state": "Gujarat",
    "countryCode": "IN",
    "phone": "+919327023527",
    "phoneUnformatted": "+919327023527",
    "location": {
      "lat": 23.0328141,
      "lng": 72.561774
    },
    "totalScore": 3.8,
    "permanentlyClosed": false,
    "temporarilyClosed": false,
    "placeId": "ChIJm36oaPOEXjkRTGJIEhxXdOs",
    "categories": [
      "Car dealer"
    ],
    "reviewsCount": 5,
    "imagesCount": 46,
    "openingHours": [
      {
        "day": "Monday",
        "hours": "10 AM to 7 PM"
      },
      {
        "day": "Tuesday",
        "hours": "10 AM to 7 PM"
      },
      {
        "day": "Wednesday",
        "hours": "10 AM to 7 PM"
      },
      {
        "day": "Thursday",
        "hours": "10 AM to 7 PM"
      },
      {
        "day": "Friday",
        "hours": "10 AM to 7 PM"
      },
      {
        "day": "Saturday",
        "hours": "10 AM to 7 PM"
      },
      {
        "day": "Sunday",
        "hours": "Closed"
      }
    ],
    "imageUrl": "https://media.indianluxurycars.com/google/8b45d6c9bd7dd485b81155cc33dbf4ff884c3bb6cdff5490aab8321c2bb6ae0f.jpg",
    "url": "https://www.google.com/maps/search/?api=1&query=International%20Motors&query_place_id=ChIJm36oaPOEXjkRTGJIEhxXdOs"
  },
  {
    "title": "Jai Bhavani Motors",
    "categoryName": "Used car dealer",
    "address": "Shop no. 3, tulsi complex, opp. passport office, nr. Mithkhali six road, Navrangpura, Ahmedabad, Gujarat 380009, India",
    "neighborhood": "Rashmi Society, Navrangpura",
    "street": "Shop no. 3, tulsi complex, opp. passport office, nr. Mithkhali six road",
    "city": "Ahmedabad",
    "postalCode": "380009",
    "state": "Gujarat",
    "countryCode": "IN",
    "phone": "+919825083863",
    "phoneUnformatted": "+919825083863",
    "location": {
      "lat": 23.0320721,
      "lng": 72.5652558
    },
    "totalScore": 4.9,
    "permanentlyClosed": false,
    "temporarilyClosed": false,
    "placeId": "ChIJ_zvr_2WFXjkR_F91xDRG75k",
    "categories": [
      "Used car dealer",
      "Auto broker",
      "Car dealer",
      "Honda dealer",
      "Smart Car dealer"
    ],
    "reviewsCount": 25,
    "imagesCount": 8,
    "openingHours": [
      {
        "day": "Monday",
        "hours": "10 AM to 8 PM"
      },
      {
        "day": "Tuesday",
        "hours": "10 AM to 8 PM"
      },
      {
        "day": "Wednesday",
        "hours": "10 AM to 8 PM"
      },
      {
        "day": "Thursday",
        "hours": "10 AM to 8 PM"
      },
      {
        "day": "Friday",
        "hours": "10 AM to 8 PM"
      },
      {
        "day": "Saturday",
        "hours": "10 AM to 8 PM"
      },
      {
        "day": "Sunday",
        "hours": "10 AM to 8 PM"
      }
    ],
    "imageUrl": "https://media.indianluxurycars.com/google/8d47a01630f4ee9b3b0de291cecaa5a3e9e3ddbdc4d052ed7268f2fd041d74f5.jpg",
    "url": "https://www.google.com/maps/search/?api=1&query=Jai%20Bhavani%20Motors&query_place_id=ChIJ_zvr_2WFXjkR_F91xDRG75k"
  },
  {
    "title": "Kevan Cab Service",
    "categoryName": "Car rental agency",
    "address": "railway station, Maninagar, Ahmedabad, Gujarat 380008, India",
    "neighborhood": "Maninagar",
    "street": "railway station",
    "city": "Ahmedabad",
    "postalCode": "380008",
    "state": "Gujarat",
    "countryCode": "IN",
    "phone": "+918160814992",
    "phoneUnformatted": "+918160814992",
    "location": {
      "lat": 22.9980289,
      "lng": 72.6098038
    },
    "totalScore": 5,
    "permanentlyClosed": false,
    "temporarilyClosed": true,
    "placeId": "ChIJ6za2cNSFXjkRNjKhm24JGF0",
    "categories": [
      "Car rental agency",
      "Car factory",
      "Taxi service",
      "Event planner",
      "Taxicab Stand",
      "Tour agency",
      "Tour operator",
      "Tourist attraction",
      "Tourist information center",
      "Travel agency"
    ],
    "reviewsCount": 8,
    "imagesCount": 36,
    "openingHours": [],
    "imageUrl": "https://media.indianluxurycars.com/google/45f84a3448c1ae3ef100426c18021397f27ce4b34d2e8186c5a9e03adf0ae455.jpg",
    "url": "https://www.google.com/maps/search/?api=1&query=Kevan%20Cab%20Service&query_place_id=ChIJ6za2cNSFXjkRNjKhm24JGF0"
  },
  {
    "title": "Krishna Cars",
    "subTitle": "ક્રિષ્ના કાર્સ",
    "categoryName": "Used car dealer",
    "address": "Gitanjali Complex, 11-12, Darpan Six Rd, Arunesh Society, Naranpura, Ahmedabad, Gujarat 380009, India",
    "neighborhood": "Arunesh Society, Naranpura",
    "street": "Gitanjali Complex, 11-12, Darpan Six Rd",
    "city": "Ahmedabad",
    "postalCode": "380009",
    "state": "Gujarat",
    "countryCode": "IN",
    "phone": "+919099139098",
    "phoneUnformatted": "+919099139098",
    "location": {
      "lat": 23.0471713,
      "lng": 72.5542822
    },
    "totalScore": 4.3,
    "permanentlyClosed": false,
    "temporarilyClosed": false,
    "placeId": "ChIJJZdC3YWEXjkR2qCpdvL8ueU",
    "categories": [
      "Used car dealer"
    ],
    "reviewsCount": 63,
    "imagesCount": 4,
    "openingHours": [
      {
        "day": "Monday",
        "hours": "10 AM to 7 PM"
      },
      {
        "day": "Tuesday",
        "hours": "10 AM to 7 PM"
      },
      {
        "day": "Wednesday",
        "hours": "10 AM to 7 PM"
      },
      {
        "day": "Thursday",
        "hours": "10 AM to 7 PM"
      },
      {
        "day": "Friday",
        "hours": "10 AM to 7 PM"
      },
      {
        "day": "Saturday",
        "hours": "10 AM to 7 PM"
      },
      {
        "day": "Sunday",
        "hours": "Closed"
      }
    ],
    "imageUrl": "https://media.indianluxurycars.com/google/854d9adb4a36222102221e28d27a98ed64410cdea1d12290e0f61326a98a6498.jpg",
    "url": "https://www.google.com/maps/search/?api=1&query=Krishna%20Cars&query_place_id=ChIJJZdC3YWEXjkR2qCpdvL8ueU"
  },
  {
    "title": "KTC",
    "categoryName": "Car leasing service",
    "address": "S.F-203, Anushree, Satyavadi CHSL, Ashram Rd, near Bank of Baroda, Shanti Nagar, Usmanpura, Ahmedabad, Gujarat 380013, India",
    "neighborhood": "Shanti Nagar, Usmanpura",
    "street": "S.F-203, Anushree, Satyavadi CHSL, Ashram Rd, near Bank of Baroda",
    "city": "Ahmedabad",
    "postalCode": "380013",
    "state": "Gujarat",
    "countryCode": "IN",
    "website": "https://www.ktcindia.com/luxury-car-rental-ahmedabad.php",
    "phone": "+911142588888",
    "phoneUnformatted": "+911142588888",
    "location": {
      "lat": 23.0496168,
      "lng": 72.5709608
    },
    "totalScore": 5,
    "permanentlyClosed": false,
    "temporarilyClosed": false,
    "placeId": "ChIJi6khClSFXjkReHPh5O82dUM",
    "categories": [
      "Car leasing service"
    ],
    "reviewsCount": 4,
    "imagesCount": 15,
    "openingHours": [
      {
        "day": "Monday",
        "hours": "9:30 AM to 6 PM"
      },
      {
        "day": "Tuesday",
        "hours": "9:30 AM to 6 PM"
      },
      {
        "day": "Wednesday",
        "hours": "9:30 AM to 6 PM"
      },
      {
        "day": "Thursday",
        "hours": "9:30 AM to 6 PM"
      },
      {
        "day": "Friday",
        "hours": "9:30 AM to 6 PM"
      },
      {
        "day": "Saturday",
        "hours": "Closed"
      },
      {
        "day": "Sunday",
        "hours": "Closed"
      }
    ],
    "imageUrl": "https://media.indianluxurycars.com/google/00b9c0956be931f29f6a17f4c53476ebd355827e2419d26a58214857138e9ad3.jpg",
    "url": "https://www.google.com/maps/search/?api=1&query=KTC&query_place_id=ChIJi6khClSFXjkReHPh5O82dUM"
  },
  {
    "title": "Mahalaxmi Motors",
    "subTitle": "મહાલક્ષ્મી મોટર્સ",
    "categoryName": "Used car dealer",
    "address": "14, opp. Bhagirath Soc, nr. Pujya Ravi Shankar Maharaj Fly Overbridge, Naranpura, Ahmedabad, Gujarat 380052, India",
    "neighborhood": "Naranpura",
    "street": "14, opp. Bhagirath Soc, nr. Pujya Ravi Shankar Maharaj Fly Overbridge",
    "city": "Ahmedabad",
    "postalCode": "380052",
    "state": "Gujarat",
    "countryCode": "IN",
    "phone": "+919825071841",
    "phoneUnformatted": "+919825071841",
    "location": {
      "lat": 23.0522381,
      "lng": 72.5449417
    },
    "totalScore": 4.3,
    "permanentlyClosed": false,
    "temporarilyClosed": false,
    "placeId": "ChIJldKmQJmEXjkRoS-mg7MOfWo",
    "categories": [
      "Used car dealer"
    ],
    "reviewsCount": 55,
    "imagesCount": 6,
    "openingHours": [
      {
        "day": "Monday",
        "hours": "10 AM to 8 PM"
      },
      {
        "day": "Tuesday",
        "hours": "10 AM to 8 PM"
      },
      {
        "day": "Wednesday",
        "hours": "10 AM to 8 PM"
      },
      {
        "day": "Thursday",
        "hours": "10 AM to 8 PM"
      },
      {
        "day": "Friday",
        "hours": "10 AM to 8 PM"
      },
      {
        "day": "Saturday",
        "hours": "10 AM to 8 PM"
      },
      {
        "day": "Sunday",
        "hours": "10 AM to 5 PM"
      }
    ],
    "imageUrl": "https://media.indianluxurycars.com/google/8c75d0aa8d017057c2e2489733c16b6d3de077a2ceceea0a8c68876b55a182e3.jpg",
    "url": "https://www.google.com/maps/search/?api=1&query=Mahalaxmi%20Motors&query_place_id=ChIJldKmQJmEXjkRoS-mg7MOfWo"
  },
  {
    "title": "Mahem Motors || Best Old Car Dealer, Second Hand Car Sale And Purchase, Pre-owned Car, Affordable Second Hand Cars",
    "categoryName": "Used car dealer",
    "address": "brts bus stand, Krishna Gokul Apartment, C/3, opp. rampir tekra, Chandramauli Society, Bhimjipura, Nava Vadaj, Ahmedabad, Gujarat 380013, India",
    "neighborhood": "Chandramauli Society, Bhimjipura, Nava Vadaj",
    "street": "brts bus stand, Krishna Gokul Apartment, C/3, opp. rampir tekra",
    "city": "Ahmedabad",
    "postalCode": "380013",
    "state": "Gujarat",
    "countryCode": "IN",
    "location": {
      "lat": 23.0609571,
      "lng": 72.5711312
    },
    "totalScore": 4.9,
    "permanentlyClosed": false,
    "temporarilyClosed": false,
    "placeId": "ChIJuebRB42FXjkRjlNgyZgR6qM",
    "categories": [
      "Used car dealer"
    ],
    "reviewsCount": 91,
    "imagesCount": 39,
    "openingHours": [
      {
        "day": "Monday",
        "hours": "9 AM to 9 PM"
      },
      {
        "day": "Tuesday",
        "hours": "9 AM to 9 PM"
      },
      {
        "day": "Wednesday",
        "hours": "9 AM to 9 PM"
      },
      {
        "day": "Thursday",
        "hours": "9 AM to 9 PM"
      },
      {
        "day": "Friday",
        "hours": "9 AM to 9 PM"
      },
      {
        "day": "Saturday",
        "hours": "9 AM to 9 PM"
      },
      {
        "day": "Sunday",
        "hours": "9 AM to 6 PM"
      }
    ],
    "imageUrl": "https://media.indianluxurycars.com/google/0fdfe05e6f128f273119677649b110139292ee9acd8d012bd19921bc37ceac22.jpg",
    "url": "https://www.google.com/maps/search/?api=1&query=Mahem%20Motors%20%7C%7C%20Best%20Old%20Car%20Dealer%2C%20Second%20Hand%20Car%20Sale%20And%20Purchase%2C%20Pre-owned%20Car%2C%20Affordable%20Second%20Hand%20Cars&query_place_id=ChIJuebRB42FXjkRjlNgyZgR6qM"
  },
  {
    "title": "Mahindra Shital Motors - Suv Showroom",
    "subTitle": "શીતલ મોટર્સ",
    "categoryName": "Car dealer",
    "address": "4, Swastik Complex, Navrangpura Police Station Rd, near Sales India, opp. Bata Showroom, Shreyas Colony, Navrangpura, Ahmedabad, Gujarat 380009, India",
    "neighborhood": "Shreyas Colony, Navrangpura",
    "street": "4, Swastik Complex, Navrangpura Police Station Rd, near Sales India, opp. Bata Showroom",
    "city": "Ahmedabad",
    "postalCode": "380009",
    "state": "Gujarat",
    "countryCode": "IN",
    "website": "http://www.shitalmotors.com/outlet/showroom-opp-bata-showroom-nr-ashramroad-police-chowki-ashramroad-ahmedabad.html",
    "phone": "+918448005430",
    "phoneUnformatted": "+918448005430",
    "location": {
      "lat": 23.0362399,
      "lng": 72.5690932
    },
    "totalScore": 4.5,
    "permanentlyClosed": false,
    "temporarilyClosed": false,
    "placeId": "ChIJrTCddV-EXjkRa45Y2Ogd8YY",
    "categories": [
      "Car dealer"
    ],
    "reviewsCount": 724,
    "imagesCount": 260,
    "openingHours": [
      {
        "day": "Monday",
        "hours": "10 AM to 7 PM"
      },
      {
        "day": "Tuesday",
        "hours": "10 AM to 7 PM"
      },
      {
        "day": "Wednesday",
        "hours": "10 AM to 7 PM"
      },
      {
        "day": "Thursday",
        "hours": "10 AM to 7 PM"
      },
      {
        "day": "Friday",
        "hours": "10 AM to 7 PM"
      },
      {
        "day": "Saturday",
        "hours": "10 AM to 7 PM"
      },
      {
        "day": "Sunday",
        "hours": "11 AM to 4 PM"
      }
    ],
    "imageUrl": "https://media.indianluxurycars.com/google/0f8f826b8f73bfd81828fa4ea8cf8a830e4cc9b31d7f100f8ef197c898c7d19d.jpg",
    "url": "https://www.google.com/maps/search/?api=1&query=Mahindra%20Shital%20Motors%20-%20Suv%20Showroom&query_place_id=ChIJrTCddV-EXjkRa45Y2Ogd8YY"
  },
  {
    "title": "MG Motor Concept Motor Showroom",
    "categoryName": "MG dealer",
    "address": "Ground Floor, Ashwamegh Elegance, opposite SBI Zonal Office, H Colony, Ambawadi, Ahmedabad, Gujarat 380015, India",
    "neighborhood": "H Colony, Ambawadi",
    "street": "Ground Floor, Ashwamegh Elegance, opposite SBI Zonal Office",
    "city": "Ahmedabad",
    "postalCode": "380015",
    "state": "Gujarat",
    "countryCode": "IN",
    "website": "https://dealers.mgmotor.co.in/mg-motor-concept-motor-showroom-car-dealer-ambawadi-ahmedabad-371975/Home",
    "phone": "+917229044555",
    "phoneUnformatted": "+917229044555",
    "location": {
      "lat": 23.0222718,
      "lng": 72.5480944
    },
    "totalScore": 4.8,
    "permanentlyClosed": false,
    "temporarilyClosed": false,
    "placeId": "ChIJG5IlA_OFXjkRo3DiR9B2pbM",
    "categories": [
      "MG dealer",
      "Car dealer",
      "Motor vehicle dealer"
    ],
    "reviewsCount": 592,
    "imagesCount": 34,
    "openingHours": [
      {
        "day": "Monday",
        "hours": "10 AM to 7 PM"
      },
      {
        "day": "Tuesday",
        "hours": "10 AM to 7 PM"
      },
      {
        "day": "Wednesday",
        "hours": "10 AM to 7 PM"
      },
      {
        "day": "Thursday",
        "hours": "10 AM to 7 PM"
      },
      {
        "day": "Friday",
        "hours": "10 AM to 7 PM"
      },
      {
        "day": "Saturday",
        "hours": "10 AM to 7 PM"
      },
      {
        "day": "Sunday",
        "hours": "10 AM to 12 AM"
      }
    ],
    "imageUrl": "https://media.indianluxurycars.com/google/4cc15f78ec1c093f39a9dcb0216867202015235876122e7c7be089cda86857a6.jpg",
    "url": "https://www.google.com/maps/search/?api=1&query=MG%20Motor%20Concept%20Motor%20Showroom&query_place_id=ChIJG5IlA_OFXjkRo3DiR9B2pbM"
  },
  {
    "title": "MM MOTORS",
    "categoryName": "Used car dealer",
    "address": "Om Shanti Nagar, Calico Mills, Behrampura, Ahmedabad, Gujarat 380022, India",
    "neighborhood": "Om Shanti Nagar, Calico Mills, Behrampura",
    "city": "Ahmedabad",
    "postalCode": "380022",
    "state": "Gujarat",
    "countryCode": "IN",
    "phone": "+919157408584",
    "phoneUnformatted": "+919157408584",
    "location": {
      "lat": 23.0057324,
      "lng": 72.5787684
    },
    "totalScore": 4.9,
    "permanentlyClosed": false,
    "temporarilyClosed": false,
    "placeId": "ChIJ__CXdb6FXjkRYvDTpcgArjw",
    "categories": [
      "Used car dealer"
    ],
    "reviewsCount": 34,
    "imagesCount": 34,
    "openingHours": [
      {
        "day": "Monday",
        "hours": "10 AM to 9 PM"
      },
      {
        "day": "Tuesday",
        "hours": "10 AM to 9 PM"
      },
      {
        "day": "Wednesday",
        "hours": "10 AM to 9:30 PM"
      },
      {
        "day": "Thursday",
        "hours": "9 AM to 9 PM"
      },
      {
        "day": "Friday",
        "hours": "9 AM to 9 PM"
      },
      {
        "day": "Saturday",
        "hours": "9 AM to 9 PM"
      },
      {
        "day": "Sunday",
        "hours": "9 AM to 9 PM"
      }
    ],
    "imageUrl": "https://media.indianluxurycars.com/google/698e52a401143524bb7dd6c3f5d9e68cb914835df977fe992e4603fa4b4f3c4e.jpg",
    "url": "https://www.google.com/maps/search/?api=1&query=MM%20MOTORS&query_place_id=ChIJ__CXdb6FXjkRYvDTpcgArjw"
  },
  {
    "title": "Mr. Zozo Cabs in Ahmedabad",
    "categoryName": "Car leasing service",
    "address": "char-rasta, near Govind Vadi Road, Vishalnagar, Isanpur, Ahmedabad, Gujarat 380028, India",
    "neighborhood": "Vishalnagar, Isanpur",
    "street": "char-rasta, near Govind Vadi Road",
    "city": "Ahmedabad",
    "postalCode": "380028",
    "state": "Gujarat",
    "countryCode": "IN",
    "website": "http://zozocabs.com/",
    "phone": "+919016391219",
    "phoneUnformatted": "+919016391219",
    "location": {
      "lat": 22.9908017,
      "lng": 72.5927568
    },
    "totalScore": 5,
    "permanentlyClosed": false,
    "temporarilyClosed": false,
    "placeId": "ChIJlyitjYbN_ygR7uKBeyldo2w",
    "categories": [
      "Car leasing service",
      "Taxi service"
    ],
    "reviewsCount": 113,
    "imagesCount": 35,
    "openingHours": [],
    "imageUrl": "https://media.indianluxurycars.com/google/416e94f95662bc710246640b2388ef05d7328f6281a9aa8c5842e43d8f617bb9.jpg",
    "url": "https://www.google.com/maps/search/?api=1&query=Mr.%20Zozo%20Cabs%20in%20Ahmedabad&query_place_id=ChIJlyitjYbN_ygR7uKBeyldo2w"
  },
  {
    "title": "Music Menia Car Decor",
    "subTitle": "મ્યુઝિક મેનિયા કાર ડેકોર",
    "categoryName": "Car stereo store",
    "address": "B-7, Venugopal Complex, Behind Nalanda Hotel, Mithakhali Six Rd, Maharashtra Society, Ellisbridge, Ahmedabad, Gujarat 380006, India",
    "neighborhood": "Maharashtra Society, Ellisbridge",
    "street": "B-7, Venugopal Complex, Behind Nalanda Hotel, Mithakhali Six Rd",
    "city": "Ahmedabad",
    "postalCode": "380006",
    "state": "Gujarat",
    "countryCode": "IN",
    "phone": "+918905339551",
    "phoneUnformatted": "+918905339551",
    "location": {
      "lat": 23.0305543,
      "lng": 72.5638042
    },
    "totalScore": 3.3,
    "permanentlyClosed": false,
    "temporarilyClosed": false,
    "placeId": "ChIJ7UKz4PaEXjkR0OQDS7KX62E",
    "categories": [
      "Car stereo store"
    ],
    "reviewsCount": 23,
    "imagesCount": 3,
    "openingHours": [
      {
        "day": "Monday",
        "hours": "Open 24 hours"
      },
      {
        "day": "Tuesday",
        "hours": "Open 24 hours"
      },
      {
        "day": "Wednesday",
        "hours": "Open 24 hours"
      },
      {
        "day": "Thursday",
        "hours": "Open 24 hours"
      },
      {
        "day": "Friday",
        "hours": "Open 24 hours"
      },
      {
        "day": "Saturday",
        "hours": "Open 24 hours"
      },
      {
        "day": "Sunday",
        "hours": "Open 24 hours"
      }
    ],
    "imageUrl": "https://media.indianluxurycars.com/google/5ffa4884e2d42096ac5ca6779983ab51bc75d4eace53cbe3e5aeb684c458cc1b.jpg",
    "url": "https://www.google.com/maps/search/?api=1&query=Music%20Menia%20Car%20Decor&query_place_id=ChIJ7UKz4PaEXjkR0OQDS7KX62E"
  },
  {
    "title": "Navbharat Tourism Pvt. Ltd.",
    "categoryName": "Car leasing service",
    "address": "Ganesh Plaza, bus stand, 2-3-4, opp. Navrangpura, Shrimali Society, Navrangpura, Ahmedabad, Gujarat 380009, India",
    "neighborhood": "Shrimali Society, Navrangpura",
    "street": "Ganesh Plaza, bus stand, 2-3-4, opp. Navrangpura",
    "city": "Ahmedabad",
    "postalCode": "380009",
    "state": "Gujarat",
    "countryCode": "IN",
    "website": "https://navbharattourism.com/",
    "phone": "+919825804077",
    "phoneUnformatted": "+919825804077",
    "location": {
      "lat": 23.0355741,
      "lng": 72.5631839
    },
    "totalScore": 4.5,
    "permanentlyClosed": false,
    "temporarilyClosed": false,
    "placeId": "ChIJZ7_6YfSEXjkRR4KoptJ6qYk",
    "categories": [
      "Car leasing service",
      "Airline ticket agency",
      "Balloon ride tour agency",
      "Bus tour agency",
      "Travel agency",
      "Helicopter tour agency",
      "SCUBA tour agency",
      "Sightseeing tour agency",
      "Tour agency",
      "Tour operator"
    ],
    "reviewsCount": 844,
    "imagesCount": 1190,
    "openingHours": [
      {
        "day": "Monday",
        "hours": "10 AM to 8 PM"
      },
      {
        "day": "Tuesday",
        "hours": "10 AM to 8 PM"
      },
      {
        "day": "Wednesday",
        "hours": "10 AM to 8 PM"
      },
      {
        "day": "Thursday",
        "hours": "10 AM to 8 PM"
      },
      {
        "day": "Friday",
        "hours": "10 AM to 8 PM"
      },
      {
        "day": "Saturday",
        "hours": "10 AM to 8 PM"
      },
      {
        "day": "Sunday",
        "hours": "11 AM to 2 PM"
      }
    ],
    "imageUrl": "https://media.indianluxurycars.com/google/1dcd9be5a443b513dbe8f64f6c620900ded588d70061d84bd491dcb80ae86cc1.jpg",
    "url": "https://www.google.com/maps/search/?api=1&query=Navbharat%20Tourism%20Pvt.%20Ltd.&query_place_id=ChIJZ7_6YfSEXjkRR4KoptJ6qYk"
  },
  {
    "title": "Navin Motors",
    "subTitle": "નવીન મોટર્સ",
    "categoryName": "Used car dealer",
    "address": "16-20, Ground Floor, Ganesh Complex, opp. Navrang Circle, behind karnavati pagarkha bazar, Naranpura, Ahmedabad, Gujarat 380009, India",
    "neighborhood": "Naranpura",
    "street": "16-20, Ground Floor, Ganesh Complex, opp. Navrang Circle, behind karnavati pagarkha bazar",
    "city": "Ahmedabad",
    "postalCode": "380009",
    "state": "Gujarat",
    "countryCode": "IN",
    "website": "https://www.navinmotors.com/",
    "phone": "+919227643933",
    "phoneUnformatted": "+919227643933",
    "location": {
      "lat": 23.047538,
      "lng": 72.5561267
    },
    "totalScore": 4.8,
    "permanentlyClosed": false,
    "temporarilyClosed": false,
    "placeId": "ChIJVVVVVeyEXjkRtLjlytu3cgk",
    "categories": [
      "Used car dealer",
      "Car dealer"
    ],
    "reviewsCount": 654,
    "imagesCount": 1618,
    "openingHours": [
      {
        "day": "Monday",
        "hours": "9 AM to 8 PM"
      },
      {
        "day": "Tuesday",
        "hours": "9 AM to 8 PM"
      },
      {
        "day": "Wednesday",
        "hours": "9 AM to 8 PM"
      },
      {
        "day": "Thursday",
        "hours": "9 AM to 8 PM"
      },
      {
        "day": "Friday",
        "hours": "9 AM to 8 PM"
      },
      {
        "day": "Saturday",
        "hours": "9 AM to 8 PM"
      },
      {
        "day": "Sunday",
        "hours": "9 AM to 8 PM"
      }
    ],
    "imageUrl": "https://media.indianluxurycars.com/google/fa212085f4c08eb5ba043b66cc588d817289c501fc32b2fd7b98a9c04382280c.jpg",
    "url": "https://www.google.com/maps/search/?api=1&query=Navin%20Motors&query_place_id=ChIJVVVVVeyEXjkRtLjlytu3cgk"
  },
  {
    "title": "Om Car Accessories",
    "categoryName": "Car accessories store",
    "address": "Vasupujya Arcade, 5, Purshottam Mavlankar Marg, Mithakhali, Navrangpura, Ahmedabad, Gujarat 380006, India",
    "neighborhood": "Mithakhali, Navrangpura",
    "street": "Vasupujya Arcade, 5, Purshottam Mavlankar Marg",
    "city": "Ahmedabad",
    "postalCode": "380006",
    "state": "Gujarat",
    "countryCode": "IN",
    "website": "https://www.instagram.com/mk_series_/profilecard/?igsh=aHJna29qcHA4OGRl",
    "phone": "+919825413714",
    "phoneUnformatted": "+919825413714",
    "location": {
      "lat": 23.0294922,
      "lng": 72.5657516
    },
    "totalScore": 4.3,
    "permanentlyClosed": false,
    "temporarilyClosed": false,
    "placeId": "ChIJE8Q_2myFXjkRHEa5hXPu7lo",
    "categories": [
      "Car accessories store"
    ],
    "reviewsCount": 6,
    "imagesCount": 16,
    "openingHours": [
      {
        "day": "Monday",
        "hours": "11 AM to 8:30 PM"
      },
      {
        "day": "Tuesday",
        "hours": "11 AM to 8:30 PM"
      },
      {
        "day": "Wednesday",
        "hours": "11 AM to 8:30 PM"
      },
      {
        "day": "Thursday",
        "hours": "11 AM to 8:30 PM"
      },
      {
        "day": "Friday",
        "hours": "11 AM to 8:30 PM"
      },
      {
        "day": "Saturday",
        "hours": "11 AM to 8:30 PM"
      },
      {
        "day": "Sunday",
        "hours": "11 AM to 3 PM"
      }
    ],
    "imageUrl": "https://media.indianluxurycars.com/google/6509a746e8b90c4385231830cb10a294aadb666bbe12396393aff63bd9635ba8.jpg",
    "url": "https://www.google.com/maps/search/?api=1&query=Om%20Car%20Accessories&query_place_id=ChIJE8Q_2myFXjkRHEa5hXPu7lo"
  },
  {
    "title": "Om Sai Travels 🧳",
    "subTitle": "ઓમ સાંઈ ટ્રાવેલ્સ",
    "categoryName": "Car leasing service",
    "address": "Isanpur Rd, Radhavallabh Colony, Daxini Society, Maninagar, Ahmedabad, Gujarat 380008, India",
    "neighborhood": "Radhavallabh Colony, Daxini Society, Maninagar",
    "street": "Isanpur Rd",
    "city": "Ahmedabad",
    "postalCode": "380008",
    "state": "Gujarat",
    "countryCode": "IN",
    "phone": "+919925835314",
    "phoneUnformatted": "+919925835314",
    "location": {
      "lat": 22.994192,
      "lng": 72.6041087
    },
    "totalScore": 5,
    "permanentlyClosed": false,
    "temporarilyClosed": false,
    "placeId": "ChIJfw2r9eCFXjkRpF2MGlr6914",
    "categories": [
      "Car leasing service"
    ],
    "reviewsCount": 69,
    "imagesCount": 35,
    "openingHours": [
      {
        "day": "Monday",
        "hours": "Open 24 hours"
      },
      {
        "day": "Tuesday",
        "hours": "Open 24 hours"
      },
      {
        "day": "Wednesday",
        "hours": "Open 24 hours"
      },
      {
        "day": "Thursday",
        "hours": "Open 24 hours"
      },
      {
        "day": "Friday",
        "hours": "Open 24 hours"
      },
      {
        "day": "Saturday",
        "hours": "Open 24 hours"
      },
      {
        "day": "Sunday",
        "hours": "Open 24 hours"
      }
    ],
    "imageUrl": "https://media.indianluxurycars.com/google/3e4f186baaf27aa2ed4c4ab66c95138a5ce2a579cf441cc4bea35096b2eb877a.jpg",
    "url": "https://www.google.com/maps/search/?api=1&query=Om%20Sai%20Travels%20%F0%9F%A7%B3&query_place_id=ChIJfw2r9eCFXjkRpF2MGlr6914"
  },
  {
    "title": "PATIDAR AUTO CONSULTANT || Used Car Dealer Naranpura | Second Hand Car Dealer Naranpura | Pre-owned Car Dealer In Naranpura",
    "categoryName": "Used car dealer",
    "address": "Pushpanjali Complex, B-6, near D.K. Patel Hall, Ranjan Society, Sardar Patel Colony, Sundar Nagar, Naranpura, Ahmedabad, Gujarat 380013, India",
    "neighborhood": "Ranjan Society, Sardar Patel Colony, Sundar Nagar, Naranpura",
    "street": "Pushpanjali Complex, B-6, near D.K. Patel Hall",
    "city": "Ahmedabad",
    "postalCode": "380013",
    "state": "Gujarat",
    "countryCode": "IN",
    "phone": "+919913711122",
    "phoneUnformatted": "+919913711122",
    "location": {
      "lat": 23.0492259,
      "lng": 72.5567312
    },
    "totalScore": 4.3,
    "permanentlyClosed": false,
    "temporarilyClosed": false,
    "placeId": "ChIJ____P_WEXjkRGJtyf3FHO5k",
    "categories": [
      "Used car dealer"
    ],
    "reviewsCount": 99,
    "imagesCount": 57,
    "openingHours": [
      {
        "day": "Monday",
        "hours": "9 AM to 7 PM"
      },
      {
        "day": "Tuesday",
        "hours": "9 AM to 8 PM"
      },
      {
        "day": "Wednesday",
        "hours": "9 AM to 8 PM"
      },
      {
        "day": "Thursday",
        "hours": "9 AM to 8 PM"
      },
      {
        "day": "Friday",
        "hours": "9 AM to 8 PM"
      },
      {
        "day": "Saturday",
        "hours": "9 AM to 8 PM"
      },
      {
        "day": "Sunday",
        "hours": "10 AM to 5 PM"
      }
    ],
    "imageUrl": "https://media.indianluxurycars.com/google/eccd32043efeac79d2ac0d43d638150d619349b3ef681c16bf4d20df5d3b366b.jpg",
    "url": "https://www.google.com/maps/search/?api=1&query=PATIDAR%20AUTO%20CONSULTANT%20%7C%7C%20Used%20Car%20Dealer%20Naranpura%20%7C%20Second%20Hand%20Car%20Dealer%20Naranpura%20%7C%20Pre-owned%20Car%20Dealer%20In%20Naranpura&query_place_id=ChIJ____P_WEXjkRGJtyf3FHO5k"
  },
  {
    "title": "Platinum Cars",
    "subTitle": "પ્લેટિનમ કાર્સ",
    "categoryName": "Used car dealer",
    "address": "jariwala park Society commece 6 rd, Ahmedabad, Gujarat 380009, India",
    "neighborhood": "Girivar Society, Navrangpura",
    "street": "jariwala park Society commece 6 rd",
    "city": "Ahmedabad",
    "postalCode": "380009",
    "state": "Gujarat",
    "countryCode": "IN",
    "phone": "+916359608042",
    "phoneUnformatted": "+916359608042",
    "location": {
      "lat": 23.0409595,
      "lng": 72.5550038
    },
    "totalScore": 3.9,
    "permanentlyClosed": false,
    "temporarilyClosed": false,
    "placeId": "ChIJtWM1ZJKEXjkR8XjcAMEH5JE",
    "categories": [
      "Used car dealer"
    ],
    "reviewsCount": 108,
    "imagesCount": 86,
    "openingHours": [
      {
        "day": "Monday",
        "hours": "9:30 AM to 8 PM"
      },
      {
        "day": "Tuesday",
        "hours": "9:30 AM to 8 PM"
      },
      {
        "day": "Wednesday",
        "hours": "9:30 AM to 8 PM"
      },
      {
        "day": "Thursday",
        "hours": "9:30 AM to 8 PM"
      },
      {
        "day": "Friday",
        "hours": "9:30 AM to 8 PM"
      },
      {
        "day": "Saturday",
        "hours": "9:30 AM to 8 PM"
      },
      {
        "day": "Sunday",
        "hours": "9:30 AM to 8 PM"
      }
    ],
    "imageUrl": "https://media.indianluxurycars.com/google/e2065fa66530fda84ffb5fd5da28807b4b4d0d084d04176b8c2b0a1bcb2138b5.jpg",
    "url": "https://www.google.com/maps/search/?api=1&query=Platinum%20Cars&query_place_id=ChIJtWM1ZJKEXjkR8XjcAMEH5JE"
  },
  {
    "title": "PRAVVAS",
    "subTitle": "પ્રવ્વાસ",
    "categoryName": "Car rental agency",
    "address": "1309, Dynasty Stadium Five Cross Road, Chimanlal Girdharlal Rd, Ahmedabad, Gujarat 380009, India",
    "neighborhood": "Swastik Society, Navrangpura",
    "street": "1309, Dynasty Stadium Five Cross Road, Chimanlal Girdharlal Rd",
    "city": "Ahmedabad",
    "postalCode": "380009",
    "state": "Gujarat",
    "countryCode": "IN",
    "website": "https://pravvas.world/",
    "phone": "+917573076366",
    "phoneUnformatted": "+917573076366",
    "location": {
      "lat": 23.0388724,
      "lng": 72.563492
    },
    "totalScore": 4.7,
    "permanentlyClosed": false,
    "temporarilyClosed": false,
    "placeId": "ChIJKXm3avOEXjkRGtbYvFVRDrk",
    "categories": [
      "Car rental agency",
      "Airline ticket agency",
      "Bus tour agency",
      "Car leasing service",
      "Tour operator",
      "Taxi service",
      "Tour agency",
      "Visa consulting service",
      "Wildlife and safari park"
    ],
    "reviewsCount": 108,
    "imagesCount": 65,
    "openingHours": [
      {
        "day": "Monday",
        "hours": "10 AM to 7 PM"
      },
      {
        "day": "Tuesday",
        "hours": "10 AM to 7 PM"
      },
      {
        "day": "Wednesday",
        "hours": "10 AM to 7 PM"
      },
      {
        "day": "Thursday",
        "hours": "10 AM to 7 PM"
      },
      {
        "day": "Friday",
        "hours": "10 AM to 7 PM"
      },
      {
        "day": "Saturday",
        "hours": "10 AM to 7 PM"
      },
      {
        "day": "Sunday",
        "hours": "Closed"
      }
    ],
    "imageUrl": "https://media.indianluxurycars.com/google/b4aae0f3ac1457ae992952542b9b93ea848b32acdba10ed63775a13841f1476c.jpg",
    "url": "https://www.google.com/maps/search/?api=1&query=PRAVVAS&query_place_id=ChIJKXm3avOEXjkRGtbYvFVRDrk"
  },
  {
    "title": "R TRAVELS",
    "categoryName": "Car rental agency",
    "address": "719/Taxiwala apt, near alankar motor driving school Gaikwad Haveli, Gujarat 380001, India",
    "neighborhood": "Old City, Raikhad",
    "street": "719/Taxiwala apt, near alankar motor driving school Gaikwad Haveli",
    "city": "Ahmedabad",
    "postalCode": "380001",
    "state": "Gujarat",
    "countryCode": "IN",
    "website": "https://rtravels.in/",
    "location": {
      "lat": 23.015239,
      "lng": 72.579988
    },
    "totalScore": 5,
    "permanentlyClosed": false,
    "temporarilyClosed": false,
    "placeId": "ChIJm11n---FXjkRZww-BvZtn6s",
    "categories": [
      "Car rental agency",
      "Car leasing service",
      "Travel agency",
      "Minibus taxi service",
      "Tour operator"
    ],
    "reviewsCount": 27,
    "imagesCount": 22,
    "openingHours": [
      {
        "day": "Monday",
        "hours": "Open 24 hours"
      },
      {
        "day": "Tuesday",
        "hours": "Open 24 hours"
      },
      {
        "day": "Wednesday",
        "hours": "Open 24 hours"
      },
      {
        "day": "Thursday",
        "hours": "Open 24 hours"
      },
      {
        "day": "Friday",
        "hours": "Open 24 hours"
      },
      {
        "day": "Saturday",
        "hours": "Open 24 hours"
      },
      {
        "day": "Sunday",
        "hours": "Open 24 hours"
      }
    ],
    "imageUrl": "https://media.indianluxurycars.com/google/f36440a4f3c0dcc7064d870e068b7dfb12fe59bfd0ccdfd3fce6b423afe04bb8.jpg",
    "url": "https://www.google.com/maps/search/?api=1&query=R%20TRAVELS&query_place_id=ChIJm11n---FXjkRZww-BvZtn6s"
  },
  {
    "title": "Raj Motors - Raj Wedding Cars | Jeeps & Vintage Car on Rent in Ahmedabad",
    "categoryName": "Car leasing service",
    "address": "D-21, Vima Davakhana, Opp, State Bank Road, nr. Feloship Society, Dhobi Ghat, Kailash Nagar, Bapunagar, Ahmedabad, Gujarat 380024, India",
    "neighborhood": "Dhobi Ghat, Kailash Nagar, Bapunagar",
    "street": "D-21, Vima Davakhana, Opp, State Bank Road, nr. Feloship Society",
    "city": "Ahmedabad",
    "postalCode": "380024",
    "state": "Gujarat",
    "countryCode": "IN",
    "website": "https://www.instagram.com/raj_wedding_cars/",
    "phone": "+919825532176",
    "phoneUnformatted": "+919825532176",
    "location": {
      "lat": 23.0309957,
      "lng": 72.6194707
    },
    "totalScore": 5,
    "permanentlyClosed": false,
    "temporarilyClosed": false,
    "placeId": "ChIJqx0eXMGHXjkRmYW_fhPkXOE",
    "categories": [
      "Car leasing service",
      "Car wash",
      "Parking garage",
      "RV repair shop"
    ],
    "reviewsCount": 12,
    "imagesCount": 1,
    "openingHours": [
      {
        "day": "Monday",
        "hours": "9 AM to 9 PM"
      },
      {
        "day": "Tuesday",
        "hours": "9 AM to 9 PM"
      },
      {
        "day": "Wednesday",
        "hours": "9 AM to 9 PM"
      },
      {
        "day": "Thursday",
        "hours": "9 AM to 9 PM"
      },
      {
        "day": "Friday",
        "hours": "9 AM to 9 PM"
      },
      {
        "day": "Saturday",
        "hours": "9 AM to 9 PM"
      },
      {
        "day": "Sunday",
        "hours": "9 AM to 9 PM"
      }
    ],
    "imageUrl": "https://media.indianluxurycars.com/google/05865e55df1c37d32a1ed84340f130972fa4f19db1ed7b7437d9fae09c3fe59d.jpg",
    "url": "https://www.google.com/maps/search/?api=1&query=Raj%20Motors%20-%20Raj%20Wedding%20Cars%20%7C%20Jeeps%20%26%20Vintage%20Car%20on%20Rent%20in%20Ahmedabad&query_place_id=ChIJqx0eXMGHXjkRmYW_fhPkXOE"
  },
  {
    "title": "Rameshwar Auto Consult",
    "subTitle": "રામેશ્વર ઓટો સલાહ",
    "categoryName": "Car dealer",
    "address": "Rameshwar Auto Consult 8,Arjun Elegance, Near, Pujya Ravi Shankar Maharaj Fly Overbridge, opp. Bhagirath Society, Naranpura, Ahmedabad, Gujarat 380052, India",
    "neighborhood": "Naranpura",
    "street": "Rameshwar Auto Consult 8,Arjun Elegance, Near, Pujya Ravi Shankar Maharaj Fly Overbridge, opp. Bhagirath Society",
    "city": "Ahmedabad",
    "postalCode": "380052",
    "state": "Gujarat",
    "countryCode": "IN",
    "website": "http://rameshwarautoconsult.com/",
    "phone": "+919979916529",
    "phoneUnformatted": "+919979916529",
    "location": {
      "lat": 23.0522767,
      "lng": 72.5450935
    },
    "totalScore": 4.6,
    "permanentlyClosed": false,
    "temporarilyClosed": false,
    "placeId": "ChIJt8GLV4WEXjkRPtY-JZdQFCU",
    "categories": [
      "Car dealer"
    ],
    "reviewsCount": 44,
    "imagesCount": 26,
    "openingHours": [
      {
        "day": "Monday",
        "hours": "10 AM to 7 PM"
      },
      {
        "day": "Tuesday",
        "hours": "10 AM to 7 PM"
      },
      {
        "day": "Wednesday",
        "hours": "10 AM to 7 PM"
      },
      {
        "day": "Thursday",
        "hours": "10 AM to 7 PM"
      },
      {
        "day": "Friday",
        "hours": "10 AM to 7 PM"
      },
      {
        "day": "Saturday",
        "hours": "10 AM to 7 PM"
      },
      {
        "day": "Sunday",
        "hours": "10 AM to 7 PM"
      }
    ],
    "imageUrl": "https://media.indianluxurycars.com/google/216c83b328bd9a366f294f7b382b56a4356011baa8090b092eaab66e4b15c3cf.jpg",
    "url": "https://www.google.com/maps/search/?api=1&query=Rameshwar%20Auto%20Consult&query_place_id=ChIJt8GLV4WEXjkRPtY-JZdQFCU"
  },
  {
    "title": "Ravi Motors",
    "subTitle": "રવિ મોટર્સ",
    "categoryName": "Car dealer",
    "address": "shop no 1/C, Blue Heaven comlex, opp. Meghalay Flats, near Sardar patel colony, Naranpura, Ahmedabad, Gujarat 380009, India",
    "neighborhood": "Shantiniketan Society, Sardar Patel Colony, Sundar Nagar, Naranpura",
    "street": "shop no 1/C, Blue Heaven comlex, opp. Meghalay Flats, near Sardar patel colony",
    "city": "Ahmedabad",
    "postalCode": "380009",
    "state": "Gujarat",
    "countryCode": "IN",
    "website": "http://www.ravimotors.com/",
    "phone": "+919825039080",
    "phoneUnformatted": "+919825039080",
    "location": {
      "lat": 23.0477259,
      "lng": 72.5587766
    },
    "totalScore": 4.4,
    "permanentlyClosed": false,
    "temporarilyClosed": false,
    "placeId": "ChIJq6qqqp2EXjkR1dMfxpnNv04",
    "categories": [
      "Car dealer",
      "Used car dealer"
    ],
    "reviewsCount": 44,
    "imagesCount": 7,
    "openingHours": [
      {
        "day": "Monday",
        "hours": "9 AM to 8 PM"
      },
      {
        "day": "Tuesday",
        "hours": "9 AM to 8 PM"
      },
      {
        "day": "Wednesday",
        "hours": "9 AM to 8 PM"
      },
      {
        "day": "Thursday",
        "hours": "9 AM to 8 PM"
      },
      {
        "day": "Friday",
        "hours": "9 AM to 8 PM"
      },
      {
        "day": "Saturday",
        "hours": "9 AM to 8 PM"
      },
      {
        "day": "Sunday",
        "hours": "9 AM to 8 PM"
      }
    ],
    "imageUrl": "https://media.indianluxurycars.com/google/5225b62a502815fc8ec2f6b9689678be13e5a1aaf2e354ea8caf59811b8a4cbd.jpg",
    "url": "https://www.google.com/maps/search/?api=1&query=Ravi%20Motors&query_place_id=ChIJq6qqqp2EXjkR1dMfxpnNv04"
  },
  {
    "title": "Real Car Consultancy",
    "subTitle": "રીયલ કાર કન્સલ્ટન્સી",
    "categoryName": "Used car dealer",
    "address": "3H2J+HVG, Dudeshwar Road, opp. Water Tank, Ahmedabad, Gujarat 380004, India",
    "neighborhood": "Dudheshwar",
    "street": "3H2J+HVG, Dudeshwar Road, opp. Water Tank",
    "city": "Ahmedabad",
    "postalCode": "380004",
    "state": "Gujarat",
    "countryCode": "IN",
    "phone": "+919898767373",
    "phoneUnformatted": "+919898767373",
    "location": {
      "lat": 23.0514404,
      "lng": 72.5822008
    },
    "totalScore": 4.2,
    "permanentlyClosed": false,
    "temporarilyClosed": false,
    "placeId": "ChIJg3gIzm-EXjkR38GlxGceMhg",
    "categories": [
      "Used car dealer"
    ],
    "reviewsCount": 82,
    "imagesCount": 42,
    "openingHours": [
      {
        "day": "Monday",
        "hours": "9 AM to 8 PM"
      },
      {
        "day": "Tuesday",
        "hours": "9 AM to 8 PM"
      },
      {
        "day": "Wednesday",
        "hours": "9 AM to 8 PM"
      },
      {
        "day": "Thursday",
        "hours": "9 AM to 8 PM"
      },
      {
        "day": "Friday",
        "hours": "9 AM to 8 PM"
      },
      {
        "day": "Saturday",
        "hours": "Closed"
      },
      {
        "day": "Sunday",
        "hours": "9 AM to 8 PM"
      }
    ],
    "imageUrl": "https://media.indianluxurycars.com/google/8d36229a34b05da87576c030dc427f939d9e7e60f4b28e75f61345ae08cf5683.jpg",
    "url": "https://www.google.com/maps/search/?api=1&query=Real%20Car%20Consultancy&query_place_id=ChIJg3gIzm-EXjkR38GlxGceMhg"
  },
  {
    "title": "Shakti Travels",
    "subTitle": "શક્તિ ટ્રાવેલ્સ",
    "categoryName": "Car rental agency",
    "address": "5, Manorama Complex, Opposite Himmatlal Park, 132 Feet Ring Road, Vastrapur, Satellite, Ahmedabad, Gujarat 380015, India",
    "neighborhood": "Vidhya Nagar, I I M, Vastrapur",
    "street": "5, Manorama Complex, Opposite Himmatlal Park, 132 Feet Ring Road, Vastrapur, Satellite",
    "city": "Ahmedabad",
    "postalCode": "380015",
    "state": "Gujarat",
    "countryCode": "IN",
    "website": "http://mahasagartravels.com/",
    "phone": "+917926751709",
    "phoneUnformatted": "+917926751709",
    "location": {
      "lat": 23.0305631,
      "lng": 72.5325607
    },
    "totalScore": 4.1,
    "permanentlyClosed": false,
    "temporarilyClosed": true,
    "placeId": "ChIJpRKbHcaEXjkRD6r1Vp4O3yE",
    "categories": [
      "Car rental agency",
      "Travel agency"
    ],
    "reviewsCount": 169,
    "imagesCount": 9,
    "openingHours": [],
    "imageUrl": "https://media.indianluxurycars.com/google/9681defb63735b3a3e0032f50bd1991f0361125478a4b5e46f87ab0e2c20afee.jpg",
    "url": "https://www.google.com/maps/search/?api=1&query=Shakti%20Travels&query_place_id=ChIJpRKbHcaEXjkRD6r1Vp4O3yE"
  },
  {
    "title": "Sheetal Tours and Travels",
    "categoryName": "Car rental agency",
    "address": "Sejal Apartment, 1/14, opposite mutthut finance, near lic office, Bhagirath Society, Pravinnagar, Vasna, Ahmedabad, Gujarat 380007, India",
    "neighborhood": "Bhagirath Society, Pravinnagar, Vasna",
    "street": "Sejal Apartment, 1/14, opposite mutthut finance, near lic office",
    "city": "Ahmedabad",
    "postalCode": "380007",
    "state": "Gujarat",
    "countryCode": "IN",
    "website": "http://www.sheetaltoursandtravels.com/",
    "phone": "+919624496244",
    "phoneUnformatted": "+919624496244",
    "location": {
      "lat": 23.003357,
      "lng": 72.5471714
    },
    "totalScore": 4.9,
    "permanentlyClosed": false,
    "temporarilyClosed": false,
    "placeId": "ChIJ_Vgh1hmFXjkRMXXGPQzIxB4",
    "categories": [
      "Car rental agency",
      "Car leasing service",
      "Taxi service",
      "Travel agency"
    ],
    "reviewsCount": 48,
    "imagesCount": 26,
    "openingHours": [
      {
        "day": "Monday",
        "hours": "Open 24 hours"
      },
      {
        "day": "Tuesday",
        "hours": "Open 24 hours"
      },
      {
        "day": "Wednesday",
        "hours": "Open 24 hours"
      },
      {
        "day": "Thursday",
        "hours": "Open 24 hours"
      },
      {
        "day": "Friday",
        "hours": "Open 24 hours"
      },
      {
        "day": "Saturday",
        "hours": "Open 24 hours"
      },
      {
        "day": "Sunday",
        "hours": "Open 24 hours"
      }
    ],
    "imageUrl": "https://media.indianluxurycars.com/google/f167c98fa3dfb24f3bb6e72f5303cae4ca24777363896f3ed34f443e278ab78d.jpg",
    "url": "https://www.google.com/maps/search/?api=1&query=Sheetal%20Tours%20and%20Travels&query_place_id=ChIJ_Vgh1hmFXjkRMXXGPQzIxB4"
  },
  {
    "title": "Shiv Shakti Tours & Travels | Luxury Wedding Cars & Airport Taxi Service",
    "categoryName": "Car rental agency",
    "address": "Madhupura, Police Line Rd, Shahibag, Ahmedabad, Gujarat 380004, India",
    "neighborhood": "Shahibag",
    "street": "Madhupura, Police Line Rd",
    "city": "Ahmedabad",
    "postalCode": "380004",
    "state": "Gujarat",
    "countryCode": "IN",
    "location": {
      "lat": 23.0552215,
      "lng": 72.5938983
    },
    "totalScore": 5,
    "permanentlyClosed": false,
    "temporarilyClosed": false,
    "placeId": "ChIJKScQKGuFXjkRKkF9uCPv8QQ",
    "categories": [
      "Car rental agency"
    ],
    "reviewsCount": 7,
    "imagesCount": 74,
    "openingHours": [
      {
        "day": "Monday",
        "hours": "Open 24 hours"
      },
      {
        "day": "Tuesday",
        "hours": "Open 24 hours"
      },
      {
        "day": "Wednesday",
        "hours": "Open 24 hours"
      },
      {
        "day": "Thursday",
        "hours": "Open 24 hours"
      },
      {
        "day": "Friday",
        "hours": "Open 24 hours"
      },
      {
        "day": "Saturday",
        "hours": "Open 24 hours"
      },
      {
        "day": "Sunday",
        "hours": "Open 24 hours"
      }
    ],
    "imageUrl": "https://media.indianluxurycars.com/google/4972957f21a43daf307a13d40fa94ae18edecaef2a87cb64de7092a23e84849a.png",
    "url": "https://www.google.com/maps/search/?api=1&query=Shiv%20Shakti%20Tours%20%26%20Travels%20%7C%20Luxury%20Wedding%20Cars%20%26%20Airport%20Taxi%20Service&query_place_id=ChIJKScQKGuFXjkRKkF9uCPv8QQ"
  },
  {
    "title": "SHIVAJI TRAVELS",
    "categoryName": "Car rental agency",
    "address": "Jivan Master Chawl, 20FF, New, Civil Rd, Jahangirpura, Asarwa, Ahmedabad, Gujarat 380016, India",
    "neighborhood": "Jahangirpura, Asarwa",
    "street": "Jivan Master Chawl, 20FF, New, Civil Rd",
    "city": "Ahmedabad",
    "postalCode": "380016",
    "state": "Gujarat",
    "countryCode": "IN",
    "website": "https://wa.me/9712118295",
    "phone": "+919712118295",
    "phoneUnformatted": "+919712118295",
    "location": {
      "lat": 23.0480918,
      "lng": 72.6018034
    },
    "totalScore": 5,
    "permanentlyClosed": false,
    "temporarilyClosed": false,
    "placeId": "ChIJc5VXJQiFXjkR01A7o_lZN2E",
    "categories": [
      "Car rental agency",
      "Airport shuttle service",
      "Taxi service",
      "Limousine service",
      "Transportation service"
    ],
    "reviewsCount": 7,
    "imagesCount": 34,
    "openingHours": [],
    "imageUrl": "https://media.indianluxurycars.com/google/edd3e5dfdf89933988c967b364cfc80042092faaff4b279d44ba7f5bbc7fd1f4.jpg",
    "url": "https://www.google.com/maps/search/?api=1&query=SHIVAJI%20TRAVELS&query_place_id=ChIJc5VXJQiFXjkR01A7o_lZN2E"
  },
  {
    "title": "Shivam Automall – Car Detailing & Best Car Accessories Store Ahmedabad",
    "categoryName": "Car accessories store",
    "address": "Ground Floor, Khushbu Xerox Gali, Amit Enclave, opp. Shagun complex, Swastik Society, Navrangpura, Ahmedabad, Gujarat 380009, India",
    "neighborhood": "Swastik Society, Navrangpura",
    "street": "Ground Floor, Khushbu Xerox Gali, Amit Enclave, opp. Shagun complex",
    "city": "Ahmedabad",
    "postalCode": "380009",
    "state": "Gujarat",
    "countryCode": "IN",
    "website": "https://best-car-accessories.grexa.site/",
    "phone": "+919825971810",
    "phoneUnformatted": "+919825971810",
    "location": {
      "lat": 23.0386951,
      "lng": 72.5596033
    },
    "totalScore": 4.7,
    "permanentlyClosed": false,
    "temporarilyClosed": false,
    "placeId": "ChIJFVB8B5CbXjkRP4_Y4j9G2os",
    "categories": [
      "Car accessories store",
      "Auto accessories wholesaler",
      "Auto care products store",
      "Auto restoration service",
      "Auto window tinting service",
      "Car stereo store",
      "Window tinting service"
    ],
    "reviewsCount": 357,
    "imagesCount": 335,
    "openingHours": [
      {
        "day": "Monday",
        "hours": "10:30 AM to 7:30 PM"
      },
      {
        "day": "Tuesday",
        "hours": "10:30 AM to 7:30 PM"
      },
      {
        "day": "Wednesday",
        "hours": "10:30 AM to 7:30 PM"
      },
      {
        "day": "Thursday",
        "hours": "10:30 AM to 7:30 PM"
      },
      {
        "day": "Friday",
        "hours": "10:30 AM to 7:30 PM"
      },
      {
        "day": "Saturday",
        "hours": "10:30 AM to 7:30 PM"
      },
      {
        "day": "Sunday",
        "hours": "11 AM to 4 PM"
      }
    ],
    "imageUrl": "https://media.indianluxurycars.com/google/90a6575443578438cd782bfa0ff525305ca0dc51748be6492aa6c0bda88a6a41.jpg",
    "url": "https://www.google.com/maps/search/?api=1&query=Shivam%20Automall%20%E2%80%93%20Car%20Detailing%20%26%20Best%20Car%20Accessories%20Store%20Ahmedabad&query_place_id=ChIJFVB8B5CbXjkRP4_Y4j9G2os"
  },
  {
    "title": "Shree GK Motors",
    "subTitle": "શ્રી જીકે મોટર્સ",
    "categoryName": "Car accessories store",
    "address": "G/5, City Pride Complex, Mithakhali Six Rd, behind Nalanda Hotel, Maharashtra Society, Ellisbridge, Ahmedabad, Gujarat 380006, India",
    "neighborhood": "Maharashtra Society, Ellisbridge",
    "street": "G/5, City Pride Complex, Mithakhali Six Rd, behind Nalanda Hotel",
    "city": "Ahmedabad",
    "postalCode": "380006",
    "state": "Gujarat",
    "countryCode": "IN",
    "phone": "+919825038589",
    "phoneUnformatted": "+919825038589",
    "location": {
      "lat": 23.030306,
      "lng": 72.563998
    },
    "totalScore": 4.8,
    "permanentlyClosed": false,
    "temporarilyClosed": false,
    "placeId": "ChIJw2lm4_aEXjkRgD4D3tiFph4",
    "categories": [
      "Car accessories store",
      "Auto accessories wholesaler",
      "Auto air conditioning service",
      "Auto dent removal service",
      "Auto glass repair service",
      "Auto painting",
      "Car stereo store",
      "Car wash",
      "Manufacturer",
      "Seat dealer"
    ],
    "reviewsCount": 43,
    "imagesCount": 41,
    "openingHours": [
      {
        "day": "Monday",
        "hours": "10 AM to 8 PM"
      },
      {
        "day": "Tuesday",
        "hours": "10 AM to 8 PM"
      },
      {
        "day": "Wednesday",
        "hours": "10 AM to 8 PM"
      },
      {
        "day": "Thursday",
        "hours": "10 AM to 8 PM"
      },
      {
        "day": "Friday",
        "hours": "10 AM to 8 PM"
      },
      {
        "day": "Saturday",
        "hours": "10 AM to 8 PM"
      },
      {
        "day": "Sunday",
        "hours": "10 AM to 3 PM"
      }
    ],
    "imageUrl": "https://media.indianluxurycars.com/google/f523cbb334549b177d94bdee8d889f535a7d883abddbd054432d1527bfb7e602.jpg",
    "url": "https://www.google.com/maps/search/?api=1&query=Shree%20GK%20Motors&query_place_id=ChIJw2lm4_aEXjkRgD4D3tiFph4"
  },
  {
    "title": "SHREE TRAVELS & TAXI SERVICE",
    "categoryName": "Car rental agency",
    "address": "Kirtimandir Society, Nr. Chandranagar, Opposite Jaymin Appts, BRTS, Gujarat 380007, India",
    "neighborhood": "Narayan Nagar",
    "street": "Kirtimandir Society, Nr. Chandranagar, Opposite Jaymin Appts, BRTS",
    "city": "Ahmedabad",
    "postalCode": "380007",
    "state": "Gujarat",
    "countryCode": "IN",
    "phone": "+919558117830",
    "phoneUnformatted": "+919558117830",
    "location": {
      "lat": 23.0007407,
      "lng": 72.556067
    },
    "totalScore": 4.9,
    "permanentlyClosed": false,
    "temporarilyClosed": false,
    "placeId": "ChIJJfg8ah-FXjkRKvQzjAs8HLE",
    "categories": [
      "Car rental agency",
      "Taxi service"
    ],
    "reviewsCount": 8,
    "imagesCount": 34,
    "openingHours": [
      {
        "day": "Monday",
        "hours": "Open 24 hours"
      },
      {
        "day": "Tuesday",
        "hours": "Open 24 hours"
      },
      {
        "day": "Wednesday",
        "hours": "Open 24 hours"
      },
      {
        "day": "Thursday",
        "hours": "Open 24 hours"
      },
      {
        "day": "Friday",
        "hours": "Open 24 hours"
      },
      {
        "day": "Saturday",
        "hours": "Open 24 hours"
      },
      {
        "day": "Sunday",
        "hours": "Open 24 hours"
      }
    ],
    "imageUrl": "https://media.indianluxurycars.com/google/a66f10c1ba12f189a6404d0fda47cf980017143982a1b810516cad0dbe22da49.jpg",
    "url": "https://www.google.com/maps/search/?api=1&query=SHREE%20TRAVELS%20%26%20TAXI%20SERVICE&query_place_id=ChIJJfg8ah-FXjkRKvQzjAs8HLE"
  },
  {
    "title": "SHUBHAM GENUINE CARS",
    "categoryName": "Used car dealer",
    "address": "6, 2HW3+MRJ Shanta Sagar Complex, Darpan Six Rd, nr. Navrang Circle, Sarvottam Nagar Society, Navrangpura, Ahmedabad, Gujarat 380009, India",
    "neighborhood": "Sarvottam Nagar Society, Navrangpura",
    "street": "6, 2HW3+MRJ Shanta Sagar Complex, Darpan Six Rd, nr. Navrang Circle",
    "city": "Ahmedabad",
    "postalCode": "380009",
    "state": "Gujarat",
    "countryCode": "IN",
    "website": "https://www.subhamgenuinecars.com/",
    "phone": "+918128820235",
    "phoneUnformatted": "+918128820235",
    "location": {
      "lat": 23.0466935,
      "lng": 72.5546026
    },
    "totalScore": 4.7,
    "permanentlyClosed": false,
    "temporarilyClosed": false,
    "placeId": "ChIJ8zTbhFeFXjkRTnDYm9AerlA",
    "categories": [
      "Used car dealer",
      "Car dealer"
    ],
    "reviewsCount": 26,
    "imagesCount": 11,
    "openingHours": [
      {
        "day": "Monday",
        "hours": "10 AM to 7:30 PM"
      },
      {
        "day": "Tuesday",
        "hours": "10 AM to 7:30 PM"
      },
      {
        "day": "Wednesday",
        "hours": "10 AM to 7:30 PM"
      },
      {
        "day": "Thursday",
        "hours": "10 AM to 7:30 PM"
      },
      {
        "day": "Friday",
        "hours": "10 AM to 7:30 PM"
      },
      {
        "day": "Saturday",
        "hours": "10 AM to 7:30 PM"
      },
      {
        "day": "Sunday",
        "hours": "10 AM to 7:30 PM"
      }
    ],
    "imageUrl": "https://media.indianluxurycars.com/google/d2103ba4a0cbbd6462d77e21c4f4fa946a396fdfa4d95bd38738ff7a88ebf125.jpg",
    "url": "https://www.google.com/maps/search/?api=1&query=SHUBHAM%20GENUINE%20CARS&query_place_id=ChIJ8zTbhFeFXjkRTnDYm9AerlA"
  },
  {
    "title": "Tata Motors Limited",
    "subTitle": "ટાટા મોટર્સ લિમિટેડ",
    "categoryName": "Car dealer",
    "address": "Rustom Cama Marg, Old City, Lal Darwaja, Ahmedabad, Gujarat 380001, India",
    "neighborhood": "Old City, Lal Darwaja",
    "street": "Rustom Cama Marg",
    "city": "Ahmedabad",
    "postalCode": "380001",
    "state": "Gujarat",
    "countryCode": "IN",
    "website": "https://www.tatamotors.com/",
    "phone": "+917925505165",
    "phoneUnformatted": "+917925505165",
    "location": {
      "lat": 23.0277308,
      "lng": 72.5794608
    },
    "totalScore": 3.8,
    "permanentlyClosed": false,
    "temporarilyClosed": false,
    "placeId": "ChIJ4WzhFVCEXjkRS-rhm6dAEQo",
    "categories": [
      "Car dealer"
    ],
    "reviewsCount": 190,
    "imagesCount": 21,
    "openingHours": [
      {
        "day": "Monday",
        "hours": "9:30 AM to 6:30 PM"
      },
      {
        "day": "Tuesday",
        "hours": "9:30 AM to 6:30 PM"
      },
      {
        "day": "Wednesday",
        "hours": "9:30 AM to 6:30 PM"
      },
      {
        "day": "Thursday",
        "hours": "9:30 AM to 6:30 PM"
      },
      {
        "day": "Friday",
        "hours": "9:30 AM to 6:30 PM"
      },
      {
        "day": "Saturday",
        "hours": "9:30 AM to 6:30 PM"
      },
      {
        "day": "Sunday",
        "hours": "Closed"
      }
    ],
    "imageUrl": "https://media.indianluxurycars.com/google/900bfe8db88ea42d20786847ddf83413fc357f67e091ecfc45b0aaf13ab79770.jpg",
    "url": "https://www.google.com/maps/search/?api=1&query=Tata%20Motors%20Limited&query_place_id=ChIJ4WzhFVCEXjkRS-rhm6dAEQo"
  },
  {
    "title": "Taxi services Ahmedabad",
    "subTitle": "ટેક્સી સર્વિસીસ અહમદાબાદ",
    "categoryName": "Car rental agency",
    "address": "Sf, 202 maskane burhani, opp, Saiyedwada, Khanpur, Ahmedabad, Gujarat 380001, India",
    "neighborhood": "Old City, Saiyedwada, Khanpur",
    "street": "Sf, 202 maskane burhani, opp",
    "city": "Ahmedabad",
    "postalCode": "380001",
    "state": "Gujarat",
    "countryCode": "IN",
    "website": "http://www.taxiservicesahmedabad.com/",
    "phone": "+919925790101",
    "phoneUnformatted": "+919925790101",
    "location": {
      "lat": 23.0289061,
      "lng": 72.5790777
    },
    "totalScore": 4.7,
    "permanentlyClosed": false,
    "temporarilyClosed": false,
    "placeId": "ChIJ29k5Y2SFXjkR1gay0b_t7fk",
    "categories": [
      "Car rental agency",
      "Car leasing service",
      "Taxi service",
      "Minibus taxi service",
      "Tour operator"
    ],
    "reviewsCount": 101,
    "imagesCount": 80,
    "openingHours": [],
    "imageUrl": "https://media.indianluxurycars.com/google/0bb06492eb806634db5d9bcb762e10b41f43a15ea793c56fee49009383a87346.png",
    "url": "https://www.google.com/maps/search/?api=1&query=Taxi%20services%20Ahmedabad&query_place_id=ChIJ29k5Y2SFXjkR1gay0b_t7fk"
  },
  {
    "title": "Vibe Car Rental",
    "categoryName": "Car leasing service",
    "address": "First Floor Office No.2, SUPATH II COMPLEX, Ashram Rd, Old Wadaj, Ahmedabad, Gujarat 380013, India",
    "neighborhood": "Old Wadaj",
    "street": "First Floor Office No.2, SUPATH II COMPLEX, Ashram Rd",
    "city": "Ahmedabad",
    "postalCode": "380013",
    "state": "Gujarat",
    "countryCode": "IN",
    "location": {
      "lat": 23.0535708,
      "lng": 72.5716611
    },
    "totalScore": 5,
    "permanentlyClosed": false,
    "temporarilyClosed": false,
    "placeId": "ChIJZa2RRTiFXjkR5rnhybejnB8",
    "categories": [
      "Car leasing service"
    ],
    "reviewsCount": 8,
    "imagesCount": 38,
    "openingHours": [
      {
        "day": "Monday",
        "hours": "Open 24 hours"
      },
      {
        "day": "Tuesday",
        "hours": "Open 24 hours"
      },
      {
        "day": "Wednesday",
        "hours": "Open 24 hours"
      },
      {
        "day": "Thursday",
        "hours": "Open 24 hours"
      },
      {
        "day": "Friday",
        "hours": "Open 24 hours"
      },
      {
        "day": "Saturday",
        "hours": "Open 24 hours"
      },
      {
        "day": "Sunday",
        "hours": "Open 24 hours"
      }
    ],
    "imageUrl": "https://media.indianluxurycars.com/google/2f7468ac7c989753b5ef370814c876dc0f75a45702e3f47900e0751332c63a6f.jpg",
    "url": "https://www.google.com/maps/search/?api=1&query=Vibe%20Car%20Rental&query_place_id=ChIJZa2RRTiFXjkR5rnhybejnB8"
  },
  {
    "title": "Virag Motors",
    "categoryName": "Used car dealer",
    "address": "4,Nirav Complex, Navrang School, Commerce Six Rd, Naranpura, Ahmedabad, Gujarat 380009, India",
    "neighborhood": "Rangupavan Society, Sardar Patel Colony, Sundar Nagar, Naranpura",
    "street": "4,Nirav Complex, Navrang School, Commerce Six Rd",
    "city": "Ahmedabad",
    "postalCode": "380009",
    "state": "Gujarat",
    "countryCode": "IN",
    "phone": "+919924010090",
    "phoneUnformatted": "+919924010090",
    "location": {
      "lat": 23.0483337,
      "lng": 72.5569681
    },
    "totalScore": 4.7,
    "permanentlyClosed": false,
    "temporarilyClosed": false,
    "placeId": "ChIJRVFWExKFXjkRLy1XEd7gpr0",
    "categories": [
      "Used car dealer"
    ],
    "reviewsCount": 14,
    "imagesCount": 29,
    "openingHours": [
      {
        "day": "Monday",
        "hours": "10:30 AM to 7 PM"
      },
      {
        "day": "Tuesday",
        "hours": "10:30 AM to 7 PM"
      },
      {
        "day": "Wednesday",
        "hours": "10:30 AM to 7 PM"
      },
      {
        "day": "Thursday",
        "hours": "10:30 AM to 7 PM"
      },
      {
        "day": "Friday",
        "hours": "10:30 AM to 7 PM"
      },
      {
        "day": "Saturday",
        "hours": "10:30 AM to 7 PM"
      },
      {
        "day": "Sunday",
        "hours": "10 AM to 4 PM"
      }
    ],
    "imageUrl": "https://media.indianluxurycars.com/google/5dc669f92e68d0f2a61b94e1a1a18707d9dd72928418b9e159fb6a5404e630d6.jpg",
    "url": "https://www.google.com/maps/search/?api=1&query=Virag%20Motors&query_place_id=ChIJRVFWExKFXjkRLy1XEd7gpr0"
  },
  {
    "title": "Vyom Cabs",
    "categoryName": "Car rental agency",
    "address": "165/A, Uddhav Nagar, Sorabji Compound, Old Wadaj, Ahmedabad, Gujarat 380013, India",
    "neighborhood": "Uddhav Nagar, Sorabji Compound, Old Wadaj",
    "street": "165/A",
    "city": "Ahmedabad",
    "postalCode": "380013",
    "state": "Gujarat",
    "countryCode": "IN",
    "website": "https://wa.link/6ahb7r",
    "phone": "+919723766676",
    "phoneUnformatted": "+919723766676",
    "location": {
      "lat": 23.0544245,
      "lng": 72.5700111
    },
    "totalScore": 5,
    "permanentlyClosed": false,
    "temporarilyClosed": false,
    "placeId": "ChIJTxdyC1iFXjkRxD9TdRthNTk",
    "categories": [
      "Car rental agency",
      "Car leasing service",
      "Leasing service",
      "Motoring club",
      "Taxi service",
      "Transportation service"
    ],
    "reviewsCount": 42,
    "imagesCount": 14,
    "openingHours": [
      {
        "day": "Monday",
        "hours": "Open 24 hours"
      },
      {
        "day": "Tuesday",
        "hours": "Open 24 hours"
      },
      {
        "day": "Wednesday",
        "hours": "Open 24 hours"
      },
      {
        "day": "Thursday",
        "hours": "Open 24 hours"
      },
      {
        "day": "Friday",
        "hours": "Open 24 hours"
      },
      {
        "day": "Saturday",
        "hours": "Open 24 hours"
      },
      {
        "day": "Sunday",
        "hours": "Open 24 hours"
      }
    ],
    "imageUrl": "https://media.indianluxurycars.com/google/fa75bcb40c8d889da7dbbdc72dbaca5766396418b9ac2203879a9260485b96a8.jpg",
    "url": "https://www.google.com/maps/search/?api=1&query=Vyom%20Cabs&query_place_id=ChIJTxdyC1iFXjkRxD9TdRthNTk"
  },
  {
    "title": "Yash Car",
    "subTitle": "યશ કાર",
    "categoryName": "Used car dealer",
    "address": "2HW3+PR9, Darpan Six Rd, Sarvottam Nagar Society, Navrangpura, Ahmedabad, Gujarat 380009, India",
    "neighborhood": "Sarvottam Nagar Society, Navrangpura",
    "street": "2HW3+PR9, Darpan Six Rd",
    "city": "Ahmedabad",
    "postalCode": "380009",
    "state": "Gujarat",
    "countryCode": "IN",
    "phone": "+917926401562",
    "phoneUnformatted": "+917926401562",
    "location": {
      "lat": 23.0467974,
      "lng": 72.554623
    },
    "totalScore": 4.1,
    "permanentlyClosed": false,
    "temporarilyClosed": false,
    "placeId": "ChIJnXI2NpCEXjkRuO9guHR802M",
    "categories": [
      "Used car dealer",
      "Loan agency"
    ],
    "reviewsCount": 9,
    "imagesCount": 1,
    "openingHours": [
      {
        "day": "Monday",
        "hours": "10 AM to 7 PM"
      },
      {
        "day": "Tuesday",
        "hours": "10 AM to 7 PM"
      },
      {
        "day": "Wednesday",
        "hours": "10 AM to 7 PM"
      },
      {
        "day": "Thursday",
        "hours": "10 AM to 7 PM"
      },
      {
        "day": "Friday",
        "hours": "10 AM to 7 PM"
      },
      {
        "day": "Saturday",
        "hours": "10 AM to 7 PM"
      },
      {
        "day": "Sunday",
        "hours": "11 AM to 1 PM"
      }
    ],
    "imageUrl": "https://media.indianluxurycars.com/google/f7aa27172cb977f8470f58ada9595d7dd9436a7e4e52d8d7a04ba161b2e3bfdc.jpg",
    "url": "https://www.google.com/maps/search/?api=1&query=Yash%20Car&query_place_id=ChIJnXI2NpCEXjkRuO9guHR802M"
  },
  {
    "title": "Yuven Motor",
    "subTitle": "યુવેન મોટર",
    "categoryName": "Used car dealer",
    "address": "21, ne, Navrang Cir, Arunesh Society, Naranpura, Ahmedabad, Gujarat 380009, India",
    "neighborhood": "Arunesh Society, Naranpura",
    "street": "21, ne, Navrang Cir",
    "city": "Ahmedabad",
    "postalCode": "380009",
    "state": "Gujarat",
    "countryCode": "IN",
    "phone": "+918238525203",
    "phoneUnformatted": "+918238525203",
    "location": {
      "lat": 23.0487956,
      "lng": 72.5539761
    },
    "totalScore": 4.7,
    "permanentlyClosed": false,
    "temporarilyClosed": false,
    "placeId": "ChIJP7xjoRuFXjkRii_pOdD5Tz8",
    "categories": [
      "Used car dealer"
    ],
    "reviewsCount": 31,
    "imagesCount": 100,
    "openingHours": [
      {
        "day": "Monday",
        "hours": "10:30 AM to 8:30 PM"
      },
      {
        "day": "Tuesday",
        "hours": "10:30 AM to 8:30 PM"
      },
      {
        "day": "Wednesday",
        "hours": "10:30 AM to 8:30 PM"
      },
      {
        "day": "Thursday",
        "hours": "10:30 AM to 8:30 PM"
      },
      {
        "day": "Friday",
        "hours": "10:30 AM to 8:30 PM"
      },
      {
        "day": "Saturday",
        "hours": "10:30 AM to 8:30 PM"
      },
      {
        "day": "Sunday",
        "hours": "10 AM to 6 PM"
      }
    ],
    "imageUrl": "https://media.indianluxurycars.com/google/3ea0a2c6b06271f413cbca28be437100c316df9da371dcb18256468fb263f1f9.jpg",
    "url": "https://www.google.com/maps/search/?api=1&query=Yuven%20Motor&query_place_id=ChIJP7xjoRuFXjkRii_pOdD5Tz8"
  }
]
