[
  {
    "title": "Aligarh motor best deal",
    "subTitle": "अलीगढ़ मोटर बेस्ट डील",
    "categoryName": "Used car dealer",
    "address": "W38Q+9WF, New Sir Syed Nagar, S.S Nagar, Aligarh, Uttar Pradesh 202001, India",
    "neighborhood": "New Sir Syed Nagar, S.S Nagar",
    "street": "W38Q+9WF",
    "city": "Aligarh",
    "postalCode": "202001",
    "state": "Uttar Pradesh",
    "countryCode": "IN",
    "website": "https://instagram.com/aligarh_motor_best_car?igshid=MzNlNGNkZWQ4Mg==",
    "phone": "+917417832993",
    "phoneUnformatted": "+917417832993",
    "location": {
      "lat": 27.9159461,
      "lng": 78.0897955
    },
    "totalScore": 5,
    "permanentlyClosed": false,
    "temporarilyClosed": false,
    "placeId": "ChIJXTz9oESldDkRhMZc5mx1VH8",
    "categories": [
      "Used car dealer"
    ],
    "reviewsCount": 4,
    "imagesCount": 100,
    "openingHours": [
      {
        "day": "Monday",
        "hours": "Open 24 hours"
      },
      {
        "day": "Tuesday",
        "hours": "Open 24 hours"
      },
      {
        "day": "Wednesday",
        "hours": "Open 24 hours"
      },
      {
        "day": "Thursday",
        "hours": "Open 24 hours"
      },
      {
        "day": "Friday",
        "hours": "Open 24 hours"
      },
      {
        "day": "Saturday",
        "hours": "Open 24 hours"
      },
      {
        "day": "Sunday",
        "hours": "Open 24 hours"
      }
    ],
    "imageUrl": "https://media.indianluxurycars.com/google/98cb92af53d15d458177ce753777f924cd2a48acd5e090310b92b5a1646c4b77.jpg",
    "url": "https://www.google.com/maps/search/?api=1&query=Aligarh%20motor%20best%20deal&query_place_id=ChIJXTz9oESldDkRhMZc5mx1VH8"
  },
  {
    "title": "ALIGARH MOTORS PVT LTD.",
    "subTitle": "अलीगढ़ मोटर्स पीवीटी एलटीडी.",
    "categoryName": "Used car dealer",
    "address": "Infront of Royal Residency, GT Rd, Guru Ram Dash Nagar, Sarsol, Aligarh, Uttar Pradesh 202002, India",
    "neighborhood": "Guru Ram Dash Nagar, Sarsol",
    "street": "Infront of Royal Residency, GT Rd",
    "city": "Aligarh",
    "postalCode": "202002",
    "state": "Uttar Pradesh",
    "countryCode": "IN",
    "phone": "+919084238644",
    "phoneUnformatted": "+919084238644",
    "location": {
      "lat": 27.9082248,
      "lng": 78.0440284
    },
    "permanentlyClosed": false,
    "temporarilyClosed": false,
    "placeId": "ChIJG9bp5UyldDkR7hbUf-CIDVw",
    "categories": [
      "Used car dealer"
    ],
    "imagesCount": 5,
    "openingHours": [
      {
        "day": "Monday",
        "hours": "10 AM to 7 PM"
      },
      {
        "day": "Tuesday",
        "hours": "10 AM to 7 PM"
      },
      {
        "day": "Wednesday",
        "hours": "10 AM to 7 PM"
      },
      {
        "day": "Thursday",
        "hours": "10 AM to 7 PM"
      },
      {
        "day": "Friday",
        "hours": "10 AM to 7 PM"
      },
      {
        "day": "Saturday",
        "hours": "Closed"
      },
      {
        "day": "Sunday",
        "hours": "10 AM to 7 PM"
      }
    ],
    "imageUrl": "https://media.indianluxurycars.com/google/30e446538990cd6bb3d35f153b3a56b61cfd87c211446210949aa476223aaf5d.jpg",
    "url": "https://www.google.com/maps/search/?api=1&query=ALIGARH%20MOTORS%20PVT%20LTD.&query_place_id=ChIJG9bp5UyldDkR7hbUf-CIDVw"
  },
  {
    "title": "Car on rent ,Car rent services - Shri Ram tour and travels",
    "subTitle": "कार ऑन रेंट ,कार रेंट सर्विसेस - श्री राम टूर एंड ट्रैवल्स",
    "categoryName": "Car rental agency",
    "address": "Bank Colony, Kundan Nagar, Chauhapur, Aligarh, Uttar Pradesh 202001, India",
    "neighborhood": "Bank Colony, Kundan Nagar, Chauhapur",
    "city": "Aligarh",
    "postalCode": "202001",
    "state": "Uttar Pradesh",
    "countryCode": "IN",
    "website": "https://shreeramtourtravels.in/",
    "phone": "+919759831496",
    "phoneUnformatted": "+919759831496",
    "location": {
      "lat": 27.9112367,
      "lng": 78.0530626
    },
    "totalScore": 4.7,
    "permanentlyClosed": false,
    "temporarilyClosed": false,
    "placeId": "ChIJz_cJQACldDkRhTQQ7LPbScs",
    "categories": [
      "Car rental agency"
    ],
    "reviewsCount": 26,
    "imagesCount": 14,
    "openingHours": [
      {
        "day": "Monday",
        "hours": "Open 24 hours"
      },
      {
        "day": "Tuesday",
        "hours": "Open 24 hours"
      },
      {
        "day": "Wednesday",
        "hours": "Open 24 hours"
      },
      {
        "day": "Thursday",
        "hours": "Open 24 hours"
      },
      {
        "day": "Friday",
        "hours": "Open 24 hours"
      },
      {
        "day": "Saturday",
        "hours": "Open 24 hours"
      },
      {
        "day": "Sunday",
        "hours": "Open 24 hours"
      }
    ],
    "imageUrl": "https://media.indianluxurycars.com/google/674f992d18ef6b512d4d776bb432f82667cdae964107cd072efd629489f2e42b.jpg",
    "url": "https://www.google.com/maps/search/?api=1&query=Car%20on%20rent%20%2CCar%20rent%20services%20-%20Shri%20Ram%20tour%20and%20travels&query_place_id=ChIJz_cJQACldDkRhTQQ7LPbScs"
  },
  {
    "title": "Luxury wedding car Aligarh",
    "subTitle": "लक्जरी वेडिंग कार अलीगढ़",
    "categoryName": "Car rental agency",
    "address": "W32G+RP3, Lal Diggi, Hamdard Nagar, Jamalpur, Aligarh, Uttar Pradesh 202001, India",
    "neighborhood": "Lal Diggi, Hamdard Nagar, Jamalpur",
    "street": "W32G+RP3",
    "city": "Aligarh",
    "postalCode": "202001",
    "state": "Uttar Pradesh",
    "countryCode": "IN",
    "location": {
      "lat": 27.9020042,
      "lng": 78.0767822
    },
    "totalScore": 5,
    "permanentlyClosed": false,
    "temporarilyClosed": false,
    "placeId": "ChIJFf7__u2kdDkR_G-WKLwXNIk",
    "categories": [
      "Car rental agency"
    ],
    "reviewsCount": 1,
    "imagesCount": 1,
    "openingHours": [],
    "imageUrl": "https://media.indianluxurycars.com/google/3ceed147501db79f8a98a2c245ba094fcd20f16f8d72d960f68b842bac1b57bf.jpg",
    "url": "https://www.google.com/maps/search/?api=1&query=Luxury%20wedding%20car%20Aligarh&query_place_id=ChIJFf7__u2kdDkR_G-WKLwXNIk"
  },
  {
    "title": "NEXA (Anil Motors, Aligarh, GT Road)",
    "subTitle": "नेक्सा (अनिल मोटर्स, अलीगढ़, जीटी रोड)",
    "categoryName": "Car dealer",
    "address": "5/129, GT Rd, near RTO office, Ram Nagar Colony, Sarsol, Aligarh, Uttar Pradesh 202002, India",
    "neighborhood": "Ram Nagar Colony, Sarsol",
    "street": "5/129, GT Rd, near RTO office",
    "city": "Aligarh",
    "postalCode": "202002",
    "state": "Uttar Pradesh",
    "countryCode": "IN",
    "website": "https://www.nexaofgtroadaligarh.com/?utm_source=gmb&utm_medium=google&utm_campaign=seo-local",
    "phone": "+918062512209",
    "phoneUnformatted": "+918062512209",
    "location": {
      "lat": 27.9070094,
      "lng": 78.0447767
    },
    "totalScore": 4.7,
    "permanentlyClosed": false,
    "temporarilyClosed": false,
    "placeId": "ChIJQdc86UWkdDkR_CCxp9aTgtk",
    "categories": [
      "Car dealer"
    ],
    "reviewsCount": 1709,
    "imagesCount": 167,
    "openingHours": [
      {
        "day": "Monday",
        "hours": "9:30 AM to 7 PM"
      },
      {
        "day": "Tuesday",
        "hours": "9:30 AM to 7 PM"
      },
      {
        "day": "Wednesday",
        "hours": "9:30 AM to 7 PM"
      },
      {
        "day": "Thursday",
        "hours": "9:30 AM to 7 PM"
      },
      {
        "day": "Friday",
        "hours": "9:30 AM to 7 PM"
      },
      {
        "day": "Saturday",
        "hours": "Closed"
      },
      {
        "day": "Sunday",
        "hours": "9:30 AM to 7 PM"
      }
    ],
    "imageUrl": "https://media.indianluxurycars.com/google/dd5e17b684bee308b81589074734fa52469d1cf9ca64b2ff280c364ef9be864f.jpg",
    "url": "https://www.google.com/maps/search/?api=1&query=NEXA%20(Anil%20Motors%2C%20Aligarh%2C%20GT%20Road)&query_place_id=ChIJQdc86UWkdDkR_CCxp9aTgtk"
  },
  {
    "title": "Sakar tour and travels aligarh",
    "subTitle": "साकार टूर एंड ट्रैवल्स अलीगढ़",
    "categoryName": "Car rental agency",
    "address": "WAJIDPUR NADHA, Khair - Aligarh Rd, Aligarh, Uttar Pradesh 202140, India",
    "neighborhood": "Wajidpur Nada",
    "street": "WAJIDPUR NADHA, Khair - Aligarh Rd",
    "city": "Aligarh",
    "postalCode": "202140",
    "state": "Uttar Pradesh",
    "countryCode": "IN",
    "phone": "+918923548104",
    "phoneUnformatted": "+918923548104",
    "location": {
      "lat": 27.8876815,
      "lng": 78.026838
    },
    "totalScore": 4,
    "permanentlyClosed": false,
    "temporarilyClosed": false,
    "placeId": "ChIJB35MCeKldDkRCgDLsXUpzHY",
    "categories": [
      "Car rental agency"
    ],
    "reviewsCount": 7,
    "imagesCount": 38,
    "openingHours": [
      {
        "day": "Monday",
        "hours": "Open 24 hours"
      },
      {
        "day": "Tuesday",
        "hours": "Open 24 hours"
      },
      {
        "day": "Wednesday",
        "hours": "Open 24 hours"
      },
      {
        "day": "Thursday",
        "hours": "Open 24 hours"
      },
      {
        "day": "Friday",
        "hours": "Open 24 hours"
      },
      {
        "day": "Saturday",
        "hours": "Open 24 hours"
      },
      {
        "day": "Sunday",
        "hours": "Open 24 hours"
      }
    ],
    "imageUrl": "https://media.indianluxurycars.com/google/9ae864f3f8e669975165d3bf0a1b49336d645716094ac5e51b2318750ce33bf9.jpg",
    "url": "https://www.google.com/maps/search/?api=1&query=Sakar%20tour%20and%20travels%20aligarh&query_place_id=ChIJB35MCeKldDkRCgDLsXUpzHY"
  },
  {
    "title": "Star city taxi & travels",
    "subTitle": "स्टार सिटी टैक्सी & ट्रैवल्स",
    "categoryName": "Car rental agency",
    "address": "Teachers colony, Manjur Garhi, Aligarh, Uttar Pradesh 202122, India",
    "neighborhood": "Teachers colony, Manjur Garhi",
    "city": "Aligarh",
    "postalCode": "202122",
    "state": "Uttar Pradesh",
    "countryCode": "IN",
    "phone": "+918533077796",
    "phoneUnformatted": "+918533077796",
    "location": {
      "lat": 27.9436183,
      "lng": 78.0795466
    },
    "totalScore": 4.9,
    "permanentlyClosed": false,
    "temporarilyClosed": false,
    "placeId": "ChIJH4S5Z3GldDkRSgbxhas5usw",
    "categories": [
      "Car rental agency",
      "Car leasing service",
      "Taxi service",
      "Transportation service",
      "Travel agency"
    ],
    "reviewsCount": 42,
    "imagesCount": 12,
    "openingHours": [],
    "imageUrl": "https://media.indianluxurycars.com/google/7f354df6e2e2c283a08ad03fc02487630875172a7f55b1a68578a21e32a68a1c.png",
    "url": "https://www.google.com/maps/search/?api=1&query=Star%20city%20taxi%20%26%20travels&query_place_id=ChIJH4S5Z3GldDkRSgbxhas5usw"
  },
  {
    "title": "Yulip e vehicle",
    "subTitle": "यूलिप इ व्हीकल",
    "categoryName": "Electric motor vehicle dealer",
    "address": "municipal market, New, court road, near Tasveer Mahal, Reserve Police Line, Aligarh, Uttar Pradesh 202001, India",
    "neighborhood": "Reserve Police Line",
    "street": "municipal market, New, court road, near Tasveer Mahal",
    "city": "Aligarh",
    "postalCode": "202001",
    "state": "Uttar Pradesh",
    "countryCode": "IN",
    "location": {
      "lat": 27.9007952,
      "lng": 78.071918
    },
    "totalScore": 4.3,
    "permanentlyClosed": false,
    "temporarilyClosed": false,
    "placeId": "ChIJCfVLJKGldDkRTaDIJ86Hgc8",
    "categories": [
      "Electric motor vehicle dealer",
      "Agricultural machinery manufacturer",
      "Battery store",
      "Electric motor scooter dealer",
      "Motor vehicle dealer",
      "Motorcycle dealer",
      "Motorcycle repair shop",
      "Showroom",
      "Wholesaler"
    ],
    "reviewsCount": 18,
    "imagesCount": 4,
    "openingHours": [
      {
        "day": "Monday",
        "hours": "10 AM to 8 PM"
      },
      {
        "day": "Tuesday",
        "hours": "10 AM to 8 PM"
      },
      {
        "day": "Wednesday",
        "hours": "10 AM to 8 PM"
      },
      {
        "day": "Thursday",
        "hours": "10 AM to 8 PM"
      },
      {
        "day": "Friday",
        "hours": "10 AM to 8 PM"
      },
      {
        "day": "Saturday",
        "hours": "10 AM to 8 PM"
      },
      {
        "day": "Sunday",
        "hours": "Closed"
      }
    ],
    "imageUrl": "https://media.indianluxurycars.com/google/3898a2c9911f479f9b261993b0ec3373d1bbd893aecc6a5bfc7ea0bc747759e7.jpg",
    "url": "https://www.google.com/maps/search/?api=1&query=Yulip%20e%20vehicle&query_place_id=ChIJCfVLJKGldDkRTaDIJ86Hgc8"
  },
  {
    "title": "Yuvraj Car Travels",
    "subTitle": "युवराज कार ट्रैवल्स",
    "categoryName": "Car rental agency",
    "address": "bhadeshi road, Mahendra Nagar, Aligarh, Uttar Pradesh 202001, India",
    "neighborhood": "Mahendra Nagar",
    "street": "bhadeshi road",
    "city": "Aligarh",
    "postalCode": "202001",
    "state": "Uttar Pradesh",
    "countryCode": "IN",
    "website": "https://yuvrajcartravels.in/",
    "phone": "+919193156217",
    "phoneUnformatted": "+919193156217",
    "location": {
      "lat": 27.8660591,
      "lng": 78.0858604
    },
    "totalScore": 5,
    "permanentlyClosed": false,
    "temporarilyClosed": false,
    "placeId": "ChIJsac6yEQSkA4RDKu5mgMEXII",
    "categories": [
      "Car rental agency",
      "Car leasing service",
      "Taxi service",
      "Travel agency"
    ],
    "reviewsCount": 48,
    "imagesCount": 34,
    "openingHours": [
      {
        "day": "Monday",
        "hours": "Open 24 hours"
      },
      {
        "day": "Tuesday",
        "hours": "Open 24 hours"
      },
      {
        "day": "Wednesday",
        "hours": "Open 24 hours"
      },
      {
        "day": "Thursday",
        "hours": "Open 24 hours"
      },
      {
        "day": "Friday",
        "hours": "Open 24 hours"
      },
      {
        "day": "Saturday",
        "hours": "Open 24 hours"
      },
      {
        "day": "Sunday",
        "hours": "Open 24 hours"
      }
    ],
    "imageUrl": "https://media.indianluxurycars.com/google/cfec87f7e4a13da1ad224967b4b92bd1a73eb711ea012ff3db6c80f6805e5a3e.jpg",
    "url": "https://www.google.com/maps/search/?api=1&query=Yuvraj%20Car%20Travels&query_place_id=ChIJsac6yEQSkA4RDKu5mgMEXII"
  },
  {
    "title": "Yuvraj Gautam car travels",
    "subTitle": "युवराज गौतम कार ट्रैवल्स",
    "categoryName": "Car rental agency",
    "address": "Dubai ka padav, Dhobi bhai gali, Sarai Intejam Ali, Achal Taal, Aligarh, Uttar Pradesh 202001, India",
    "neighborhood": "Sarai Intejam Ali, Achal Taal",
    "street": "Dubai ka padav, Dhobi bhai gali",
    "city": "Aligarh",
    "postalCode": "202001",
    "state": "Uttar Pradesh",
    "countryCode": "IN",
    "website": "https://wa.me/+916395195503",
    "phone": "+916395195503",
    "phoneUnformatted": "+916395195503",
    "location": {
      "lat": 27.8826395,
      "lng": 78.0752493
    },
    "totalScore": 5,
    "permanentlyClosed": false,
    "temporarilyClosed": false,
    "placeId": "ChIJuTbTxG2ldDkRttjGj1GUMMc",
    "categories": [
      "Car rental agency",
      "Car leasing service",
      "Taxi service",
      "Travel agency"
    ],
    "reviewsCount": 25,
    "imagesCount": 18,
    "openingHours": [],
    "imageUrl": "https://media.indianluxurycars.com/google/e22dc5e83c5e37d4441d083985b766c9cebfcd44d7360a8ea9c3c0aaeb6a5700.jpg",
    "url": "https://www.google.com/maps/search/?api=1&query=Yuvraj%20Gautam%20car%20travels&query_place_id=ChIJuTbTxG2ldDkRttjGj1GUMMc"
  }
]
