[
  {
    "title": "Amritsar Wedding Cars",
    "categoryName": "Car rental agency",
    "address": "Bye Pass Road, opp. Grand Celebration Resort, Vallah, Amritsar, Punjab 143501, India",
    "neighborhood": "Vallah",
    "street": "Bye Pass Road, opp. Grand Celebration Resort",
    "city": "Amritsar",
    "postalCode": "143501",
    "state": "Punjab",
    "countryCode": "IN",
    "website": "https://www.instagram.com/amritsar_wedding_cars/",
    "phone": "+919855242495",
    "phoneUnformatted": "+919855242495",
    "location": {
      "lat": 31.6447719,
      "lng": 74.9265486
    },
    "totalScore": 4.9,
    "permanentlyClosed": false,
    "temporarilyClosed": false,
    "placeId": "ChIJU9tcsBFjGTkRM5-Y38xns04",
    "categories": [
      "Car rental agency",
      "Taxi service"
    ],
    "reviewsCount": 16,
    "imagesCount": 56,
    "openingHours": [
      {
        "day": "Monday",
        "hours": "9‚ÄØAM to 9‚ÄØPM"
      },
      {
        "day": "Tuesday",
        "hours": "9‚ÄØAM to 9‚ÄØPM"
      },
      {
        "day": "Wednesday",
        "hours": "9‚ÄØAM to 9‚ÄØPM"
      },
      {
        "day": "Thursday",
        "hours": "9‚ÄØAM to 9‚ÄØPM"
      },
      {
        "day": "Friday",
        "hours": "9‚ÄØAM to 9‚ÄØPM"
      },
      {
        "day": "Saturday",
        "hours": "9‚ÄØAM to 9‚ÄØPM"
      },
      {
        "day": "Sunday",
        "hours": "9‚ÄØAM to 9‚ÄØPM"
      }
    ],
    "imageUrl": "https://media.indianluxurycars.com/google/d31d729c23fb169ead37c396c10d3cd43fee17619020f848fbb6e653f36b6995.jpg",
    "url": "https://www.google.com/maps/search/?api=1&query=Amritsar%20Wedding%20Cars&query_place_id=ChIJU9tcsBFjGTkRM5-Y38xns04"
  },
  {
    "title": "ùóîùó•ùó¢ùó•ùóî ùóßùó•ùóîùó©ùóòùóüùó¶ - Best Taxi Service Amritsar",
    "categoryName": "Car rental agency",
    "address": "Shop No. 46, Gol Bagh, Taxi Stand Market, Narain Nagar, Goal Bagh, Amritsar, Punjab 143001, India",
    "neighborhood": "Narain Nagar, Goal Bagh",
    "street": "Shop No. 46, Gol Bagh, Taxi Stand Market",
    "city": "Amritsar",
    "postalCode": "143001",
    "state": "Punjab",
    "countryCode": "IN",
    "phone": "+919915070856",
    "phoneUnformatted": "+919915070856",
    "location": {
      "lat": 31.6315786,
      "lng": 74.8686835
    },
    "totalScore": 4.9,
    "permanentlyClosed": false,
    "temporarilyClosed": false,
    "placeId": "ChIJqbwPpPJlGTkR_cwfs9ocdSI",
    "categories": [
      "Car rental agency",
      "Taxi service"
    ],
    "reviewsCount": 128,
    "imagesCount": 89,
    "openingHours": [
      {
        "day": "Monday",
        "hours": "Open 24 hours"
      },
      {
        "day": "Tuesday",
        "hours": "Open 24 hours"
      },
      {
        "day": "Wednesday",
        "hours": "Open 24 hours"
      },
      {
        "day": "Thursday",
        "hours": "Open 24 hours"
      },
      {
        "day": "Friday",
        "hours": "Open 24 hours"
      },
      {
        "day": "Saturday",
        "hours": "Open 24 hours"
      },
      {
        "day": "Sunday",
        "hours": "Open 24 hours"
      }
    ],
    "imageUrl": "https://media.indianluxurycars.com/google/c11f36145a57758fd13270d69ce988f761dd9dd23d6780373418f3dd705a9af7.jpg",
    "url": "https://www.google.com/maps/search/?api=1&query=%F0%9D%97%94%F0%9D%97%A5%F0%9D%97%A2%F0%9D%97%A5%F0%9D%97%94%20%F0%9D%97%A7%F0%9D%97%A5%F0%9D%97%94%F0%9D%97%A9%F0%9D%97%98%F0%9D%97%9F%F0%9D%97%A6%20-%20Best%20Taxi%20Service%20Amritsar&query_place_id=ChIJqbwPpPJlGTkR_cwfs9ocdSI"
  },
  {
    "title": "Aryan Hyundai",
    "categoryName": "Hyundai dealer",
    "address": "Majitha-Verka By Pass, P.O, Khanna Nagar, Amritsar, Punjab 143501, India",
    "neighborhood": "P.O, Khanna Nagar",
    "street": "Majitha-Verka By Pass",
    "city": "Amritsar",
    "postalCode": "143501",
    "state": "Punjab",
    "countryCode": "IN",
    "website": "http://aryanhyundai.com/",
    "phone": "+911835031800",
    "phoneUnformatted": "+911835031800",
    "location": {
      "lat": 31.666946,
      "lng": 74.9113925
    },
    "totalScore": 4.6,
    "permanentlyClosed": false,
    "temporarilyClosed": false,
    "placeId": "ChIJOWHNOgVjGTkR3nGa5f3ueyk",
    "categories": [
      "Hyundai dealer",
      "Car dealer",
      "Used car dealer"
    ],
    "reviewsCount": 322,
    "imagesCount": 1,
    "openingHours": [
      {
        "day": "Monday",
        "hours": "9‚ÄØAM to 7:30‚ÄØPM"
      },
      {
        "day": "Tuesday",
        "hours": "9‚ÄØAM to 7:30‚ÄØPM"
      },
      {
        "day": "Wednesday",
        "hours": "9‚ÄØAM to 7:30‚ÄØPM"
      },
      {
        "day": "Thursday",
        "hours": "9‚ÄØAM to 7:30‚ÄØPM"
      },
      {
        "day": "Friday",
        "hours": "9‚ÄØAM to 7:30‚ÄØPM"
      },
      {
        "day": "Saturday",
        "hours": "9‚ÄØAM to 7:30‚ÄØPM"
      },
      {
        "day": "Sunday",
        "hours": "Closed"
      }
    ],
    "imageUrl": "https://media.indianluxurycars.com/google/aeee83242d33eff8efeb75b2f38ce05931fa60879096e9a7e5373a0d2a6d995a.jpg",
    "url": "https://www.google.com/maps/search/?api=1&query=Aryan%20Hyundai&query_place_id=ChIJOWHNOgVjGTkR3nGa5f3ueyk"
  },
  {
    "title": "Car lounge",
    "subTitle": "‡®ï‡®æ‡®∞ ‡®≤‡®æ‡®Ç‡®ú",
    "categoryName": "Car dealer",
    "address": "29, Mall Rd, Green Avenue, Amritsar, Punjab 143001, India",
    "neighborhood": "Green Avenue",
    "street": "29, Mall Rd",
    "city": "Amritsar",
    "postalCode": "143001",
    "state": "Punjab",
    "countryCode": "IN",
    "phone": "+919855738866",
    "phoneUnformatted": "+919855738866",
    "location": {
      "lat": 31.6430238,
      "lng": 74.8635692
    },
    "totalScore": 3.8,
    "permanentlyClosed": false,
    "temporarilyClosed": false,
    "placeId": "ChIJh8afpKRkGTkRmZkiN3-BWFA",
    "categories": [
      "Car dealer"
    ],
    "reviewsCount": 15,
    "imagesCount": 8,
    "openingHours": [
      {
        "day": "Monday",
        "hours": "10‚ÄØAM to 8‚ÄØPM"
      },
      {
        "day": "Tuesday",
        "hours": "10‚ÄØAM to 8‚ÄØPM"
      },
      {
        "day": "Wednesday",
        "hours": "10‚ÄØAM to 8‚ÄØPM"
      },
      {
        "day": "Thursday",
        "hours": "10‚ÄØAM to 8‚ÄØPM"
      },
      {
        "day": "Friday",
        "hours": "10‚ÄØAM to 8‚ÄØPM"
      },
      {
        "day": "Saturday",
        "hours": "10‚ÄØAM to 8‚ÄØPM"
      },
      {
        "day": "Sunday",
        "hours": "10‚ÄØAM to 8‚ÄØPM"
      }
    ],
    "imageUrl": "https://media.indianluxurycars.com/google/3f271b4476ed758e50c8d90b0c9121033fe1bf9a743a019db7ee5fb7458ce169.jpg",
    "url": "https://www.google.com/maps/search/?api=1&query=Car%20lounge&query_place_id=ChIJh8afpKRkGTkRmZkiN3-BWFA"
  },
  {
    "title": "CARS24 - Supreme Autowheelz | Sell Used Cars in Amritsar",
    "categoryName": "Used car dealer",
    "address": "SCO 42, District Shopping Complex, near MK Hotel, B - Block, Ranjit Avenue, Amritsar, Punjab 143001, India",
    "neighborhood": "B - Block, Ranjit Avenue",
    "street": "SCO 42, District Shopping Complex, near MK Hotel",
    "city": "Amritsar",
    "postalCode": "143001",
    "state": "Punjab",
    "countryCode": "IN",
    "website": "https://www.cars24.com/",
    "phone": "+918929759586",
    "phoneUnformatted": "+918929759586",
    "location": {
      "lat": 31.6524388,
      "lng": 74.8644129
    },
    "totalScore": 4.8,
    "permanentlyClosed": false,
    "temporarilyClosed": false,
    "placeId": "ChIJC428TbllGTkRs5cXGh42-Uk",
    "categories": [
      "Used car dealer",
      "Audi dealer",
      "BMW dealer",
      "Car finance and loan company",
      "Honda dealer",
      "Hyundai dealer",
      "Kia dealer",
      "Skoda dealer",
      "Suzuki dealer",
      "Tata Motors dealer"
    ],
    "reviewsCount": 225,
    "imagesCount": 83,
    "openingHours": [
      {
        "day": "Monday",
        "hours": "10‚ÄØAM to 7‚ÄØPM"
      },
      {
        "day": "Tuesday",
        "hours": "10‚ÄØAM to 7‚ÄØPM"
      },
      {
        "day": "Wednesday",
        "hours": "10‚ÄØAM to 7‚ÄØPM"
      },
      {
        "day": "Thursday",
        "hours": "10‚ÄØAM to 7‚ÄØPM"
      },
      {
        "day": "Friday",
        "hours": "10‚ÄØAM to 7‚ÄØPM"
      },
      {
        "day": "Saturday",
        "hours": "10‚ÄØAM to 7‚ÄØPM"
      },
      {
        "day": "Sunday",
        "hours": "10‚ÄØAM to 7‚ÄØPM"
      }
    ],
    "imageUrl": "https://media.indianluxurycars.com/google/11fbccb50b1697052c40242517ecf2b9b938e27478276485b422a308f1801c73.jpg",
    "url": "https://www.google.com/maps/search/?api=1&query=CARS24%20-%20Supreme%20Autowheelz%20%7C%20Sell%20Used%20Cars%20in%20Amritsar&query_place_id=ChIJC428TbllGTkRs5cXGh42-Uk"
  },
  {
    "title": "Cheema Luxury Cars",
    "categoryName": "Car rental agency",
    "address": "Main, Grand Trunk Rd, opp. GNDU, Kabir Park Colony, Amritsar, Punjab 143002, India",
    "neighborhood": "Kabir Park Colony",
    "street": "Main, Grand Trunk Rd, opp. GNDU",
    "city": "Amritsar",
    "postalCode": "143002",
    "state": "Punjab",
    "countryCode": "IN",
    "website": "https://www.cheemaluxurycars.com/",
    "phone": "+919988821421",
    "phoneUnformatted": "+919988821421",
    "location": {
      "lat": 31.6287161,
      "lng": 74.827066
    },
    "totalScore": 5,
    "permanentlyClosed": false,
    "temporarilyClosed": false,
    "placeId": "ChIJ4-lg-cJlGTkRphXedQMWEKA",
    "categories": [
      "Car rental agency"
    ],
    "reviewsCount": 7,
    "imagesCount": 14,
    "openingHours": [
      {
        "day": "Monday",
        "hours": "7:30‚ÄØAM to 9‚ÄØPM"
      },
      {
        "day": "Tuesday",
        "hours": "7:30‚ÄØAM to 9‚ÄØPM"
      },
      {
        "day": "Wednesday",
        "hours": "7:30‚ÄØAM to 9‚ÄØPM"
      },
      {
        "day": "Thursday",
        "hours": "7:30‚ÄØAM to 9‚ÄØPM"
      },
      {
        "day": "Friday",
        "hours": "7:30‚ÄØAM to 9‚ÄØPM"
      },
      {
        "day": "Saturday",
        "hours": "7:30‚ÄØAM to 9‚ÄØPM"
      },
      {
        "day": "Sunday",
        "hours": "7:30‚ÄØAM to 9‚ÄØPM"
      }
    ],
    "imageUrl": "https://media.indianluxurycars.com/google/ba6602243246b47fbc990223841d025cb5b383dd57b655e0400eac61f8600638.jpg",
    "url": "https://www.google.com/maps/search/?api=1&query=Cheema%20Luxury%20Cars&query_place_id=ChIJ4-lg-cJlGTkRphXedQMWEKA"
  },
  {
    "title": "Complete Traveller's Guide - North India Tours",
    "subTitle": "‡®ï‡©∞‡®™‡®≤‡©á‡®ü ‡®ü‡©ç‡®∞‡©à‡®µ‡®≤‡®∞‡®∏ ‡®ó‡®æ‡®à‡®° - ‡®®‡®æ‡®∞‡®• ‡®á‡©∞‡®°‡©Ä‡®Ü ‡®ü‡®∞‡®∏",
    "categoryName": "Car rental agency",
    "address": "20, Court Rd, Kennedy Avenue, Amritsar, Punjab 143001, India",
    "neighborhood": "Kennedy Avenue",
    "street": "20, Court Rd",
    "city": "Amritsar",
    "postalCode": "143001",
    "state": "Punjab",
    "countryCode": "IN",
    "website": "http://karancarrentals.com/",
    "location": {
      "lat": 31.6351492,
      "lng": 74.8704258
    },
    "permanentlyClosed": false,
    "temporarilyClosed": false,
    "placeId": "ChIJn_zUt5BlGTkRmbEmkWJWqlY",
    "categories": [
      "Car rental agency",
      "Bus charter",
      "Bus tour agency",
      "Car leasing service",
      "Minibus taxi service",
      "Sightseeing tour agency",
      "Taxi service",
      "Taxicab Stand",
      "Tour agency",
      "Tourist information center"
    ],
    "imagesCount": 1,
    "openingHours": [],
    "imageUrl": "https://media.indianluxurycars.com/google/91798ae397e5a9202becbfb05608ea02c3e8176b81f430d06bbadf67f5ee1aee.jpg",
    "url": "https://www.google.com/maps/search/?api=1&query=Complete%20Traveller's%20Guide%20-%20North%20India%20Tours&query_place_id=ChIJn_zUt5BlGTkRmbEmkWJWqlY"
  },
  {
    "title": "Deep Luxury Wedding Cars",
    "categoryName": "Car rental agency",
    "address": "Ranjit Avenue, D-Block Rd, Gumtala, Amritsar, Punjab 143008, India",
    "neighborhood": "Gumtala Sub Urban, D - Block, Gumtala",
    "street": "Ranjit Avenue, D-Block Rd",
    "city": "Amritsar",
    "postalCode": "143008",
    "state": "Punjab",
    "countryCode": "IN",
    "website": "https://www.deepluxurycars.com/",
    "phone": "+919814485005",
    "phoneUnformatted": "+919814485005",
    "location": {
      "lat": 31.6628281,
      "lng": 74.8564266
    },
    "totalScore": 4.9,
    "permanentlyClosed": false,
    "temporarilyClosed": false,
    "placeId": "ChIJkye6UVx7GTkRZ4MDxWlh8mU",
    "categories": [
      "Car rental agency"
    ],
    "reviewsCount": 139,
    "imagesCount": 86,
    "openingHours": [
      {
        "day": "Monday",
        "hours": "Open 24 hours"
      },
      {
        "day": "Tuesday",
        "hours": "Open 24 hours"
      },
      {
        "day": "Wednesday",
        "hours": "Open 24 hours"
      },
      {
        "day": "Thursday",
        "hours": "Open 24 hours"
      },
      {
        "day": "Friday",
        "hours": "Open 24 hours"
      },
      {
        "day": "Saturday",
        "hours": "Open 24 hours"
      },
      {
        "day": "Sunday",
        "hours": "Open 24 hours"
      }
    ],
    "imageUrl": "https://media.indianluxurycars.com/google/dba9dab119c74b358b84064817870dc6e62079cf13fba5a283b411ec643b5729.jpg",
    "url": "https://www.google.com/maps/search/?api=1&query=Deep%20Luxury%20Wedding%20Cars&query_place_id=ChIJkye6UVx7GTkRZ4MDxWlh8mU"
  },
  {
    "title": "Gill luxury cars- luxury wedding cars rental amritsar punjab",
    "subTitle": "‡®ó‡®ø‡®≤ ‡®≤‡®ó‡®ú‡®º‡®∞‡©Ä ‡®ï‡®æ‡®∞‡®æ‡®Ç ‡®∞‡©à‡®Ç‡®ü‡®≤",
    "categoryName": "Car rental agency",
    "address": "Golden Temple Out Rd, Janta Watch Co., Outside Hall Gate, Hathi Gate, Katra Ahluwalia, Amritsar, Punjab 143006, India",
    "neighborhood": "Janta Watch Co., Outside Hall Gate, Hathi Gate, Katra Ahluwalia",
    "street": "Golden Temple Out Rd",
    "city": "Amritsar",
    "postalCode": "143006",
    "state": "Punjab",
    "countryCode": "IN",
    "website": "https://sites.google.com/view/gillluxurycars/home",
    "phone": "+919639230001",
    "phoneUnformatted": "+919639230001",
    "location": {
      "lat": 31.6310564,
      "lng": 74.873945
    },
    "totalScore": 5,
    "permanentlyClosed": false,
    "temporarilyClosed": false,
    "placeId": "ChIJSU3HF_plGTkRpBbsnTQuQgg",
    "categories": [
      "Car rental agency"
    ],
    "reviewsCount": 60,
    "imagesCount": 74,
    "openingHours": [
      {
        "day": "Monday",
        "hours": "Open 24 hours"
      },
      {
        "day": "Tuesday",
        "hours": "Open 24 hours"
      },
      {
        "day": "Wednesday",
        "hours": "Open 24 hours"
      },
      {
        "day": "Thursday",
        "hours": "Open 24 hours"
      },
      {
        "day": "Friday",
        "hours": "Open 24 hours"
      },
      {
        "day": "Saturday",
        "hours": "Open 24 hours"
      },
      {
        "day": "Sunday",
        "hours": "Open 24 hours"
      }
    ],
    "imageUrl": "https://media.indianluxurycars.com/google/21216d6e50a51854033e2b36f7d679f421e126ce1e977de99122c587426846aa.jpg",
    "url": "https://www.google.com/maps/search/?api=1&query=Gill%20luxury%20cars-%20luxury%20wedding%20cars%20rental%20amritsar%20punjab&query_place_id=ChIJSU3HF_plGTkRpBbsnTQuQgg"
  },
  {
    "title": "Guru Kirpa Travels",
    "subTitle": "‡®ó‡©Å‡®∞‡©Ç ‡®ï‡®ø‡®∞‡®™‡®æ ‡®ü‡®∞‡©à‡®µ‡®≤‡®ú‡®º",
    "categoryName": "Car rental agency",
    "address": "Opp. Power House, Outside Hall Gate, Hall Gate, Hathi Gate, Katra Ahluwalia, Amritsar, Punjab 143006, India",
    "neighborhood": "Opp. Power House, Outside Hall Gate, Hall Gate, Hathi Gate, Katra Ahluwalia",
    "city": "Amritsar",
    "postalCode": "143006",
    "state": "Punjab",
    "countryCode": "IN",
    "website": "http://www.gurukirpatravels.in/",
    "phone": "+919417439001",
    "phoneUnformatted": "+919417439001",
    "location": {
      "lat": 31.6302156,
      "lng": 74.8724209
    },
    "totalScore": 4.7,
    "permanentlyClosed": false,
    "temporarilyClosed": false,
    "placeId": "ChIJc7vG1ap8GTkR29ZHBSMicTA",
    "categories": [
      "Car rental agency"
    ],
    "reviewsCount": 87,
    "imagesCount": 71,
    "openingHours": [
      {
        "day": "Monday",
        "hours": "Open 24 hours"
      },
      {
        "day": "Tuesday",
        "hours": "Open 24 hours"
      },
      {
        "day": "Wednesday",
        "hours": "Open 24 hours"
      },
      {
        "day": "Thursday",
        "hours": "Open 24 hours"
      },
      {
        "day": "Friday",
        "hours": "Open 24 hours"
      },
      {
        "day": "Saturday",
        "hours": "Open 24 hours"
      },
      {
        "day": "Sunday",
        "hours": "Open 24 hours"
      }
    ],
    "imageUrl": "https://media.indianluxurycars.com/google/356573f79ba840475bee1213c346373480f875ea1e6c895380ecb1149a39a7e0.jpg",
    "url": "https://www.google.com/maps/search/?api=1&query=Guru%20Kirpa%20Travels&query_place_id=ChIJc7vG1ap8GTkR29ZHBSMicTA"
  },
  {
    "title": "Hari Travels-Car Hire in Amritsar, Dzire-Innova Crysta, Etios",
    "subTitle": "‡®π‡®∞‡©Ä ‡®ü‡®∞‡©à‡®µ‡®≤‡®ú‡®º",
    "categoryName": "Car rental agency",
    "address": "Shop No. 38, Goal Bagh, Taxi Stand Market, Amritsar, Punjab 143001, India",
    "neighborhood": "Narain Nagar, Goal Bagh",
    "street": "Shop No. 38, Goal Bagh, Taxi Stand Market",
    "city": "Amritsar",
    "postalCode": "143001",
    "state": "Punjab",
    "countryCode": "IN",
    "website": "http://www.carhireinamritsar.com/",
    "phone": "+919914211555",
    "phoneUnformatted": "+919914211555",
    "location": {
      "lat": 31.631483,
      "lng": 74.868741
    },
    "totalScore": 4.8,
    "permanentlyClosed": false,
    "temporarilyClosed": false,
    "placeId": "ChIJ5T1JjKtkGTkRJB9trxju-e4",
    "categories": [
      "Car rental agency",
      "Car leasing service",
      "Sightseeing tour agency",
      "Taxi service",
      "Taxicab Stand"
    ],
    "reviewsCount": 106,
    "imagesCount": 15,
    "openingHours": [
      {
        "day": "Monday",
        "hours": "Open 24 hours"
      },
      {
        "day": "Tuesday",
        "hours": "Open 24 hours"
      },
      {
        "day": "Wednesday",
        "hours": "Open 24 hours"
      },
      {
        "day": "Thursday",
        "hours": "Open 24 hours"
      },
      {
        "day": "Friday",
        "hours": "Open 24 hours"
      },
      {
        "day": "Saturday",
        "hours": "Open 24 hours"
      },
      {
        "day": "Sunday",
        "hours": "Open 24 hours"
      }
    ],
    "imageUrl": "https://media.indianluxurycars.com/google/fb572efea5136e5e19564bcf3c220f4f30f19a17a5afd343533f3e157904be06.jpg",
    "url": "https://www.google.com/maps/search/?api=1&query=Hari%20Travels-Car%20Hire%20in%20Amritsar%2C%20Dzire-Innova%20Crysta%2C%20Etios&query_place_id=ChIJ5T1JjKtkGTkRJB9trxju-e4"
  },
  {
    "title": "Holy City Cab Rental",
    "categoryName": "Car rental agency",
    "address": "Shop No. 31, Taxi Stand Market, opp. Railway Station, Goal Bagh, Amritsar, Punjab 143001, India",
    "neighborhood": "Narain Nagar, Goal Bagh",
    "street": "Shop No. 31, Taxi Stand Market, opp. Railway Station",
    "city": "Amritsar",
    "postalCode": "143001",
    "state": "Punjab",
    "countryCode": "IN",
    "website": "https://www.amritsarcabbooking.com/",
    "phone": "+919878007599",
    "phoneUnformatted": "+919878007599",
    "location": {
      "lat": 31.6315259,
      "lng": 74.8689633
    },
    "totalScore": 4.9,
    "permanentlyClosed": false,
    "temporarilyClosed": false,
    "placeId": "ChIJWXLjF-V9GTkR-014Zr7qpO8",
    "categories": [
      "Car rental agency",
      "Bus tour agency",
      "Car leasing service",
      "Taxi service",
      "Tour agency",
      "Tour operator"
    ],
    "reviewsCount": 269,
    "imagesCount": 94,
    "openingHours": [],
    "imageUrl": "https://media.indianluxurycars.com/google/2781688ef1102b51b24bb3c9427585768912502b3cff384fa540d4a890848d64.jpg",
    "url": "https://www.google.com/maps/search/?api=1&query=Holy%20City%20Cab%20Rental&query_place_id=ChIJWXLjF-V9GTkR-014Zr7qpO8"
  },
  {
    "title": "JACK CABS-NRI Cars Rental/Luxury Wedding Cars Rental/Wedding Cars Hire/Self Drive Cars Rental in Amritsar",
    "categoryName": "Car leasing service",
    "address": "royal enfield, near bhk, Gumtala Sub Urban, B - Block, Ranjit Avenue, Amritsar, Punjab 143001, India",
    "neighborhood": "Gumtala Sub Urban, B - Block, Ranjit Avenue",
    "street": "royal enfield, near bhk",
    "city": "Amritsar",
    "postalCode": "143001",
    "state": "Punjab",
    "countryCode": "IN",
    "website": "https://www.instagram.com/self_drive_punjab?igsh=MWtjZm9ueTY3aWRvMg%3D%3D&utm_source=qr",
    "phone": "+919779091281",
    "phoneUnformatted": "+919779091281",
    "location": {
      "lat": 31.6573174,
      "lng": 74.860328
    },
    "totalScore": 3,
    "permanentlyClosed": false,
    "temporarilyClosed": false,
    "placeId": "ChIJb6Q0j2hlGTkRtOariL57YBw",
    "categories": [
      "Car leasing service"
    ],
    "reviewsCount": 2,
    "imagesCount": 45,
    "openingHours": [
      {
        "day": "Monday",
        "hours": "Open 24 hours"
      },
      {
        "day": "Tuesday",
        "hours": "Open 24 hours"
      },
      {
        "day": "Wednesday",
        "hours": "Open 24 hours"
      },
      {
        "day": "Thursday",
        "hours": "Open 24 hours"
      },
      {
        "day": "Friday",
        "hours": "Open 24 hours"
      },
      {
        "day": "Saturday",
        "hours": "Open 24 hours"
      },
      {
        "day": "Sunday",
        "hours": "Open 24 hours"
      }
    ],
    "imageUrl": "https://media.indianluxurycars.com/google/659ba4310fda713d058670133336701e90894f7d29337bde1ea3495133f165b3.jpg",
    "url": "https://www.google.com/maps/search/?api=1&query=JACK%20CABS-NRI%20Cars%20Rental%2FLuxury%20Wedding%20Cars%20Rental%2FWedding%20Cars%20Hire%2FSelf%20Drive%20Cars%20Rental%20in%20Amritsar&query_place_id=ChIJb6Q0j2hlGTkRtOariL57YBw"
  },
  {
    "title": "John Luxury cab service Amritsar",
    "categoryName": "Car rental agency",
    "address": "Street no 10, Chabal Rd, Dashmesh city, Indra Colony, Amritsar, Punjab 143001, India",
    "neighborhood": "Dashmesh city, Indra Colony",
    "street": "Street no 10, Chabal Rd",
    "city": "Amritsar",
    "postalCode": "143001",
    "state": "Punjab",
    "countryCode": "IN",
    "location": {
      "lat": 31.6150908,
      "lng": 74.8556662
    },
    "totalScore": 5,
    "permanentlyClosed": false,
    "temporarilyClosed": false,
    "placeId": "ChIJo7NLS7V9GTkRGk_F3GszL1M",
    "categories": [
      "Car rental agency"
    ],
    "reviewsCount": 28,
    "imagesCount": 114,
    "openingHours": [
      {
        "day": "Monday",
        "hours": "Open 24 hours"
      },
      {
        "day": "Tuesday",
        "hours": "Open 24 hours"
      },
      {
        "day": "Wednesday",
        "hours": "Open 24 hours"
      },
      {
        "day": "Thursday",
        "hours": "Open 24 hours"
      },
      {
        "day": "Friday",
        "hours": "Open 24 hours"
      },
      {
        "day": "Saturday",
        "hours": "Open 24 hours"
      },
      {
        "day": "Sunday",
        "hours": "Open 24 hours"
      }
    ],
    "imageUrl": "https://media.indianluxurycars.com/google/c318eae90803413d35310c62abfef3604adea53e1059a811b7c513d54c479179.jpg",
    "url": "https://www.google.com/maps/search/?api=1&query=John%20Luxury%20cab%20service%20Amritsar&query_place_id=ChIJo7NLS7V9GTkRGk_F3GszL1M"
  },
  {
    "title": "Jwala, Amritsar Taxi Service - Hire Innova/Crysta, Etios, Dzire Cabs",
    "subTitle": "‡®ú‡®µ‡®æ‡®≤‡®æ ‡®ü‡©Ç‡®∞ ‡®Ö‡®§‡©á ‡®ü‡®∞‡©à‡®µ‡®≤‡®ú‡®º",
    "categoryName": "Car rental agency",
    "address": "Shop No 14, Goal Bagh, Opp. Railway Station Reservation Office, Amritsar, Punjab 143001, India",
    "neighborhood": "Narain Nagar, Goal Bagh",
    "street": "Shop No 14, Goal Bagh, Opp. Railway Station Reservation Office",
    "city": "Amritsar",
    "postalCode": "143001",
    "state": "Punjab",
    "countryCode": "IN",
    "website": "http://www.amritsartaxi.in/",
    "phone": "+919876701551",
    "phoneUnformatted": "+919876701551",
    "location": {
      "lat": 31.630071,
      "lng": 74.86865
    },
    "totalScore": 4.7,
    "permanentlyClosed": false,
    "temporarilyClosed": false,
    "placeId": "ChIJWZ4xeatkGTkRl_gaRQ4UISo",
    "categories": [
      "Car rental agency",
      "Car leasing service",
      "Taxi service",
      "Minibus taxi service",
      "Tour agency",
      "Tour operator"
    ],
    "reviewsCount": 312,
    "imagesCount": 119,
    "openingHours": [],
    "imageUrl": "https://media.indianluxurycars.com/google/07c0422f1ddc3cb3260a9d9262ec540442d171a5bed894b0d2e08050a37cf76f.jpg",
    "url": "https://www.google.com/maps/search/?api=1&query=Jwala%2C%20Amritsar%20Taxi%20Service%20-%20Hire%20Innova%2FCrysta%2C%20Etios%2C%20Dzire%20Cabs&query_place_id=ChIJWZ4xeatkGTkRl_gaRQ4UISo"
  },
  {
    "title": "Karan Car Rental Tempo Traveller Taxi Services",
    "subTitle": "‡®ï‡®∞‡®® ‡®ï‡®æ‡®∞ ‡®∞‡©á‡®Ç‡®ü",
    "categoryName": "Car rental agency",
    "address": "Shop No 19, AJ Towers, Court Rd, INA Colony, Amritsar, Punjab 143001, India",
    "neighborhood": "INA Colony",
    "street": "Shop No 19, AJ Towers, Court Rd",
    "city": "Amritsar",
    "postalCode": "143001",
    "state": "Punjab",
    "countryCode": "IN",
    "website": "https://www.karancarrental.com/",
    "phone": "+919417867694",
    "phoneUnformatted": "+919417867694",
    "location": {
      "lat": 31.6354998,
      "lng": 74.8697303
    },
    "totalScore": 4.8,
    "permanentlyClosed": false,
    "temporarilyClosed": false,
    "placeId": "ChIJPXZe8qtkGTkROPFB9F_0eic",
    "categories": [
      "Car rental agency",
      "Bus charter",
      "Car leasing service",
      "Taxi service",
      "Minibus taxi service",
      "Sightseeing tour agency",
      "Taxicab Stand",
      "Tour operator",
      "Tourist information center",
      "Transportation service"
    ],
    "reviewsCount": 639,
    "imagesCount": 326,
    "openingHours": [],
    "imageUrl": "https://media.indianluxurycars.com/google/24240a1f2423f77900723d2df40013df1ed063d6d7c89624aa0acf152d11bc62.jpg",
    "url": "https://www.google.com/maps/search/?api=1&query=Karan%20Car%20Rental%20Tempo%20Traveller%20Taxi%20Services&query_place_id=ChIJPXZe8qtkGTkROPFB9F_0eic"
  },
  {
    "title": "Karsella Second Hand Car's Dealership Amritsar",
    "categoryName": "Used car dealer",
    "address": "Shop No. 4, Gupta carpet market, Ajnala Rd, near PNB bank, opposite UK international palace, Gumtala Sub Urban, Gumtala, Amritsar, Punjab 143008, India",
    "neighborhood": "Gumtala Sub Urban, Gumtala",
    "street": "Shop No. 4, Gupta carpet market, Ajnala Rd, near PNB bank, opposite UK international palace",
    "city": "Amritsar",
    "postalCode": "143008",
    "state": "Punjab",
    "countryCode": "IN",
    "location": {
      "lat": 31.6651781,
      "lng": 74.8452127
    },
    "totalScore": 3,
    "permanentlyClosed": false,
    "temporarilyClosed": false,
    "placeId": "ChIJV6zw2kllGTkR4blegrTaGx8",
    "categories": [
      "Used car dealer",
      "Motor vehicle dealer",
      "Vehicle inspection service"
    ],
    "reviewsCount": 2,
    "imagesCount": 3,
    "openingHours": [
      {
        "day": "Monday",
        "hours": "9‚ÄØAM to 5‚ÄØPM"
      },
      {
        "day": "Tuesday",
        "hours": "9‚ÄØAM to 5‚ÄØPM"
      },
      {
        "day": "Wednesday",
        "hours": "9‚ÄØAM to 5‚ÄØPM"
      },
      {
        "day": "Thursday",
        "hours": "9‚ÄØAM to 5‚ÄØPM"
      },
      {
        "day": "Friday",
        "hours": "9‚ÄØAM to 5‚ÄØPM"
      },
      {
        "day": "Saturday",
        "hours": "5‚ÄØAM to 5‚ÄØPM"
      },
      {
        "day": "Sunday",
        "hours": "9‚ÄØAM to 5‚ÄØPM"
      }
    ],
    "imageUrl": "https://media.indianluxurycars.com/google/67e29a45390761bcd43bd55559a354ab581be70d403b969b4d9436caa94bcea1.jpg",
    "url": "https://www.google.com/maps/search/?api=1&query=Karsella%20Second%20Hand%20Car's%20Dealership%20Amritsar&query_place_id=ChIJV6zw2kllGTkR4blegrTaGx8"
  },
  {
    "title": "Khushi Tour & Travels Amritsar Taxi Services",
    "categoryName": "Car rental agency",
    "address": "Shop No. 2, MC, Queens Rd, opposite Hotel London Streets, Crystal Chowk, INA Colony, Amritsar, Punjab 143001, India",
    "neighborhood": "Crystal Chowk, INA Colony",
    "street": "Shop No. 2, MC, Queens Rd, opposite Hotel London Streets",
    "city": "Amritsar",
    "postalCode": "143001",
    "state": "Punjab",
    "countryCode": "IN",
    "website": "http://www.khushitourandtravels.com/",
    "phone": "+919814545075",
    "phoneUnformatted": "+919814545075",
    "location": {
      "lat": 31.6349968,
      "lng": 74.87218
    },
    "totalScore": 4.8,
    "permanentlyClosed": false,
    "temporarilyClosed": false,
    "placeId": "ChIJI4smf6hlGTkR_9SethDag44",
    "categories": [
      "Car rental agency",
      "Tour operator",
      "Minibus taxi service",
      "Taxi service",
      "Tour agency",
      "Travel agency",
      "Travel lounge"
    ],
    "reviewsCount": 227,
    "imagesCount": 163,
    "openingHours": [
      {
        "day": "Monday",
        "hours": "Open 24 hours"
      },
      {
        "day": "Tuesday",
        "hours": "Open 24 hours"
      },
      {
        "day": "Wednesday",
        "hours": "Open 24 hours"
      },
      {
        "day": "Thursday",
        "hours": "Open 24 hours"
      },
      {
        "day": "Friday",
        "hours": "Open 24 hours"
      },
      {
        "day": "Saturday",
        "hours": "Open 24 hours"
      },
      {
        "day": "Sunday",
        "hours": "Open 24 hours"
      }
    ],
    "imageUrl": "https://media.indianluxurycars.com/google/987eba6b0b22d05406e26557613f438b0d75016f907a4f2c566c23eb581b91ca.jpg",
    "url": "https://www.google.com/maps/search/?api=1&query=Khushi%20Tour%20%26%20Travels%20Amritsar%20Taxi%20Services&query_place_id=ChIJI4smf6hlGTkR_9SethDag44"
  },
  {
    "title": "Kissan Travels",
    "subTitle": "‡®ï‡®ø‡®∏‡®æ‡®® ‡®ü‡©ç‡®∞‡©á‡®µ‡®≤‡©ç‡®∏",
    "categoryName": "Car rental agency",
    "address": "Shop no. 10, opposite Railway Station Road, Narain Nagar, Goal Bagh, Amritsar, Punjab 143001, India",
    "neighborhood": "Narain Nagar, Goal Bagh",
    "street": "Shop no. 10, opposite Railway Station Road",
    "city": "Amritsar",
    "postalCode": "143001",
    "state": "Punjab",
    "countryCode": "IN",
    "website": "https://kissantravelsamritsar.com/",
    "phone": "+919814737294",
    "phoneUnformatted": "+919814737294",
    "location": {
      "lat": 31.6320535,
      "lng": 74.8691249
    },
    "totalScore": 4.5,
    "permanentlyClosed": false,
    "temporarilyClosed": false,
    "placeId": "ChIJL0y37Nx8GTkRqwRA0Jfvdmw",
    "categories": [
      "Car rental agency",
      "Bus company",
      "Bus tour agency",
      "Travel agency",
      "Minibus taxi service",
      "Sightseeing tour agency",
      "Taxi service",
      "Tour agency",
      "Tour operator"
    ],
    "reviewsCount": 170,
    "imagesCount": 169,
    "openingHours": [
      {
        "day": "Monday",
        "hours": "9‚ÄØAM to 9‚ÄØPM"
      },
      {
        "day": "Tuesday",
        "hours": "9‚ÄØAM to 9‚ÄØPM"
      },
      {
        "day": "Wednesday",
        "hours": "9‚ÄØAM to 9‚ÄØPM"
      },
      {
        "day": "Thursday",
        "hours": "9‚ÄØAM to 9‚ÄØPM"
      },
      {
        "day": "Friday",
        "hours": "9‚ÄØAM to 9‚ÄØPM"
      },
      {
        "day": "Saturday",
        "hours": "9‚ÄØAM to 12‚ÄØAM"
      },
      {
        "day": "Sunday",
        "hours": "12 to 8‚ÄØAM, 9‚ÄØAM to 8‚ÄØPM"
      }
    ],
    "imageUrl": "https://media.indianluxurycars.com/google/24757ef221c3177d342c4b1b9265b670d9f6ad82df2fe6f502a18003755be980.jpg",
    "url": "https://www.google.com/maps/search/?api=1&query=Kissan%20Travels&query_place_id=ChIJL0y37Nx8GTkRqwRA0Jfvdmw"
  },
  {
    "title": "Luxury wedding cars-Amritsar Jalandhar ludhiana Chandigarh Pathankot Jammu",
    "categoryName": "Car rental agency",
    "address": "SCO 117, Gumtala Sub Urban, B - Block, Ranjit Avenue, Amritsar, Punjab 143001, India",
    "neighborhood": "Gumtala Sub Urban, B - Block, Ranjit Avenue",
    "street": "SCO 117",
    "city": "Amritsar",
    "postalCode": "143001",
    "state": "Punjab",
    "countryCode": "IN",
    "website": "https://m.facebook.com/weddingwheelsindia/",
    "phone": "+919115882095",
    "phoneUnformatted": "+919115882095",
    "location": {
      "lat": 31.6562464,
      "lng": 74.8625126
    },
    "totalScore": 1,
    "permanentlyClosed": false,
    "temporarilyClosed": false,
    "placeId": "ChIJ40JTQPJlGTkR6DJvpS_2l3A",
    "categories": [
      "Car rental agency"
    ],
    "reviewsCount": 1,
    "imagesCount": 23,
    "openingHours": [
      {
        "day": "Monday",
        "hours": "Open 24 hours"
      },
      {
        "day": "Tuesday",
        "hours": "Open 24 hours"
      },
      {
        "day": "Wednesday",
        "hours": "Open 24 hours"
      },
      {
        "day": "Thursday",
        "hours": "Open 24 hours"
      },
      {
        "day": "Friday",
        "hours": "Open 24 hours"
      },
      {
        "day": "Saturday",
        "hours": "Open 24 hours"
      },
      {
        "day": "Sunday",
        "hours": "Open 24 hours"
      }
    ],
    "imageUrl": "https://media.indianluxurycars.com/google/c3043243d4e752d320bb0590518627dc5b0b6979a9c6453166519e1fbfcbeb72.jpg",
    "url": "https://www.google.com/maps/search/?api=1&query=Luxury%20wedding%20cars-Amritsar%20Jalandhar%20ludhiana%20Chandigarh%20Pathankot%20Jammu&query_place_id=ChIJ40JTQPJlGTkR6DJvpS_2l3A"
  },
  {
    "title": "North Escape Tours - Taxi service Amritsar",
    "categoryName": "Car rental agency",
    "address": "Shop no. 3, near Railway Station Road, Narain Nagar, Goal Bagh, Amritsar, Punjab 143001, India",
    "neighborhood": "Narain Nagar, Goal Bagh",
    "street": "Shop no. 3, near Railway Station Road",
    "city": "Amritsar",
    "postalCode": "143001",
    "state": "Punjab",
    "countryCode": "IN",
    "website": "http://www.northescapetours.in/",
    "phone": "+918054610002",
    "phoneUnformatted": "+918054610002",
    "location": {
      "lat": 31.632204,
      "lng": 74.8687194
    },
    "totalScore": 5,
    "permanentlyClosed": false,
    "temporarilyClosed": false,
    "placeId": "ChIJaZ_aON59GTkRyNDJ6SLberA",
    "categories": [
      "Car rental agency",
      "Car leasing service",
      "Taxi service",
      "Tour agency",
      "Tour operator",
      "Travel agency"
    ],
    "reviewsCount": 88,
    "imagesCount": 29,
    "openingHours": [],
    "imageUrl": "https://media.indianluxurycars.com/google/7c47a47863bc1ca721e5b52f1beae7274113b8c78a5e7d6ae4b5ca2c179b8be8.jpg",
    "url": "https://www.google.com/maps/search/?api=1&query=North%20Escape%20Tours%20-%20Taxi%20service%20Amritsar&query_place_id=ChIJaZ_aON59GTkRyNDJ6SLberA"
  },
  {
    "title": "North Hub Holidays",
    "categoryName": "Car rental agency",
    "address": "Baba Deep Singh Avenue, 27, Fateh Garh Churian Rd, near Vrindavan Garden, Kamla Devi Avenue, Amritsar, Punjab 143001, India",
    "neighborhood": "Kamla Devi Avenue",
    "street": "Baba Deep Singh Avenue, 27, Fateh Garh Churian Rd, near Vrindavan Garden",
    "city": "Amritsar",
    "postalCode": "143001",
    "state": "Punjab",
    "countryCode": "IN",
    "website": "http://www.northhubholidays.com/",
    "phone": "+918288861788",
    "phoneUnformatted": "+918288861788",
    "location": {
      "lat": 31.6781515,
      "lng": 74.8801916
    },
    "totalScore": 4.9,
    "permanentlyClosed": false,
    "temporarilyClosed": false,
    "placeId": "ChIJvXUn8IhjGTkRVdzfqrcibMA",
    "categories": [
      "Car rental agency",
      "Sightseeing tour agency",
      "Taxi service",
      "Tour agency",
      "Tour operator",
      "Travel agency"
    ],
    "reviewsCount": 67,
    "imagesCount": 75,
    "openingHours": [
      {
        "day": "Monday",
        "hours": "Open 24 hours"
      },
      {
        "day": "Tuesday",
        "hours": "Open 24 hours"
      },
      {
        "day": "Wednesday",
        "hours": "Open 24 hours"
      },
      {
        "day": "Thursday",
        "hours": "8:30‚ÄØAM to 7‚ÄØPM"
      },
      {
        "day": "Friday",
        "hours": "Open 24 hours"
      },
      {
        "day": "Saturday",
        "hours": "Open 24 hours"
      },
      {
        "day": "Sunday",
        "hours": "8‚ÄØAM to 12‚ÄØPM"
      }
    ],
    "imageUrl": "https://media.indianluxurycars.com/google/556f4654e0cb87a0eba3f4a061284632adf4cf224fd37febf36d563ee1933416.jpg",
    "url": "https://www.google.com/maps/search/?api=1&query=North%20Hub%20Holidays&query_place_id=ChIJvXUn8IhjGTkRVdzfqrcibMA"
  },
  {
    "title": "Northway Cabs",
    "categoryName": "Car leasing service",
    "address": "Shop No.162, Opp, Railway Station Rd, near Liberty Market, Liberty Market, INA Colony, Amritsar, Punjab 143001, India",
    "neighborhood": "Liberty Market, INA Colony",
    "street": "Shop No.162, Opp, Railway Station Rd, near Liberty Market",
    "city": "Amritsar",
    "postalCode": "143001",
    "state": "Punjab",
    "countryCode": "IN",
    "website": "https://www.northwaycabs.com/",
    "phone": "+919814958316",
    "phoneUnformatted": "+919814958316",
    "location": {
      "lat": 31.6355454,
      "lng": 74.8676982
    },
    "totalScore": 4.9,
    "permanentlyClosed": false,
    "temporarilyClosed": false,
    "placeId": "ChIJuQKvzsplGTkR135ohrChhtQ",
    "categories": [
      "Car leasing service",
      "Taxi service"
    ],
    "reviewsCount": 110,
    "imagesCount": 268,
    "openingHours": [],
    "imageUrl": "https://media.indianluxurycars.com/google/5defbe32589ed76b7c1500cbea094aa2bd6c09971152e14310bbff15697ecb1b.jpg",
    "url": "https://www.google.com/maps/search/?api=1&query=Northway%20Cabs&query_place_id=ChIJuQKvzsplGTkR135ohrChhtQ"
  },
  {
    "title": "OVO Cabs -Amritsar Self Drive Car Rental",
    "categoryName": "Car rental agency",
    "address": "3rd Floor, SCO 130, Gumtala Sub Urban, D - Block, Ranjit Avenue, Amritsar, Punjab 143001, India",
    "neighborhood": "Gumtala Sub Urban, D - Block, Ranjit Avenue",
    "street": "3rd Floor, SCO 130",
    "city": "Amritsar",
    "postalCode": "143001",
    "state": "Punjab",
    "countryCode": "IN",
    "website": "http://www.ovocabs.in/",
    "phone": "+919914255754",
    "phoneUnformatted": "+919914255754",
    "location": {
      "lat": 31.6559857,
      "lng": 74.8546482
    },
    "totalScore": 4.4,
    "permanentlyClosed": false,
    "temporarilyClosed": false,
    "placeId": "ChIJ-x_h3VdjGTkRdfnlXT6GWPA",
    "categories": [
      "Car rental agency",
      "Car leasing service",
      "Taxi service"
    ],
    "reviewsCount": 883,
    "imagesCount": 244,
    "openingHours": [
      {
        "day": "Monday",
        "hours": "9‚ÄØAM to 10‚ÄØPM"
      },
      {
        "day": "Tuesday",
        "hours": "9‚ÄØAM to 10‚ÄØPM"
      },
      {
        "day": "Wednesday",
        "hours": "9‚ÄØAM to 10‚ÄØPM"
      },
      {
        "day": "Thursday",
        "hours": "9‚ÄØAM to 10‚ÄØPM"
      },
      {
        "day": "Friday",
        "hours": "9‚ÄØAM to 10‚ÄØPM"
      },
      {
        "day": "Saturday",
        "hours": "9‚ÄØAM to 10‚ÄØPM"
      },
      {
        "day": "Sunday",
        "hours": "9‚ÄØAM to 10‚ÄØPM"
      }
    ],
    "imageUrl": "https://media.indianluxurycars.com/google/c67ee9215780e464318cf00b466ea8f268a6c2f0d7681af51228b6cd4daa58d4.jpg",
    "url": "https://www.google.com/maps/search/?api=1&query=OVO%20Cabs%20-Amritsar%20Self%20Drive%20Car%20Rental&query_place_id=ChIJ-x_h3VdjGTkRdfnlXT6GWPA"
  },
  {
    "title": "PLAN MY TRIP | Cabs In Amritsar | Taxi in Amritsar",
    "categoryName": "Car rental agency",
    "address": "109, Shivala Rd, opp. Shivala Mandir, Tilak Nagar, Amritsar, Punjab 143001, India",
    "neighborhood": "Tilak Nagar",
    "street": "109, Shivala Rd, opp. Shivala Mandir",
    "city": "Amritsar",
    "postalCode": "143001",
    "state": "Punjab",
    "countryCode": "IN",
    "website": "https://www.cabamritsar.com/",
    "phone": "+918500387000",
    "phoneUnformatted": "+918500387000",
    "location": {
      "lat": 31.6352259,
      "lng": 74.8851345
    },
    "totalScore": 5,
    "permanentlyClosed": false,
    "temporarilyClosed": false,
    "placeId": "ChIJ8UHK59djGTkRonKAilyc8No",
    "categories": [
      "Car rental agency",
      "Bus company",
      "Bus tour agency",
      "Taxi service",
      "Minibus taxi service",
      "Sightseeing tour agency",
      "Tour operator",
      "Travel agency"
    ],
    "reviewsCount": 557,
    "imagesCount": 32,
    "openingHours": [],
    "imageUrl": "https://media.indianluxurycars.com/google/90dff23ef0856f0f207b1795fe32c67f7c5b9ba6a8e51cb0809dcb002bace152.jpg",
    "url": "https://www.google.com/maps/search/?api=1&query=PLAN%20MY%20TRIP%20%7C%20Cabs%20In%20Amritsar%20%7C%20Taxi%20in%20Amritsar&query_place_id=ChIJ8UHK59djGTkRonKAilyc8No"
  },
  {
    "title": "PR Sharma Travels",
    "subTitle": "‡®™‡®∞ ‡®∏‡®º‡®∞‡®Æ‡®æ ‡®ü‡®∞‡©à‡®µ‡®≤‡®ú‡®º",
    "categoryName": "Car rental agency",
    "address": "Shop No. 53, First Floor, Gumtala Sub Urban, A - Block, Ranjit Avenue, Amritsar, Punjab 143001, India",
    "neighborhood": "Gumtala Sub Urban, A - Block, Ranjit Avenue",
    "street": "Shop No. 53, First Floor",
    "city": "Amritsar",
    "postalCode": "143001",
    "state": "Punjab",
    "countryCode": "IN",
    "website": "https://www.taxirentalamritsar.co.in/",
    "phone": "+919872960750",
    "phoneUnformatted": "+919872960750",
    "location": {
      "lat": 31.6493872,
      "lng": 74.8578238
    },
    "totalScore": 4.8,
    "permanentlyClosed": false,
    "temporarilyClosed": false,
    "placeId": "ChIJa2wwmkzZGzkRNGrD6v5J6mM",
    "categories": [
      "Car rental agency",
      "Car leasing service",
      "Taxi service",
      "Minibus taxi service",
      "Tour operator",
      "Travel agency",
      "Travel clinic"
    ],
    "reviewsCount": 129,
    "imagesCount": 109,
    "openingHours": [],
    "imageUrl": "https://media.indianluxurycars.com/google/06d79e3a24011d65be48d3eee649979b602fe3294ec97ad4d756107d3ad7f303.jpg",
    "url": "https://www.google.com/maps/search/?api=1&query=PR%20Sharma%20Travels&query_place_id=ChIJa2wwmkzZGzkRNGrD6v5J6mM"
  },
  {
    "title": "Prem Nath J Motors",
    "subTitle": "‡®™‡©ç‡®∞‡©á‡®Æ ‡®®‡®æ‡®• ‡®ú‡©á ‡®Æ‡©ã‡®ü‡®∞‡®ú‡®º",
    "categoryName": "Used car dealer",
    "address": "22, Race Course Rd, White Avenue, Amritsar, Punjab 143001, India",
    "neighborhood": "White Avenue",
    "street": "22, Race Course Rd",
    "city": "Amritsar",
    "postalCode": "143001",
    "state": "Punjab",
    "countryCode": "IN",
    "phone": "+919888184000",
    "phoneUnformatted": "+919888184000",
    "location": {
      "lat": 31.652438,
      "lng": 74.878603
    },
    "totalScore": 4.9,
    "permanentlyClosed": false,
    "temporarilyClosed": false,
    "placeId": "ChIJt4mCv2BjGTkRPPOz4k_uRao",
    "categories": [
      "Used car dealer",
      "Cars",
      "Car dealer"
    ],
    "reviewsCount": 36,
    "imagesCount": 9,
    "openingHours": [
      {
        "day": "Monday",
        "hours": "9:30‚ÄØAM to 8‚ÄØPM"
      },
      {
        "day": "Tuesday",
        "hours": "9:30‚ÄØAM to 8‚ÄØPM"
      },
      {
        "day": "Wednesday",
        "hours": "9:30‚ÄØAM to 8‚ÄØPM"
      },
      {
        "day": "Thursday",
        "hours": "9:30‚ÄØAM to 8‚ÄØPM"
      },
      {
        "day": "Friday",
        "hours": "9:30‚ÄØAM to 8‚ÄØPM"
      },
      {
        "day": "Saturday",
        "hours": "9:30‚ÄØAM to 8‚ÄØPM"
      },
      {
        "day": "Sunday",
        "hours": "Closed"
      }
    ],
    "imageUrl": "https://media.indianluxurycars.com/google/2ca9a20f1005cd8eb1f9f045d987ad20993403047afba7f45226b2f77fd2aa6e.jpg",
    "url": "https://www.google.com/maps/search/?api=1&query=Prem%20Nath%20J%20Motors&query_place_id=ChIJt4mCv2BjGTkRPPOz4k_uRao"
  },
  {
    "title": "PS MOTORS - Used Car Dealer In Amritsar",
    "categoryName": "Car dealer",
    "address": "street no 7, Loharka Rd, Gumtala Sub Urban, Ranjit Vihar, Gumtala, Amritsar, Punjab 143008, India",
    "neighborhood": "Gumtala Sub Urban, Ranjit Vihar, Gumtala",
    "street": "street no 7, Loharka Rd",
    "city": "Amritsar",
    "postalCode": "143008",
    "state": "Punjab",
    "countryCode": "IN",
    "phone": "+919877745030",
    "phoneUnformatted": "+919877745030",
    "location": {
      "lat": 31.6765898,
      "lng": 74.8644346
    },
    "totalScore": 5,
    "permanentlyClosed": false,
    "temporarilyClosed": false,
    "placeId": "ChIJg1IbghdlGTkRqNZYiMg0UPc",
    "categories": [
      "Car dealer"
    ],
    "reviewsCount": 12,
    "imagesCount": 17,
    "openingHours": [
      {
        "day": "Monday",
        "hours": "10‚ÄØAM to 7‚ÄØPM"
      },
      {
        "day": "Tuesday",
        "hours": "10‚ÄØAM to 7:30‚ÄØPM"
      },
      {
        "day": "Wednesday",
        "hours": "10‚ÄØAM to 7:30‚ÄØPM"
      },
      {
        "day": "Thursday",
        "hours": "10‚ÄØAM to 7:30‚ÄØPM"
      },
      {
        "day": "Friday",
        "hours": "10‚ÄØAM to 7:30‚ÄØPM"
      },
      {
        "day": "Saturday",
        "hours": "10‚ÄØAM to 7:30‚ÄØPM"
      },
      {
        "day": "Sunday",
        "hours": "Closed"
      }
    ],
    "imageUrl": "https://media.indianluxurycars.com/google/67417247a65dd7d53a5aa9b7fddebe62c584e4716c4d0727e50cf7dae5d765a8.jpg",
    "url": "https://www.google.com/maps/search/?api=1&query=PS%20MOTORS%20-%20Used%20Car%20Dealer%20In%20Amritsar&query_place_id=ChIJg1IbghdlGTkRqNZYiMg0UPc"
  },
  {
    "title": "Rajindera Travels - Car Rental in Amritsar, Taxi Service",
    "categoryName": "Car rental agency",
    "address": "Majitha Rd, Gopal Nagar, Amritsar, Punjab 143001, India",
    "neighborhood": "Gopal Nagar",
    "street": "Majitha Rd",
    "city": "Amritsar",
    "postalCode": "143001",
    "state": "Punjab",
    "countryCode": "IN",
    "website": "https://rajinderatravels.com/",
    "phone": "+919915581988",
    "phoneUnformatted": "+919915581988",
    "location": {
      "lat": 31.6522125,
      "lng": 74.8871676
    },
    "totalScore": 4.9,
    "permanentlyClosed": false,
    "temporarilyClosed": false,
    "placeId": "ChIJ2afD-mhjGTkRKdw4YYdNAec",
    "categories": [
      "Car rental agency",
      "Car leasing service",
      "Sightseeing tour agency",
      "Taxi service",
      "Tour operator",
      "Travel agency"
    ],
    "reviewsCount": 94,
    "imagesCount": 36,
    "openingHours": [
      {
        "day": "Monday",
        "hours": "Open 24 hours"
      },
      {
        "day": "Tuesday",
        "hours": "Open 24 hours"
      },
      {
        "day": "Wednesday",
        "hours": "Open 24 hours"
      },
      {
        "day": "Thursday",
        "hours": "Open 24 hours"
      },
      {
        "day": "Friday",
        "hours": "Open 24 hours"
      },
      {
        "day": "Saturday",
        "hours": "Open 24 hours"
      },
      {
        "day": "Sunday",
        "hours": "Open 24 hours"
      }
    ],
    "imageUrl": "https://media.indianluxurycars.com/google/2c056fc3881dbedd7b7d730137bbfc6089f57d885f0a10bc5ac07cd928f1ee87.jpg",
    "url": "https://www.google.com/maps/search/?api=1&query=Rajindera%20Travels%20-%20Car%20Rental%20in%20Amritsar%2C%20Taxi%20Service&query_place_id=ChIJ2afD-mhjGTkRKdw4YYdNAec"
  },
  {
    "title": "Rana Cabs Private Limited, Self Drive Car Rental Company Amritsar",
    "categoryName": "Car leasing service",
    "address": "opposite Railway Station, Hathi Gate, Goal Bagh, Amritsar, Punjab 143006, India",
    "neighborhood": "Hathi Gate, Goal Bagh",
    "street": "opposite Railway Station",
    "city": "Amritsar",
    "postalCode": "143006",
    "state": "Punjab",
    "countryCode": "IN",
    "website": "http://ranacabsamritsar.com/",
    "phone": "+917508812141",
    "phoneUnformatted": "+917508812141",
    "location": {
      "lat": 31.628865,
      "lng": 74.8724598
    },
    "totalScore": 3.5,
    "permanentlyClosed": false,
    "temporarilyClosed": false,
    "placeId": "ChIJUUpQqrhlGTkRK8bq6yMiCIU",
    "categories": [
      "Car leasing service"
    ],
    "reviewsCount": 8,
    "imagesCount": 31,
    "openingHours": [
      {
        "day": "Monday",
        "hours": "Open 24 hours"
      },
      {
        "day": "Tuesday",
        "hours": "Open 24 hours"
      },
      {
        "day": "Wednesday",
        "hours": "Open 24 hours"
      },
      {
        "day": "Thursday",
        "hours": "Open 24 hours"
      },
      {
        "day": "Friday",
        "hours": "Open 24 hours"
      },
      {
        "day": "Saturday",
        "hours": "Open 24 hours"
      },
      {
        "day": "Sunday",
        "hours": "Open 24 hours"
      }
    ],
    "imageUrl": "https://media.indianluxurycars.com/google/f0f91d2d34aef7217bd22c17d5e23faa26d7c47c561e9b6fb0547521a58de75d.jpg",
    "url": "https://www.google.com/maps/search/?api=1&query=Rana%20Cabs%20Private%20Limited%2C%20Self%20Drive%20Car%20Rental%20Company%20Amritsar&query_place_id=ChIJUUpQqrhlGTkRK8bq6yMiCIU"
  },
  {
    "title": "Randhawa Motors",
    "categoryName": "Used car dealer",
    "address": "Randhawa Heights, 1-A, Queens Rd, Crystal Chowk, INA Colony, Amritsar, Punjab 143001, India",
    "neighborhood": "Crystal Chowk, INA Colony",
    "street": "Randhawa Heights, 1-A, Queens Rd",
    "city": "Amritsar",
    "postalCode": "143001",
    "state": "Punjab",
    "countryCode": "IN",
    "website": "http://www.randhawamotors.in/",
    "phone": "+919814043481",
    "phoneUnformatted": "+919814043481",
    "location": {
      "lat": 31.6350243,
      "lng": 74.8724507
    },
    "totalScore": 4.9,
    "permanentlyClosed": false,
    "temporarilyClosed": false,
    "placeId": "ChIJTYHwvalkGTkRuK7-ApUU294",
    "categories": [
      "Used car dealer"
    ],
    "reviewsCount": 335,
    "imagesCount": 110,
    "openingHours": [
      {
        "day": "Monday",
        "hours": "9‚ÄØAM to 8‚ÄØPM"
      },
      {
        "day": "Tuesday",
        "hours": "9‚ÄØAM to 8‚ÄØPM"
      },
      {
        "day": "Wednesday",
        "hours": "9‚ÄØAM to 8‚ÄØPM"
      },
      {
        "day": "Thursday",
        "hours": "9‚ÄØAM to 8‚ÄØPM"
      },
      {
        "day": "Friday",
        "hours": "9‚ÄØAM to 8‚ÄØPM"
      },
      {
        "day": "Saturday",
        "hours": "9‚ÄØAM to 8‚ÄØPM"
      },
      {
        "day": "Sunday",
        "hours": "Closed"
      }
    ],
    "imageUrl": "https://media.indianluxurycars.com/google/3f25b6392afb5e2988c65d3737639f9458962eb5719e35bd6392e646e06dda96.png",
    "url": "https://www.google.com/maps/search/?api=1&query=Randhawa%20Motors&query_place_id=ChIJTYHwvalkGTkRuK7-ApUU294"
  },
  {
    "title": "RK Holidays ‚û≥ Taxi Cab in Amritsar ‚úàÔ∏é ‡™ú‚ÅÄ‚û¥ ‚õ∞Ô∏é Let us make your travel better",
    "categoryName": "Car rental agency",
    "address": "Shop No-6, near Railway Station Road, Guru Arjun Nagar, Amritsar, Punjab 143001, India",
    "neighborhood": "Guru Arjun Nagar",
    "street": "Shop No-6, near Railway Station Road",
    "city": "Amritsar",
    "postalCode": "143001",
    "state": "Punjab",
    "countryCode": "IN",
    "website": "https://www.taxiamritsar.in/",
    "phone": "+919779916161",
    "phoneUnformatted": "+919779916161",
    "location": {
      "lat": 31.6341896,
      "lng": 74.8682924
    },
    "totalScore": 4.9,
    "permanentlyClosed": false,
    "temporarilyClosed": false,
    "placeId": "ChIJLeHZSqlkGTkRpj_aM5w7adE",
    "categories": [
      "Car rental agency",
      "Bus tour agency",
      "Car leasing service",
      "Taxi service",
      "Hotel",
      "Taxicab Stand",
      "Tour agency",
      "Tour operator",
      "Tourist information center",
      "Travel agency"
    ],
    "reviewsCount": 1169,
    "imagesCount": 152,
    "openingHours": [],
    "imageUrl": "https://media.indianluxurycars.com/google/6d522a68212e80bb493ecf581d681025b313822dae1ad28e54509a94b8deb957.jpg",
    "url": "https://www.google.com/maps/search/?api=1&query=RK%20Holidays%20%E2%9E%B3%20Taxi%20Cab%20in%20Amritsar%20%E2%9C%88%EF%B8%8E%20%E0%AA%9C%E2%81%80%E2%9E%B4%20%E2%9B%B0%EF%B8%8E%20Let%20us%20make%20your%20travel%20better&query_place_id=ChIJLeHZSqlkGTkRpj_aM5w7adE"
  },
  {
    "title": "RTT",
    "categoryName": "Car rental agency",
    "address": "Back side passport office, 79, Kennedy Avenue, Amritsar, Punjab 143001, India",
    "neighborhood": "Kennedy Avenue",
    "street": "Back side passport office, 79",
    "city": "Amritsar",
    "postalCode": "143001",
    "state": "Punjab",
    "countryCode": "IN",
    "website": "https://ranveertravels.com/",
    "phone": "+919888484838",
    "phoneUnformatted": "+919888484838",
    "location": {
      "lat": 31.6413452,
      "lng": 74.8648274
    },
    "totalScore": 4.9,
    "permanentlyClosed": false,
    "temporarilyClosed": false,
    "placeId": "ChIJAQAA5aRkGTkRmVo0rRAw8tg",
    "categories": [
      "Car rental agency",
      "Car leasing service",
      "Taxi service",
      "Minibus taxi service",
      "Taxicab Stand",
      "Tour operator",
      "Travel agency"
    ],
    "reviewsCount": 460,
    "imagesCount": 208,
    "openingHours": [],
    "imageUrl": "https://media.indianluxurycars.com/google/618a2facfc16da73cae788f20d3f4f7a59b31edfdec242b147a9e5a485fdb51b.jpg",
    "url": "https://www.google.com/maps/search/?api=1&query=RTT&query_place_id=ChIJAQAA5aRkGTkRmVo0rRAw8tg"
  },
  {
    "title": "Self Drive Car Hire Amritsar",
    "categoryName": "Car rental agency",
    "address": "21, third floor, AJ Towers, Court Rd, opp. Hdfc Bank, INA Colony, Amritsar, Punjab 143001, India",
    "neighborhood": "INA Colony",
    "street": "21, third floor, AJ Towers, Court Rd, opp. Hdfc Bank",
    "city": "Amritsar",
    "postalCode": "143001",
    "state": "Punjab",
    "countryCode": "IN",
    "website": "https://www.amritsarrentacar.com/",
    "phone": "+916262772222",
    "phoneUnformatted": "+916262772222",
    "location": {
      "lat": 31.6357611,
      "lng": 74.8693762
    },
    "totalScore": 4.3,
    "permanentlyClosed": false,
    "temporarilyClosed": false,
    "placeId": "ChIJQ_mFPo9lGTkRP9R-IULsi08",
    "categories": [
      "Car rental agency",
      "Car leasing service",
      "Travel agency"
    ],
    "reviewsCount": 6,
    "imagesCount": 29,
    "openingHours": [
      {
        "day": "Monday",
        "hours": "9‚ÄØAM to 8‚ÄØPM"
      },
      {
        "day": "Tuesday",
        "hours": "9‚ÄØAM to 8‚ÄØPM"
      },
      {
        "day": "Wednesday",
        "hours": "9‚ÄØAM to 8‚ÄØPM"
      },
      {
        "day": "Thursday",
        "hours": "9‚ÄØAM to 8‚ÄØPM"
      },
      {
        "day": "Friday",
        "hours": "9‚ÄØAM to 8‚ÄØPM"
      },
      {
        "day": "Saturday",
        "hours": "9‚ÄØAM to 10‚ÄØPM"
      },
      {
        "day": "Sunday",
        "hours": "9‚ÄØAM to 8‚ÄØPM"
      }
    ],
    "imageUrl": "https://media.indianluxurycars.com/google/6ef7b49c1fb0ffe053418e12825ca66445ef16c1c32876e168ada31739bc8ffb.jpg",
    "url": "https://www.google.com/maps/search/?api=1&query=Self%20Drive%20Car%20Hire%20Amritsar&query_place_id=ChIJQ_mFPo9lGTkRP9R-IULsi08"
  },
  {
    "title": "Sharma Travels - Self Drive Cars Amritsar",
    "categoryName": "Car rental agency",
    "address": "Shop No. 116, 3rd Floor, AJ Towers, Court Rd, INA Colony, Amritsar, Punjab 143001, India",
    "neighborhood": "INA Colony",
    "street": "Shop No. 116, 3rd Floor, AJ Towers, Court Rd",
    "city": "Amritsar",
    "postalCode": "143001",
    "state": "Punjab",
    "countryCode": "IN",
    "website": "https://www.selfdrivecarsamritsar.com/",
    "phone": "+919815937525",
    "phoneUnformatted": "+919815937525",
    "location": {
      "lat": 31.6355996,
      "lng": 74.8689836
    },
    "totalScore": 5,
    "permanentlyClosed": false,
    "temporarilyClosed": false,
    "placeId": "ChIJ938IINJlGTkREXd39SZy6sg",
    "categories": [
      "Car rental agency"
    ],
    "reviewsCount": 9,
    "imagesCount": 43,
    "openingHours": [
      {
        "day": "Monday",
        "hours": "7:30‚ÄØAM to 11‚ÄØPM"
      },
      {
        "day": "Tuesday",
        "hours": "7:30‚ÄØAM to 11‚ÄØPM"
      },
      {
        "day": "Wednesday",
        "hours": "7:30‚ÄØAM to 11‚ÄØPM"
      },
      {
        "day": "Thursday",
        "hours": "7:30‚ÄØAM to 11‚ÄØPM"
      },
      {
        "day": "Friday",
        "hours": "7:30‚ÄØAM to 11‚ÄØPM"
      },
      {
        "day": "Saturday",
        "hours": "7:30‚ÄØAM to 11‚ÄØPM"
      },
      {
        "day": "Sunday",
        "hours": "7:30‚ÄØAM to 11‚ÄØPM"
      }
    ],
    "imageUrl": "https://media.indianluxurycars.com/google/6d5ff15177b2859ddb459d5dd3870a0a61d6f4deabddcb4e5b811aca0a6ffb01.jpg",
    "url": "https://www.google.com/maps/search/?api=1&query=Sharma%20Travels%20-%20Self%20Drive%20Cars%20Amritsar&query_place_id=ChIJ938IINJlGTkREXd39SZy6sg"
  },
  {
    "title": "Singh Car Rental - Self Drive Cars Amritsar",
    "categoryName": "Car rental agency",
    "address": "First Floor, Ram Talai Chownk, Shop No.9, Golden Ave Rd, opp. Hotel Dewdrop, New Golden Avenue, Shankh, Amritsar, Punjab 143006, India",
    "neighborhood": "New Golden Avenue, Shankh",
    "street": "First Floor, Ram Talai Chownk, Shop No.9, Golden Ave Rd, opp. Hotel Dewdrop",
    "city": "Amritsar",
    "postalCode": "143006",
    "state": "Punjab",
    "countryCode": "IN",
    "website": "https://www.singhcarrental.com/",
    "phone": "+919878264707",
    "phoneUnformatted": "+919878264707",
    "location": {
      "lat": 31.6276077,
      "lng": 74.8905893
    },
    "totalScore": 4.8,
    "permanentlyClosed": false,
    "temporarilyClosed": false,
    "placeId": "ChIJ80MpBcV9GTkRf97aVH3GbOw",
    "categories": [
      "Car rental agency"
    ],
    "reviewsCount": 16,
    "imagesCount": 115,
    "openingHours": [
      {
        "day": "Monday",
        "hours": "7‚ÄØAM to 10:30‚ÄØPM"
      },
      {
        "day": "Tuesday",
        "hours": "7‚ÄØAM to 10:30‚ÄØPM"
      },
      {
        "day": "Wednesday",
        "hours": "7‚ÄØAM to 10:30‚ÄØPM"
      },
      {
        "day": "Thursday",
        "hours": "7‚ÄØAM to 10:30‚ÄØPM"
      },
      {
        "day": "Friday",
        "hours": "7‚ÄØAM to 10:30‚ÄØPM"
      },
      {
        "day": "Saturday",
        "hours": "7‚ÄØAM to 10:30‚ÄØPM"
      },
      {
        "day": "Sunday",
        "hours": "7‚ÄØAM to 10:30‚ÄØPM"
      }
    ],
    "imageUrl": "https://media.indianluxurycars.com/google/4e7d0ab2ae9bc98794517a18104594d06f5d32136808fb0b52b89077e84b335e.jpg",
    "url": "https://www.google.com/maps/search/?api=1&query=Singh%20Car%20Rental%20-%20Self%20Drive%20Cars%20Amritsar&query_place_id=ChIJ80MpBcV9GTkRf97aVH3GbOw"
  },
  {
    "title": "Surya Motor",
    "categoryName": "Used car dealer",
    "address": "253, Queens Rd, Crystal Chowk, Chowk, Amritsar, Punjab 143001, India",
    "neighborhood": "Crystal Chowk, Chowk",
    "street": "253, Queens Rd",
    "city": "Amritsar",
    "postalCode": "143001",
    "state": "Punjab",
    "countryCode": "IN",
    "phone": "+917355530037",
    "phoneUnformatted": "+917355530037",
    "location": {
      "lat": 31.634979,
      "lng": 74.8720638
    },
    "totalScore": 5,
    "permanentlyClosed": false,
    "temporarilyClosed": false,
    "placeId": "ChIJJ_WEvalkGTkRAoPgg2O8y8Y",
    "categories": [
      "Used car dealer",
      "Auto parts store",
      "Car accessories store",
      "Car dealer",
      "Car stereo store"
    ],
    "reviewsCount": 1,
    "imagesCount": 4,
    "openingHours": [
      {
        "day": "Monday",
        "hours": "10‚ÄØAM to 9:30‚ÄØPM"
      },
      {
        "day": "Tuesday",
        "hours": "10‚ÄØAM to 9:30‚ÄØPM"
      },
      {
        "day": "Wednesday",
        "hours": "10‚ÄØAM to 9:30‚ÄØPM"
      },
      {
        "day": "Thursday",
        "hours": "10‚ÄØAM to 9:30‚ÄØPM"
      },
      {
        "day": "Friday",
        "hours": "10‚ÄØAM to 9:30‚ÄØPM"
      },
      {
        "day": "Saturday",
        "hours": "10‚ÄØAM to 9:30‚ÄØPM"
      },
      {
        "day": "Sunday",
        "hours": "10‚ÄØAM to 9:30‚ÄØPM"
      }
    ],
    "imageUrl": "https://media.indianluxurycars.com/google/f70a873dd1790ed9e5b19b660bb1f1f749ba88636d220f7a573f66ea173eeca8.jpg",
    "url": "https://www.google.com/maps/search/?api=1&query=Surya%20Motor&query_place_id=ChIJJ_WEvalkGTkRAoPgg2O8y8Y"
  },
  {
    "title": "Swami Travels",
    "subTitle": "‡®∏‡©Å‡®Ü‡®Æ‡©Ä ‡®ü‡®∞‡©à‡®µ‡®≤‡®ú‡®º",
    "categoryName": "Car rental agency",
    "address": "Shop No. 49, Taxi Union, opp. Railway Station, Goal Bagh, Amritsar, Punjab 143001, India",
    "neighborhood": "Narain Nagar, Goal Bagh",
    "street": "Shop No. 49, Taxi Union, opp. Railway Station",
    "city": "Amritsar",
    "postalCode": "143001",
    "state": "Punjab",
    "countryCode": "IN",
    "website": "https://www.taxihireinamritsar.in/",
    "phone": "+919814456476",
    "phoneUnformatted": "+919814456476",
    "location": {
      "lat": 31.631531,
      "lng": 74.8686478
    },
    "totalScore": 4.8,
    "permanentlyClosed": false,
    "temporarilyClosed": false,
    "placeId": "ChIJCwAAwKxkGTkR5bk3qqbZitw",
    "categories": [
      "Car rental agency",
      "Taxi service",
      "Tour operator",
      "Travel agency"
    ],
    "reviewsCount": 156,
    "imagesCount": 27,
    "openingHours": [],
    "imageUrl": "https://media.indianluxurycars.com/google/9f2349b660db62bfa21d88d0536f96e6ebde384891647c6ff673c4c82b501669.jpg",
    "url": "https://www.google.com/maps/search/?api=1&query=Swami%20Travels&query_place_id=ChIJCwAAwKxkGTkR5bk3qqbZitw"
  },
  {
    "title": "TRAVEL EXPERT | Taxi & Cabs Service in Amritsar",
    "categoryName": "Car rental agency",
    "address": "109/A, opp. Punjab Grahmin Bank, Shivala Colony, Amritsar, Punjab 143001, India",
    "neighborhood": "Shivala Colony",
    "street": "109/A, opp. Punjab Grahmin Bank",
    "city": "Amritsar",
    "postalCode": "143001",
    "state": "Punjab",
    "countryCode": "IN",
    "website": "https://www.cabsamritsar.in/",
    "phone": "+918936009999",
    "phoneUnformatted": "+918936009999",
    "location": {
      "lat": 31.6352918,
      "lng": 74.8852485
    },
    "totalScore": 5,
    "permanentlyClosed": false,
    "temporarilyClosed": false,
    "placeId": "ChIJY1IW4cNjGTkRMHGffDjeoU4",
    "categories": [
      "Car rental agency",
      "Bus tour agency",
      "Car leasing service",
      "Taxi service",
      "Sightseeing tour agency",
      "Tour operator",
      "Tourist attraction",
      "Travel agency"
    ],
    "reviewsCount": 126,
    "imagesCount": 13,
    "openingHours": [],
    "imageUrl": "https://media.indianluxurycars.com/google/9ac9a4b226b2b48374a4b8d7c1834eb0d1e55eea5dc792137310e8c4c5151193.jpg",
    "url": "https://www.google.com/maps/search/?api=1&query=TRAVEL%20EXPERT%20%7C%20Taxi%20%26%20Cabs%20Service%20in%20Amritsar&query_place_id=ChIJY1IW4cNjGTkRMHGffDjeoU4"
  },
  {
    "title": "Trvlez Luxury Car Rental",
    "categoryName": "Car rental agency",
    "address": "SCF-5, Gumtala Sub Urban, A - Block, Ranjit Avenue, Amritsar, Punjab 143001, India",
    "neighborhood": "Gumtala Sub Urban, A - Block, Ranjit Avenue",
    "street": "SCF-5",
    "city": "Amritsar",
    "postalCode": "143001",
    "state": "Punjab",
    "countryCode": "IN",
    "location": {
      "lat": 31.655646,
      "lng": 74.861512
    },
    "totalScore": 5,
    "permanentlyClosed": false,
    "temporarilyClosed": false,
    "placeId": "ChIJ50L0vJBkGTkRB1_RSyG5hJ8",
    "categories": [
      "Car rental agency"
    ],
    "reviewsCount": 1,
    "imagesCount": 1,
    "openingHours": [],
    "imageUrl": "https://media.indianluxurycars.com/google/15e271f141248091a9ee769f53f39007212107b66077ac3ea052fa29e1535a63.jpg",
    "url": "https://www.google.com/maps/search/?api=1&query=Trvlez%20Luxury%20Car%20Rental&query_place_id=ChIJ50L0vJBkGTkRB1_RSyG5hJ8"
  },
  {
    "title": "Tung Travels",
    "subTitle": "‡®§‡©Å‡©∞‡®ó ‡®Ø‡®æ‡®§‡®∞‡®æ",
    "categoryName": "Car rental agency",
    "address": "24, IDH Market, Near Bus Stand, Amritsar, Punjab 143001, India",
    "neighborhood": "Kot Atma Singh",
    "street": "24, IDH Market, Near Bus Stand",
    "city": "Amritsar",
    "postalCode": "143001",
    "state": "Punjab",
    "countryCode": "IN",
    "website": "http://tungtravels.com//",
    "phone": "+919779261426",
    "phoneUnformatted": "+919779261426",
    "location": {
      "lat": 31.629464,
      "lng": 74.8832111
    },
    "totalScore": 4.8,
    "permanentlyClosed": false,
    "temporarilyClosed": false,
    "placeId": "ChIJB3J81FJjGTkRZsoy1bhsyIo",
    "categories": [
      "Car rental agency",
      "Bus tour agency",
      "Tour operator",
      "Transportation service",
      "Travel agency"
    ],
    "reviewsCount": 649,
    "imagesCount": 115,
    "openingHours": [],
    "imageUrl": "https://media.indianluxurycars.com/google/ad903505a97932ed07e503da3163b2ff87f1ae6a680a311b630570ddf3a42df0.jpg",
    "url": "https://www.google.com/maps/search/?api=1&query=Tung%20Travels&query_place_id=ChIJB3J81FJjGTkRZsoy1bhsyIo"
  },
  {
    "title": "Used Cars - Amritsar",
    "categoryName": "Used car dealer",
    "address": "Sco 42, Dist Shopping Complex, near Mk Hotel, Amritsar, Punjab 143001, India",
    "neighborhood": "Gumtala Sub Urban, B - Block, Ranjit Avenue",
    "street": "Sco 42, Dist Shopping Complex, near Mk Hotel",
    "city": "Amritsar",
    "postalCode": "143001",
    "state": "Punjab",
    "countryCode": "IN",
    "website": "https://dealers.mahindrafirstchoice.com/autowheelz-amritsar-used-cars-dist-shopping-complex-amritsar-2291/home",
    "phone": "+919606045082",
    "phoneUnformatted": "+919606045082",
    "location": {
      "lat": 31.65703,
      "lng": 74.859481
    },
    "totalScore": 4.6,
    "permanentlyClosed": false,
    "temporarilyClosed": false,
    "placeId": "ChIJ_caaabhlGTkR5hWjZ9A3O3U",
    "categories": [
      "Used car dealer",
      "Auto broker",
      "Car dealer",
      "Motor vehicle dealer",
      "Vehicle inspection service"
    ],
    "reviewsCount": 100,
    "imagesCount": 48,
    "openingHours": [
      {
        "day": "Monday",
        "hours": "10‚ÄØAM to 8‚ÄØPM"
      },
      {
        "day": "Tuesday",
        "hours": "10‚ÄØAM to 8‚ÄØPM"
      },
      {
        "day": "Wednesday",
        "hours": "10‚ÄØAM to 8‚ÄØPM"
      },
      {
        "day": "Thursday",
        "hours": "10‚ÄØAM to 8‚ÄØPM"
      },
      {
        "day": "Friday",
        "hours": "10‚ÄØAM to 8‚ÄØPM"
      },
      {
        "day": "Saturday",
        "hours": "10‚ÄØAM to 8‚ÄØPM"
      },
      {
        "day": "Sunday",
        "hours": "Closed"
      }
    ],
    "imageUrl": "https://media.indianluxurycars.com/google/0dc163f6810f6a3369612712e54a5bab71c86fd30afee345f744970ed2a8d61f.jpg",
    "url": "https://www.google.com/maps/search/?api=1&query=Used%20Cars%20-%20Amritsar&query_place_id=ChIJ_caaabhlGTkR5hWjZ9A3O3U"
  },
  {
    "title": "Used Cars Amritsar",
    "categoryName": "Used car dealer",
    "address": "AJ Towers, 163-164, Court Rd, opposite Doaba Automobiles Bajaj Auto, INA Colony, Amritsar, Punjab 143001, India",
    "neighborhood": "INA Colony",
    "street": "AJ Towers, 163-164, Court Rd, opposite Doaba Automobiles Bajaj Auto",
    "city": "Amritsar",
    "postalCode": "143001",
    "state": "Punjab",
    "countryCode": "IN",
    "website": "https://www.mahindrafirstchoice.com/dealer/detail/amritsar/opp-doaba-automobiles-bajaj-auto/trehan-motors",
    "phone": "+919930565555",
    "phoneUnformatted": "+919930565555",
    "location": {
      "lat": 31.635878,
      "lng": 74.8693568
    },
    "totalScore": 4.3,
    "permanentlyClosed": false,
    "temporarilyClosed": false,
    "placeId": "ChIJoZrn7XVlGTkRjyctB-sVOYI",
    "categories": [
      "Used car dealer"
    ],
    "reviewsCount": 19,
    "imagesCount": 61,
    "openingHours": [
      {
        "day": "Monday",
        "hours": "9:30‚ÄØAM to 7‚ÄØPM"
      },
      {
        "day": "Tuesday",
        "hours": "9:30‚ÄØAM to 7‚ÄØPM"
      },
      {
        "day": "Wednesday",
        "hours": "9:30‚ÄØAM to 7‚ÄØPM"
      },
      {
        "day": "Thursday",
        "hours": "9:30‚ÄØAM to 7‚ÄØPM"
      },
      {
        "day": "Friday",
        "hours": "9:30‚ÄØAM to 7‚ÄØPM"
      },
      {
        "day": "Saturday",
        "hours": "9:30‚ÄØAM to 7‚ÄØPM"
      },
      {
        "day": "Sunday",
        "hours": "9:30‚ÄØAM to 7‚ÄØPM"
      }
    ],
    "imageUrl": "https://media.indianluxurycars.com/google/374ac26120ab372092d8caa0e81063ff7733685c99a5ea100b01e8e607a04f13.jpg",
    "url": "https://www.google.com/maps/search/?api=1&query=Used%20Cars%20Amritsar&query_place_id=ChIJoZrn7XVlGTkRjyctB-sVOYI"
  },
  {
    "title": "Wedding Cars Amritsar Batala Gurdaspur Pathankot Ajnala Beas Taran Tarn Harike",
    "subTitle": "‡®µ‡©à‡©±‡®°‡®ø‡©∞‡®ó ‡®ï‡®æ‡®∞‡®∏ ‡®Ö‡©∞‡®Æ‡©ç‡®∞‡®ø‡®§‡®∏‡®∞ ‡®¨‡®ü‡®æ‡®≤‡®æ ‡®ó‡©Å‡®∞‡®¶‡®æ‡®∏‡®™‡©Å‡®∞ ‡®™‡®†‡®æ‡®®‡®ï‡©ã‡®ü ‡®Ö‡®ú‡®®‡®æ‡®≤‡®æ ‡®¨‡®ø‡®Ü‡®∏ ‡®§‡®∞‡®æ‡®Ç ‡®ü‡®∞‡®® ‡®π‡®∞‡©Ä‡®ï‡©á",
    "categoryName": "Car rental agency",
    "address": "Golden Temple Out Rd, Hall Gate, Outside, Katra Ahluwalia, Amritsar, Punjab 143001, India",
    "neighborhood": "Hall Gate, Outside, Katra Ahluwalia",
    "street": "Golden Temple Out Rd",
    "city": "Amritsar",
    "postalCode": "143001",
    "state": "Punjab",
    "countryCode": "IN",
    "website": "http://www.prabhtravels.com/",
    "phone": "+919815532122",
    "phoneUnformatted": "+919815532122",
    "location": {
      "lat": 31.6316,
      "lng": 74.8738915
    },
    "totalScore": 5,
    "permanentlyClosed": false,
    "temporarilyClosed": false,
    "placeId": "ChIJ1-r22fZ9GTkRAmY3WO85iNc",
    "categories": [
      "Car rental agency",
      "Car leasing service"
    ],
    "reviewsCount": 2,
    "imagesCount": 37,
    "openingHours": [
      {
        "day": "Monday",
        "hours": "Open 24 hours"
      },
      {
        "day": "Tuesday",
        "hours": "Open 24 hours"
      },
      {
        "day": "Wednesday",
        "hours": "Open 24 hours"
      },
      {
        "day": "Thursday",
        "hours": "Open 24 hours"
      },
      {
        "day": "Friday",
        "hours": "Open 24 hours"
      },
      {
        "day": "Saturday",
        "hours": "Open 24 hours"
      },
      {
        "day": "Sunday",
        "hours": "Open 24 hours"
      }
    ],
    "imageUrl": "https://media.indianluxurycars.com/google/895de6e1be7393a5a2b41a3a2dcd08bd9c83499f6b8c7c3881e0c25f1394dc50.jpg",
    "url": "https://www.google.com/maps/search/?api=1&query=Wedding%20Cars%20Amritsar%20Batala%20Gurdaspur%20Pathankot%20Ajnala%20Beas%20Taran%20Tarn%20Harike&query_place_id=ChIJ1-r22fZ9GTkRAmY3WO85iNc"
  },
  {
    "title": "Zora Travels",
    "categoryName": "Car rental agency",
    "address": "Shop No. 8, Ram Talai Chowk, Main, Jaura Phatak Rd, New Golden Avenue, Golden Avenue, Amritsar, Punjab 143001, India",
    "neighborhood": "New Golden Avenue, Golden Avenue",
    "street": "Shop No. 8, Ram Talai Chowk, Main, Jaura Phatak Rd",
    "city": "Amritsar",
    "postalCode": "143001",
    "state": "Punjab",
    "countryCode": "IN",
    "website": "https://www.zoratravels.com/",
    "phone": "+916284770877",
    "phoneUnformatted": "+916284770877",
    "location": {
      "lat": 31.6276287,
      "lng": 74.8906162
    },
    "totalScore": 5,
    "permanentlyClosed": false,
    "temporarilyClosed": false,
    "placeId": "ChIJn6y86Tt9GTkRW8t1vxEA22c",
    "categories": [
      "Car rental agency",
      "Bus tour agency",
      "Travel agency",
      "Minibus taxi service",
      "Sightseeing tour agency",
      "Taxi service",
      "Taxicab Stand",
      "Tour agency"
    ],
    "reviewsCount": 106,
    "imagesCount": 234,
    "openingHours": [
      {
        "day": "Monday",
        "hours": "Open 24 hours"
      },
      {
        "day": "Tuesday",
        "hours": "Open 24 hours"
      },
      {
        "day": "Wednesday",
        "hours": "Open 24 hours"
      },
      {
        "day": "Thursday",
        "hours": "Open 24 hours"
      },
      {
        "day": "Friday",
        "hours": "Open 24 hours"
      },
      {
        "day": "Saturday",
        "hours": "Open 24 hours"
      },
      {
        "day": "Sunday",
        "hours": "Open 24 hours"
      }
    ],
    "imageUrl": "https://media.indianluxurycars.com/google/66f8e5b19211cffdaa867b5f501548e5c1f7095f39d0f60d0b35656d029ab59f.jpg",
    "url": "https://www.google.com/maps/search/?api=1&query=Zora%20Travels&query_place_id=ChIJn6y86Tt9GTkRW8t1vxEA22c"
  }
]
