[
  {
    "title": "Audi Mumbai West",
    "subTitle": "ऑडी मुंबई",
    "categoryName": "Audi dealer",
    "address": "Neo Vikram Building, New Link Rd, Sahakar Nagar, Azad Nagar, Andheri West, Andheri, Mumbai, Maharashtra 400053, India",
    "neighborhood": "Sahakar Nagar, Azad Nagar, Andheri West",
    "street": "Neo Vikram Building, New Link Rd",
    "city": "Andheri, Mumbai",
    "postalCode": "400053",
    "state": "Maharashtra",
    "countryCode": "IN",
    "website": "https://dealers.myaudi.in/audi-mumbai-west-audi-dealer-andheri-mumbai-122040/Home?utm_source=locator&utm_medium=googleplaces",
    "phone": "+912241531111",
    "phoneUnformatted": "+912241531111",
    "location": {
      "lat": 19.1297002,
      "lng": 72.8316357
    },
    "totalScore": 4.6,
    "permanentlyClosed": false,
    "temporarilyClosed": false,
    "placeId": "ChIJAQiZ_CC25zsR0qK-ts38ZjY",
    "categories": [
      "Audi dealer",
      "Auto dent removal service",
      "Auto repair shop",
      "Car accessories store",
      "Car dealer"
    ],
    "reviewsCount": 1126,
    "imagesCount": 381,
    "openingHours": [
      {
        "day": "Monday",
        "hours": "10 AM to 6:30 PM"
      },
      {
        "day": "Tuesday",
        "hours": "10 AM to 6:30 PM"
      },
      {
        "day": "Wednesday",
        "hours": "10 AM to 6:30 PM"
      },
      {
        "day": "Thursday",
        "hours": "10 AM to 6:30 PM"
      },
      {
        "day": "Friday",
        "hours": "10 AM to 6:30 PM"
      },
      {
        "day": "Saturday",
        "hours": "10 AM to 6:30 PM"
      },
      {
        "day": "Sunday",
        "hours": "10 AM to 6:30 PM"
      }
    ],
    "imageUrl": "https://media.indianluxurycars.com/google/d0cbb018a8527fa5f5c0cdda0d8da2d2bc5c2f28f5fa7596fa9a57a64516b79f.jpg",
    "url": "https://www.google.com/maps/search/?api=1&query=Audi%20Mumbai%20West&query_place_id=ChIJAQiZ_CC25zsR0qK-ts38ZjY"
  },
  {
    "title": "Celebrity cars mumbai",
    "subTitle": "सेलिब्रिटी कार्स मुंबई",
    "categoryName": "Used car dealer",
    "address": "ground floor, Runwal elegance BMC parking, Phase D, Shastri Nagar, Andheri West, Andheri, Mumbai, Maharashtra 400053, India",
    "neighborhood": "Phase D, Shastri Nagar, Andheri West",
    "street": "ground floor, Runwal elegance BMC parking",
    "city": "Andheri, Mumbai",
    "postalCode": "400053",
    "state": "Maharashtra",
    "countryCode": "IN",
    "website": "https://instagram.com/celebritycarsmumbai?igshid=YmMyMTA2M2Y=",
    "location": {
      "lat": 19.1415428,
      "lng": 72.8288245
    },
    "totalScore": 4.5,
    "permanentlyClosed": false,
    "temporarilyClosed": false,
    "placeId": "ChIJ1w44P5e35zsRXIC9L97Hg8Y",
    "categories": [
      "Used car dealer"
    ],
    "reviewsCount": 93,
    "imagesCount": 45,
    "openingHours": [
      {
        "day": "Monday",
        "hours": "11 AM to 9 PM"
      },
      {
        "day": "Tuesday",
        "hours": "11 AM to 9 PM"
      },
      {
        "day": "Wednesday",
        "hours": "11 AM to 9 PM"
      },
      {
        "day": "Thursday",
        "hours": "11 AM to 9 PM"
      },
      {
        "day": "Friday",
        "hours": "11 AM to 9 PM"
      },
      {
        "day": "Saturday",
        "hours": "11 AM to 9 PM"
      },
      {
        "day": "Sunday",
        "hours": "11 AM to 9 PM"
      }
    ],
    "imageUrl": "https://media.indianluxurycars.com/google/18a371b78e02ea7fae2085beadad86a2b06ba60a0b4eca2f100786e0222f9a8a.jpg",
    "url": "https://www.google.com/maps/search/?api=1&query=Celebrity%20cars%20mumbai&query_place_id=ChIJ1w44P5e35zsRXIC9L97Hg8Y"
  },
  {
    "title": "Quick Car World",
    "subTitle": "जलद कार जागतिक",
    "categoryName": "Used car dealer",
    "address": "Shop No 5-C,Green Park,Opp.shantivan Mhada, Linking Rd, Oshiwara, Andheri, Maharashtra 400053, India",
    "neighborhood": "Oshiwara, Andheri West",
    "street": "Shop No 5-C,Green Park,Opp.shantivan Mhada, Linking Rd",
    "city": "Andheri, Mumbai",
    "postalCode": "400053",
    "state": "Maharashtra",
    "countryCode": "IN",
    "website": "http://www.quickcarworld.com/",
    "phone": "+919987350000",
    "phoneUnformatted": "+919987350000",
    "location": {
      "lat": 19.1537116,
      "lng": 72.8292616
    },
    "totalScore": 4.3,
    "permanentlyClosed": false,
    "temporarilyClosed": false,
    "placeId": "ChIJTzLBJTzI5zsR4q-CmSQX3N4",
    "categories": [
      "Used car dealer"
    ],
    "reviewsCount": 70,
    "imagesCount": 432,
    "openingHours": [
      {
        "day": "Monday",
        "hours": "10 AM to 8 PM"
      },
      {
        "day": "Tuesday",
        "hours": "10 AM to 8 PM"
      },
      {
        "day": "Wednesday",
        "hours": "10 AM to 8 PM"
      },
      {
        "day": "Thursday",
        "hours": "10 AM to 8 PM"
      },
      {
        "day": "Friday",
        "hours": "10 AM to 8 PM"
      },
      {
        "day": "Saturday",
        "hours": "10 AM to 8 PM"
      },
      {
        "day": "Sunday",
        "hours": "10 AM to 5:30 PM"
      }
    ],
    "imageUrl": "https://media.indianluxurycars.com/google/5205a512c6ab3d2c7f0357365482e2150af69a7d6f3ff4a7ec6825c08122118a.jpg",
    "url": "https://www.google.com/maps/search/?api=1&query=Quick%20Car%20World&query_place_id=ChIJTzLBJTzI5zsR4q-CmSQX3N4"
  }
]
