[
  {
    "title": "Asansol Car Rental Service",
    "subTitle": "আসানসোল কার রেন্টাল সার্ভিস",
    "categoryName": "Car leasing service",
    "address": "Satyajit Nagar, BC College Rd, near B C College, Burnpur, Asansol, West Bengal 713325, India",
    "neighborhood": "Burnpur",
    "street": "Satyajit Nagar, BC College Rd, near B C College",
    "city": "Asansol",
    "postalCode": "713325",
    "state": "West Bengal",
    "countryCode": "IN",
    "website": "https://asansolcarrentalservive.in/",
    "phone": "+918695036667",
    "phoneUnformatted": "+918695036667",
    "location": {
      "lat": 23.6761394,
      "lng": 86.9554719
    },
    "totalScore": 5,
    "permanentlyClosed": false,
    "temporarilyClosed": false,
    "placeId": "ChIJD9XrFfof9zkRZ4QgQmhet-M",
    "categories": [
      "Car leasing service"
    ],
    "reviewsCount": 40,
    "imagesCount": 23,
    "openingHours": [
      {
        "day": "Monday",
        "hours": "Open 24 hours"
      },
      {
        "day": "Tuesday",
        "hours": "Open 24 hours"
      },
      {
        "day": "Wednesday",
        "hours": "Open 24 hours"
      },
      {
        "day": "Thursday",
        "hours": "Open 24 hours"
      },
      {
        "day": "Friday",
        "hours": "Open 24 hours"
      },
      {
        "day": "Saturday",
        "hours": "Open 24 hours"
      },
      {
        "day": "Sunday",
        "hours": "Open 24 hours"
      }
    ],
    "imageUrl": "https://media.indianluxurycars.com/google/e7b2f67f8c3c4966e9cfed27d0a96f59f3806ed9f81bd56edd0bc0c2ac5d9352.jpg",
    "url": "https://www.google.com/maps/search/?api=1&query=Asansol%20Car%20Rental%20Service&query_place_id=ChIJD9XrFfof9zkRZ4QgQmhet-M"
  },
  {
    "title": "Auto Swift(used Car Showroom)",
    "subTitle": "অটো সুইফ্ট(ইউজড কার শোরুম)",
    "categoryName": "Used car dealer",
    "address": "Kumarpur, Asansol, West Bengal 713304, India",
    "neighborhood": "Kumarpur",
    "city": "Asansol",
    "postalCode": "713304",
    "state": "West Bengal",
    "countryCode": "IN",
    "location": {
      "lat": 23.6982419,
      "lng": 86.9391932
    },
    "totalScore": 4.1,
    "permanentlyClosed": false,
    "temporarilyClosed": false,
    "placeId": "ChIJAQAAwKgf9zkRUoldRX9g7d8",
    "categories": [
      "Used car dealer"
    ],
    "reviewsCount": 21,
    "imagesCount": 7,
    "openingHours": [
      {
        "day": "Monday",
        "hours": "10:05 AM to 6:30 PM"
      },
      {
        "day": "Tuesday",
        "hours": "10:05 AM to 6:30 PM"
      },
      {
        "day": "Wednesday",
        "hours": "10:05 AM to 6:30 PM"
      },
      {
        "day": "Thursday",
        "hours": "10:05 AM to 6:30 PM"
      },
      {
        "day": "Friday",
        "hours": "10:05 AM to 6:30 PM"
      },
      {
        "day": "Saturday",
        "hours": "10:05 AM to 6:30 PM"
      },
      {
        "day": "Sunday",
        "hours": "10 AM to 6:29 PM"
      }
    ],
    "imageUrl": "https://media.indianluxurycars.com/google/e15601bb27dec50ee2cd9eb18c375848bc110bda76c148413214cab7b80ebf5d.jpg",
    "url": "https://www.google.com/maps/search/?api=1&query=Auto%20Swift(used%20Car%20Showroom)&query_place_id=ChIJAQAAwKgf9zkRUoldRX9g7d8"
  },
  {
    "title": "car&bike (by Mahindra First Choice) Rudra Automart - Asansol",
    "subTitle": "কার&বাইক (বাই মাহিন্দ্রা ফার্স্ট চয়েস) রুদ্র অটোমার্ট - আসানসোল",
    "categoryName": "Used car dealer",
    "address": "Adarsha Pally, CH, Domohani Rd, Kalla, Asansol, West Bengal 713340, India",
    "neighborhood": "Kalla",
    "street": "Adarsha Pally, CH, Domohani Rd",
    "city": "Asansol",
    "postalCode": "713340",
    "state": "West Bengal",
    "countryCode": "IN",
    "website": "https://www.carandbike.com/used/car-dealers/rudra-automart-in-asansol-1528?utm_source=GMB",
    "phone": "+919513882444",
    "phoneUnformatted": "+919513882444",
    "location": {
      "lat": 23.7039599,
      "lng": 86.9958508
    },
    "totalScore": 4.9,
    "permanentlyClosed": false,
    "temporarilyClosed": false,
    "placeId": "ChIJEXHhs68Z9zkRn1f-y7ENtzc",
    "categories": [
      "Used car dealer",
      "Auto broker",
      "Car dealer",
      "Motor vehicle dealer",
      "Vehicle inspection service"
    ],
    "reviewsCount": 41,
    "imagesCount": 23,
    "openingHours": [
      {
        "day": "Monday",
        "hours": "10 AM to 7:30 PM"
      },
      {
        "day": "Tuesday",
        "hours": "10 AM to 7:30 PM"
      },
      {
        "day": "Wednesday",
        "hours": "10 AM to 7:30 PM"
      },
      {
        "day": "Thursday",
        "hours": "10 AM to 7:30 PM"
      },
      {
        "day": "Friday",
        "hours": "10 AM to 7:30 PM"
      },
      {
        "day": "Saturday",
        "hours": "10 AM to 7:30 PM"
      },
      {
        "day": "Sunday",
        "hours": "Closed"
      }
    ],
    "imageUrl": "https://media.indianluxurycars.com/google/40ffcd04ef4a2fccb1251a76e342b71f6328cafefc6067746c66ce071c922ced.jpg",
    "url": "https://www.google.com/maps/search/?api=1&query=car%26bike%20(by%20Mahindra%20First%20Choice)%20Rudra%20Automart%20-%20Asansol&query_place_id=ChIJEXHhs68Z9zkRn1f-y7ENtzc"
  },
  {
    "title": "CHAND TRAVELS",
    "subTitle": "চাঁদ ট্রাভেলস",
    "categoryName": "Car leasing service",
    "address": "Barafkal More, SB Gorai Rd, Asansol, West Bengal 713301, India",
    "neighborhood": "Ismile",
    "street": "Barafkal More, SB Gorai Rd",
    "city": "Asansol",
    "postalCode": "713301",
    "state": "West Bengal",
    "countryCode": "IN",
    "website": "https://chandtravels.com/",
    "phone": "+918159954605",
    "phoneUnformatted": "+918159954605",
    "location": {
      "lat": 23.6774952,
      "lng": 86.961944
    },
    "totalScore": 5,
    "permanentlyClosed": false,
    "temporarilyClosed": false,
    "placeId": "ChIJvajuTn8f9zkRZZ9uYvMYT9I",
    "categories": [
      "Car leasing service",
      "Car rental agency",
      "Taxi service"
    ],
    "reviewsCount": 115,
    "imagesCount": 120,
    "openingHours": [
      {
        "day": "Monday",
        "hours": "Open 24 hours"
      },
      {
        "day": "Tuesday",
        "hours": "Open 24 hours"
      },
      {
        "day": "Wednesday",
        "hours": "Open 24 hours"
      },
      {
        "day": "Thursday",
        "hours": "Open 24 hours"
      },
      {
        "day": "Friday",
        "hours": "Open 24 hours"
      },
      {
        "day": "Saturday",
        "hours": "Open 24 hours"
      },
      {
        "day": "Sunday",
        "hours": "Open 24 hours"
      }
    ],
    "imageUrl": "https://media.indianluxurycars.com/google/6848a21b41ebbe871b798022b7aada9dd8e49744f66a9ca324b02ccd914efa0b.png",
    "url": "https://www.google.com/maps/search/?api=1&query=CHAND%20TRAVELS&query_place_id=ChIJvajuTn8f9zkRZZ9uYvMYT9I"
  },
  {
    "title": "DreamUp Traders (Pre owned Car Dealer)",
    "subTitle": "ড্রিমআপ ট্রেডার্স (পরে আওয়ানড কার ডিলার)",
    "categoryName": "Car dealer",
    "address": "SB Gorai Rd, near Sukanta Maidan, Pathak Bari, Asansol, West Bengal 713301, India",
    "neighborhood": "Pathak Bari",
    "street": "SB Gorai Rd, near Sukanta Maidan",
    "city": "Asansol",
    "postalCode": "713301",
    "state": "West Bengal",
    "countryCode": "IN",
    "phone": "+918670381171",
    "phoneUnformatted": "+918670381171",
    "location": {
      "lat": 23.6775604,
      "lng": 86.9743594
    },
    "totalScore": 4.9,
    "permanentlyClosed": false,
    "temporarilyClosed": false,
    "placeId": "ChIJ_0fkicIf9zkRDg2kA-UPwB0",
    "categories": [
      "Car dealer"
    ],
    "reviewsCount": 8,
    "imagesCount": 7,
    "openingHours": [
      {
        "day": "Monday",
        "hours": "9 AM to 9 PM"
      },
      {
        "day": "Tuesday",
        "hours": "9 AM to 9 PM"
      },
      {
        "day": "Wednesday",
        "hours": "9 AM to 9 PM"
      },
      {
        "day": "Thursday",
        "hours": "9 AM to 9 PM"
      },
      {
        "day": "Friday",
        "hours": "9 AM to 9 PM"
      },
      {
        "day": "Saturday",
        "hours": "9 AM to 9 PM"
      },
      {
        "day": "Sunday",
        "hours": "9 AM to 9 PM"
      }
    ],
    "imageUrl": "https://media.indianluxurycars.com/google/32ce51085d89f70fa0bc91be617a46fd04f8499e8e8a3e7355125558241cfe96.jpg",
    "url": "https://www.google.com/maps/search/?api=1&query=DreamUp%20Traders%20(Pre%20owned%20Car%20Dealer)&query_place_id=ChIJ_0fkicIf9zkRDg2kA-UPwB0"
  },
  {
    "title": "Ghumaakar Cabs | Car Hire | Cab Service | Car Rental Services in Asansol",
    "subTitle": "ঘুমালে ক্যাব | কার হার | ক্যাব সার্ভিস | কার রেন্টাল সার্ভিসেস ইন আসানসোল",
    "categoryName": "Car rental agency",
    "address": "SB Gorai Rd, Chelidanga, Asansol, West Bengal 713304, India",
    "neighborhood": "Chelidanga",
    "street": "SB Gorai Rd",
    "city": "Asansol",
    "postalCode": "713304",
    "state": "West Bengal",
    "countryCode": "IN",
    "website": "https://www.ghumaakar.com/",
    "phone": "+918001516000",
    "phoneUnformatted": "+918001516000",
    "location": {
      "lat": 23.6871383,
      "lng": 86.9529137
    },
    "totalScore": 4.9,
    "permanentlyClosed": false,
    "temporarilyClosed": false,
    "placeId": "ChIJ65HNZe8f9zkRI3zaYQYTAwA",
    "categories": [
      "Car rental agency",
      "Airport shuttle service",
      "Car leasing service",
      "Taxi service",
      "Transportation service",
      "Travel agency"
    ],
    "reviewsCount": 147,
    "imagesCount": 26,
    "openingHours": [
      {
        "day": "Monday",
        "hours": "Open 24 hours"
      },
      {
        "day": "Tuesday",
        "hours": "Open 24 hours"
      },
      {
        "day": "Wednesday",
        "hours": "Open 24 hours"
      },
      {
        "day": "Thursday",
        "hours": "Open 24 hours"
      },
      {
        "day": "Friday",
        "hours": "Open 24 hours"
      },
      {
        "day": "Saturday",
        "hours": "Open 24 hours"
      },
      {
        "day": "Sunday",
        "hours": "Open 24 hours"
      }
    ],
    "imageUrl": "https://media.indianluxurycars.com/google/24f075acb6f52470d52f6410e8aaf56416a4bb472a891708760b9b461c1382c1.png",
    "url": "https://www.google.com/maps/search/?api=1&query=Ghumaakar%20Cabs%20%7C%20Car%20Hire%20%7C%20Cab%20Service%20%7C%20Car%20Rental%20Services%20in%20Asansol&query_place_id=ChIJ65HNZe8f9zkRI3zaYQYTAwA"
  },
  {
    "title": "Happy Moovers Pvt Ltd : Second Hand Car Dealer in Asansol",
    "subTitle": "হ্যাপি মুভিজ পিভিটি এলটিডি : সেকেন্ড হ্যান্ড কার ডিলার ইন আসানসোল",
    "categoryName": "Car dealer",
    "address": "Gopal Danga, Asansol, West Bengal 713340, India",
    "neighborhood": "Gopal Danga",
    "city": "Asansol",
    "postalCode": "713340",
    "state": "West Bengal",
    "countryCode": "IN",
    "phone": "+919832175566",
    "phoneUnformatted": "+919832175566",
    "location": {
      "lat": 23.6968885,
      "lng": 86.9905318
    },
    "totalScore": 4.4,
    "permanentlyClosed": false,
    "temporarilyClosed": false,
    "placeId": "ChIJz-H_R9AY9zkR0atxswlB6Gk",
    "categories": [
      "Car dealer"
    ],
    "reviewsCount": 7,
    "imagesCount": 9,
    "openingHours": [
      {
        "day": "Monday",
        "hours": "9:30 AM to 8:30 PM"
      },
      {
        "day": "Tuesday",
        "hours": "9:30 AM to 8:30 PM"
      },
      {
        "day": "Wednesday",
        "hours": "9:30 AM to 8:30 PM"
      },
      {
        "day": "Thursday",
        "hours": "9:30 AM to 8:30 PM"
      },
      {
        "day": "Friday",
        "hours": "9:30 AM to 8:30 PM"
      },
      {
        "day": "Saturday",
        "hours": "9:30 AM to 8:30 PM"
      },
      {
        "day": "Sunday",
        "hours": "9:30 AM to 8:30 PM"
      }
    ],
    "imageUrl": "https://media.indianluxurycars.com/google/120cf294b95d36a53e7a60bd80a318327d65678254c1b9d6fe90d283b967a0eb.jpg",
    "url": "https://www.google.com/maps/search/?api=1&query=Happy%20Moovers%20Pvt%20Ltd%20%3A%20Second%20Hand%20Car%20Dealer%20in%20Asansol&query_place_id=ChIJz-H_R9AY9zkR0atxswlB6Gk"
  },
  {
    "title": "Mahindra First Choice Wheels Ltd.",
    "subTitle": "মাহিন্দ্র ফার্স্ট চয়েস হুইলস এলটিডি.",
    "categoryName": "Used car dealer",
    "address": "P.O-Kalla C.H, NH-2, Banki Danga, Kalla, Asansol, West Bengal 713340, India",
    "neighborhood": "Kalla",
    "street": "P.O-Kalla C.H, NH-2, Banki Danga",
    "city": "Asansol",
    "postalCode": "713340",
    "state": "West Bengal",
    "countryCode": "IN",
    "website": "http://www.mahindrafirstchoice.com/used-cars-india/Asansol",
    "phone": "+918348690286",
    "phoneUnformatted": "+918348690286",
    "location": {
      "lat": 23.703766,
      "lng": 86.9955625
    },
    "totalScore": 3.9,
    "permanentlyClosed": false,
    "temporarilyClosed": false,
    "placeId": "ChIJX8gtESgf9zkRPDypNcTcuro",
    "categories": [
      "Used car dealer"
    ],
    "reviewsCount": 142,
    "imagesCount": 17,
    "openingHours": [
      {
        "day": "Monday",
        "hours": "10 AM to 6:30 PM"
      },
      {
        "day": "Tuesday",
        "hours": "10 AM to 6:30 PM"
      },
      {
        "day": "Wednesday",
        "hours": "10 AM to 6:30 PM"
      },
      {
        "day": "Thursday",
        "hours": "10 AM to 6:30 PM"
      },
      {
        "day": "Friday",
        "hours": "10 AM to 6:30 PM"
      },
      {
        "day": "Saturday",
        "hours": "10 AM to 6:30 PM"
      },
      {
        "day": "Sunday",
        "hours": "Closed"
      }
    ],
    "imageUrl": "https://media.indianluxurycars.com/google/540f46e5ee85b0c6ded79511dbffd171d1549e606253dd5a2e77b731b0a067c6.jpg",
    "url": "https://www.google.com/maps/search/?api=1&query=Mahindra%20First%20Choice%20Wheels%20Ltd.&query_place_id=ChIJX8gtESgf9zkRPDypNcTcuro"
  },
  {
    "title": "Manisha Tour & Travels",
    "subTitle": "মনীষা ট্যুর & ট্রাভেলস",
    "categoryName": "Car leasing service",
    "address": "1street no 5, 8, Sarada Pally Ln, Court More, Asansol, West Bengal 713304, India",
    "neighborhood": "Court More",
    "street": "1street no 5, 8, Sarada Pally Ln",
    "city": "Asansol",
    "postalCode": "713304",
    "state": "West Bengal",
    "countryCode": "IN",
    "phone": "+919732327002",
    "phoneUnformatted": "+919732327002",
    "location": {
      "lat": 23.6920197,
      "lng": 86.9434597
    },
    "totalScore": 5,
    "permanentlyClosed": false,
    "temporarilyClosed": false,
    "placeId": "ChIJXZ-eaxkf9zkRDrHLrBlY0ZU",
    "categories": [
      "Car leasing service"
    ],
    "reviewsCount": 164,
    "imagesCount": 65,
    "openingHours": [
      {
        "day": "Monday",
        "hours": "Open 24 hours"
      },
      {
        "day": "Tuesday",
        "hours": "Open 24 hours"
      },
      {
        "day": "Wednesday",
        "hours": "Open 24 hours"
      },
      {
        "day": "Thursday",
        "hours": "Open 24 hours"
      },
      {
        "day": "Friday",
        "hours": "Open 24 hours"
      },
      {
        "day": "Saturday",
        "hours": "Open 24 hours"
      },
      {
        "day": "Sunday",
        "hours": "Open 24 hours"
      }
    ],
    "imageUrl": "https://media.indianluxurycars.com/google/0a2aa5d342df60412b5813f39541b574f610669f645ca8fa5c6132e0c5801c00.jpg",
    "url": "https://www.google.com/maps/search/?api=1&query=Manisha%20Tour%20%26%20Travels&query_place_id=ChIJXZ-eaxkf9zkRDrHLrBlY0ZU"
  },
  {
    "title": "MANPASAND MOTORS(PRE-OWNED CAR FOR SALE near arambagh food mart )",
    "subTitle": "মনোয়াসন্দ এমওটিওআরএস(পিআরই-ওডাবলিউএনইডি সিএআর এফওআর এসএএলই নেয়ার আরামবাগ ফুড মাট )",
    "categoryName": "Used car dealer",
    "address": "149-132, SB Gorai Rd, Chelidanga, Asansol, West Bengal 713304, India",
    "neighborhood": "Chelidanga",
    "street": "149-132, SB Gorai Rd",
    "city": "Asansol",
    "postalCode": "713304",
    "state": "West Bengal",
    "countryCode": "IN",
    "phone": "+919434334365",
    "phoneUnformatted": "+919434334365",
    "location": {
      "lat": 23.6828157,
      "lng": 86.957334
    },
    "totalScore": 4.3,
    "permanentlyClosed": false,
    "temporarilyClosed": false,
    "placeId": "ChIJNf0X1uMe9zkRyyW9zXz7JAU",
    "categories": [
      "Used car dealer"
    ],
    "reviewsCount": 124,
    "imagesCount": 157,
    "openingHours": [
      {
        "day": "Monday",
        "hours": "12 to 7 AM, 10:30 AM to 12 AM"
      },
      {
        "day": "Tuesday",
        "hours": "12 to 7 AM, 10:30 AM to 12 AM"
      },
      {
        "day": "Wednesday",
        "hours": "12 to 7 AM, 10:30 AM to 12 AM"
      },
      {
        "day": "Thursday",
        "hours": "12 to 7 AM, 10 AM to 12 AM"
      },
      {
        "day": "Friday",
        "hours": "12 to 8 AM, 10 AM to 12 AM"
      },
      {
        "day": "Saturday",
        "hours": "12 to 8 AM, 10 AM to 12 AM"
      },
      {
        "day": "Sunday",
        "hours": "12 to 8 AM, 10:30 PM to 12 AM"
      }
    ],
    "imageUrl": "https://media.indianluxurycars.com/google/6d4657f839ec9533e2fd4ced102bcb1ca9c4a73b3786856db57718c9039dae97.jpg",
    "url": "https://www.google.com/maps/search/?api=1&query=MANPASAND%20MOTORS(PRE-OWNED%20CAR%20FOR%20SALE%20near%20arambagh%20food%20mart%20)&query_place_id=ChIJNf0X1uMe9zkRyyW9zXz7JAU"
  },
  {
    "title": "Mishra Travels",
    "subTitle": "মিশ্র ট্রাভেলস",
    "categoryName": "Car rental agency",
    "address": "511, Mohishila Colony Rd, Mohishila Colony, Ushagram, Asansol, West Bengal 713303, India",
    "neighborhood": "Mohishila Colony, Ushagram",
    "street": "511, Mohishila Colony Rd",
    "city": "Asansol",
    "postalCode": "713303",
    "state": "West Bengal",
    "countryCode": "IN",
    "phone": "+919832875789",
    "phoneUnformatted": "+919832875789",
    "location": {
      "lat": 23.6728228,
      "lng": 86.9919961
    },
    "totalScore": 4.9,
    "permanentlyClosed": false,
    "temporarilyClosed": false,
    "placeId": "ChIJj5vXitAZ9zkRlrvAqObvQa8",
    "categories": [
      "Car rental agency"
    ],
    "reviewsCount": 30,
    "imagesCount": 8,
    "openingHours": [
      {
        "day": "Monday",
        "hours": "Open 24 hours"
      },
      {
        "day": "Tuesday",
        "hours": "Open 24 hours"
      },
      {
        "day": "Wednesday",
        "hours": "Open 24 hours"
      },
      {
        "day": "Thursday",
        "hours": "Open 24 hours"
      },
      {
        "day": "Friday",
        "hours": "Open 24 hours"
      },
      {
        "day": "Saturday",
        "hours": "Open 24 hours"
      },
      {
        "day": "Sunday",
        "hours": "Open 24 hours"
      }
    ],
    "imageUrl": "https://media.indianluxurycars.com/google/ff7aa956b5b9371db178a42969dcbc5c812d4089d208fe35744be6d8eadd2f48.jpg",
    "url": "https://www.google.com/maps/search/?api=1&query=Mishra%20Travels&query_place_id=ChIJj5vXitAZ9zkRlrvAqObvQa8"
  },
  {
    "title": "MUKTA AUTOMOTIVE / ASANSOL CAB SERVICES",
    "subTitle": "মুক্ত অটোমোটিভ",
    "categoryName": "Car rental agency",
    "address": "5, Rd Number 8/1, Rabindra Nagar, Asansol, West Bengal 713304, India",
    "neighborhood": "Rabindra Nagar",
    "street": "5, Rd Number 8/1",
    "city": "Asansol",
    "postalCode": "713304",
    "state": "West Bengal",
    "countryCode": "IN",
    "phone": "+919547979640",
    "phoneUnformatted": "+919547979640",
    "location": {
      "lat": 23.6920685,
      "lng": 86.9449241
    },
    "totalScore": 4.8,
    "permanentlyClosed": false,
    "temporarilyClosed": false,
    "placeId": "ChIJF1LmcMgf9zkRTLo6cJDJhvM",
    "categories": [
      "Car rental agency"
    ],
    "reviewsCount": 71,
    "imagesCount": 17,
    "openingHours": [
      {
        "day": "Monday",
        "hours": "Open 24 hours"
      },
      {
        "day": "Tuesday",
        "hours": "Open 24 hours"
      },
      {
        "day": "Wednesday",
        "hours": "Open 24 hours"
      },
      {
        "day": "Thursday",
        "hours": "Open 24 hours"
      },
      {
        "day": "Friday",
        "hours": "Open 24 hours"
      },
      {
        "day": "Saturday",
        "hours": "Open 24 hours"
      },
      {
        "day": "Sunday",
        "hours": "Open 24 hours"
      }
    ],
    "imageUrl": "https://media.indianluxurycars.com/google/63c325f369eb160db129080c0713276ba88b730e89c6ce6e535c569cb2183ad2.jpg",
    "url": "https://www.google.com/maps/search/?api=1&query=MUKTA%20AUTOMOTIVE%20%2F%20ASANSOL%20CAB%20SERVICES&query_place_id=ChIJF1LmcMgf9zkRTLo6cJDJhvM"
  },
  {
    "title": "PRATIMA TOUR AND TRAVEL ASANSOL",
    "subTitle": "প্রতিমা ট্যুর এন্ড ট্রাভেল আসানসোল",
    "categoryName": "Car leasing service",
    "address": "Hindustan park, MANASHDHAM APARTMENT 5TH FLOOR BLOCK A, near BARAL GOLD LANDMARK, beside LIC, Asansol, West Bengal 713304, India",
    "neighborhood": "Rabindra Nagar",
    "street": "Hindustan park, MANASHDHAM APARTMENT 5TH FLOOR BLOCK A, near BARAL GOLD LANDMARK, beside LIC",
    "city": "Asansol",
    "postalCode": "713304",
    "state": "West Bengal",
    "countryCode": "IN",
    "website": "https://royglobalwebbussiness.in/PRATIMATOURANDTRAVELASANSOL",
    "location": {
      "lat": 23.6950837,
      "lng": 86.947573
    },
    "totalScore": 5,
    "permanentlyClosed": false,
    "temporarilyClosed": false,
    "placeId": "ChIJebhfxcMf9zkRdF5JeLogEQU",
    "categories": [
      "Car leasing service"
    ],
    "reviewsCount": 93,
    "imagesCount": 10,
    "openingHours": [
      {
        "day": "Monday",
        "hours": "Open 24 hours"
      },
      {
        "day": "Tuesday",
        "hours": "Open 24 hours"
      },
      {
        "day": "Wednesday",
        "hours": "Open 24 hours"
      },
      {
        "day": "Thursday",
        "hours": "Open 24 hours"
      },
      {
        "day": "Friday",
        "hours": "Open 24 hours"
      },
      {
        "day": "Saturday",
        "hours": "Open 24 hours"
      },
      {
        "day": "Sunday",
        "hours": "Open 24 hours"
      }
    ],
    "imageUrl": "https://media.indianluxurycars.com/google/c7809711cb42123a6b9e366ee5ba883625fec9ebe78062acbfa88f7cca187a91.jpg",
    "url": "https://www.google.com/maps/search/?api=1&query=PRATIMA%20TOUR%20AND%20TRAVEL%20ASANSOL&query_place_id=ChIJebhfxcMf9zkRdF5JeLogEQU"
  },
  {
    "title": "Shri Radhika Travels",
    "subTitle": "শ্রী রাধিকা ট্রাভেলস",
    "categoryName": "Car rental agency",
    "address": "Post, near Janta vidyalaya, Narsingh Bandh, Burnpur, Asansol, West Bengal 713325, India",
    "neighborhood": "Narsingh Bandh, Burnpur",
    "street": "Post, near Janta vidyalaya",
    "city": "Asansol",
    "postalCode": "713325",
    "state": "West Bengal",
    "countryCode": "IN",
    "website": "https://sites.google.com/view/shri-radhika-travels/home",
    "phone": "+918918554430",
    "phoneUnformatted": "+918918554430",
    "location": {
      "lat": 23.6797679,
      "lng": 86.9456012
    },
    "totalScore": 5,
    "permanentlyClosed": false,
    "temporarilyClosed": false,
    "placeId": "ChIJh_YJyRQf9zkRFcL9uzaM3D8",
    "categories": [
      "Car rental agency",
      "Airport shuttle service",
      "Car leasing service",
      "Taxi service",
      "Transportation service",
      "Travel agency"
    ],
    "reviewsCount": 174,
    "imagesCount": 39,
    "openingHours": [
      {
        "day": "Monday",
        "hours": "Open 24 hours"
      },
      {
        "day": "Tuesday",
        "hours": "Open 24 hours"
      },
      {
        "day": "Wednesday",
        "hours": "Open 24 hours"
      },
      {
        "day": "Thursday",
        "hours": "Open 24 hours"
      },
      {
        "day": "Friday",
        "hours": "Open 24 hours"
      },
      {
        "day": "Saturday",
        "hours": "Open 24 hours"
      },
      {
        "day": "Sunday",
        "hours": "Open 24 hours"
      }
    ],
    "imageUrl": "https://media.indianluxurycars.com/google/4894717edb880459a0b46eeb31cfff998247a52841aeb646454e66514cb98a52.jpg",
    "url": "https://www.google.com/maps/search/?api=1&query=Shri%20Radhika%20Travels&query_place_id=ChIJh_YJyRQf9zkRFcL9uzaM3D8"
  },
  {
    "title": "SmartDrive",
    "subTitle": "স্মার্টফ্রাইভ",
    "categoryName": "Car rental agency",
    "address": "Manoj talkies, opposite United Spirits Limited, near T.M.C Ground, Munshi Bazar, Asansol, West Bengal 713304, India",
    "neighborhood": "Munshi Bazar",
    "street": "Manoj talkies, opposite United Spirits Limited, near T.M.C Ground",
    "city": "Asansol",
    "postalCode": "713304",
    "state": "West Bengal",
    "countryCode": "IN",
    "phone": "+919064171529",
    "phoneUnformatted": "+919064171529",
    "location": {
      "lat": 23.6984525,
      "lng": 86.9386565
    },
    "totalScore": 5,
    "permanentlyClosed": false,
    "temporarilyClosed": false,
    "placeId": "ChIJOez7vcof9zkRXy3NBp_KYJw",
    "categories": [
      "Car rental agency",
      "Car leasing service"
    ],
    "reviewsCount": 32,
    "imagesCount": 6,
    "openingHours": [
      {
        "day": "Monday",
        "hours": "Open 24 hours"
      },
      {
        "day": "Tuesday",
        "hours": "Open 24 hours"
      },
      {
        "day": "Wednesday",
        "hours": "Open 24 hours"
      },
      {
        "day": "Thursday",
        "hours": "Open 24 hours"
      },
      {
        "day": "Friday",
        "hours": "Open 24 hours"
      },
      {
        "day": "Saturday",
        "hours": "Open 24 hours"
      },
      {
        "day": "Sunday",
        "hours": "Open 24 hours"
      }
    ],
    "imageUrl": "https://media.indianluxurycars.com/google/6a42c26d312fe2344a2af675bdb5cb7f348955d3402c9108dda6585ef4ce4564.jpg",
    "url": "https://www.google.com/maps/search/?api=1&query=SmartDrive&query_place_id=ChIJOez7vcof9zkRXy3NBp_KYJw"
  },
  {
    "title": "SWAPNODEEP TRAVELS PVT. LTD.",
    "subTitle": "স্বপ্নদীপ ট্রাভেলস পিভিটি. এলটিডি.",
    "categoryName": "Car rental agency",
    "address": "Opposite-old rk mission, Grand Trunk Rd, beside Veteran Petrol Pump, East, Asansol, West Bengal 713303, India",
    "neighborhood": "Railway Officers Colony, East, Munshi Bazar",
    "street": "Opposite-old rk mission, Grand Trunk Rd, beside Veteran Petrol Pump",
    "city": "Asansol",
    "postalCode": "713303",
    "state": "West Bengal",
    "countryCode": "IN",
    "website": "http://www.stplind.com/",
    "location": {
      "lat": 23.6825426,
      "lng": 86.9851709
    },
    "totalScore": 4.6,
    "permanentlyClosed": false,
    "temporarilyClosed": false,
    "placeId": "ChIJ9WXDMQAZ9zkR6EgK4DY7IgA",
    "categories": [
      "Car rental agency",
      "Car leasing service"
    ],
    "reviewsCount": 8,
    "imagesCount": 11,
    "openingHours": [
      {
        "day": "Monday",
        "hours": "10 AM to 12 AM"
      },
      {
        "day": "Tuesday",
        "hours": "12 to 6 AM, 10 AM to 12 AM"
      },
      {
        "day": "Wednesday",
        "hours": "12 to 6 AM, 10 AM to 12 AM"
      },
      {
        "day": "Thursday",
        "hours": "12 to 6 AM, 10 AM to 12 AM"
      },
      {
        "day": "Friday",
        "hours": "12 to 6 AM, 10 AM to 12 AM"
      },
      {
        "day": "Saturday",
        "hours": "12 to 6 AM, 10:30 AM to 12 AM"
      },
      {
        "day": "Sunday",
        "hours": "12 to 6 AM"
      }
    ],
    "imageUrl": "https://media.indianluxurycars.com/google/112363a42fe8de2904e334e055625fbf7a11d389c1842fda1b9e1b511c5d1de3.jpg",
    "url": "https://www.google.com/maps/search/?api=1&query=SWAPNODEEP%20TRAVELS%20PVT.%20LTD.&query_place_id=ChIJ9WXDMQAZ9zkR6EgK4DY7IgA"
  },
  {
    "title": "The Smart Travels",
    "subTitle": "দে স্মার্ট ট্রাভেলস",
    "categoryName": "Car rental agency",
    "address": "Indraprastha ISMILE, 171/120/01, Bye Pass, 60 Feet By Pass, Asansol, West Bengal 713301, India",
    "neighborhood": "Ismile",
    "street": "Indraprastha ISMILE, 171/120/01, Bye Pass, 60 Feet By Pass",
    "city": "Asansol",
    "postalCode": "713301",
    "state": "West Bengal",
    "countryCode": "IN",
    "phone": "+917001648364",
    "phoneUnformatted": "+917001648364",
    "location": {
      "lat": 23.6724197,
      "lng": 86.9662312
    },
    "totalScore": 5,
    "permanentlyClosed": false,
    "temporarilyClosed": false,
    "placeId": "ChIJ3z62IOkf9zkRni3F7_tl7D0",
    "categories": [
      "Car rental agency",
      "Airport shuttle service",
      "Car leasing service",
      "Taxi service",
      "Transportation service",
      "Travel agency"
    ],
    "reviewsCount": 116,
    "imagesCount": 8,
    "openingHours": [
      {
        "day": "Monday",
        "hours": "Open 24 hours"
      },
      {
        "day": "Tuesday",
        "hours": "Open 24 hours"
      },
      {
        "day": "Wednesday",
        "hours": "Open 24 hours"
      },
      {
        "day": "Thursday",
        "hours": "Open 24 hours"
      },
      {
        "day": "Friday",
        "hours": "Open 24 hours"
      },
      {
        "day": "Saturday",
        "hours": "Open 24 hours"
      },
      {
        "day": "Sunday",
        "hours": "Open 24 hours"
      }
    ],
    "imageUrl": "https://media.indianluxurycars.com/google/d8e261625371d9d773c9fe968c8d4960b2e7fa4b21aec88fd70c4bec55770058.jpg",
    "url": "https://www.google.com/maps/search/?api=1&query=The%20Smart%20Travels&query_place_id=ChIJ3z62IOkf9zkRni3F7_tl7D0"
  },
  {
    "title": "Unique Essentials",
    "subTitle": "ইউনিক এসেনশিয়াল",
    "categoryName": "Used car dealer",
    "address": "Kalyanpur Housing, AS-1, 92/II, Estate, Asansol, West Bengal 713305, India",
    "neighborhood": "92/II, Estate",
    "street": "Kalyanpur Housing, AS-1",
    "city": "Asansol",
    "postalCode": "713305",
    "state": "West Bengal",
    "countryCode": "IN",
    "website": "https://unique-essentials.com/",
    "phone": "+918436870668",
    "phoneUnformatted": "+918436870668",
    "location": {
      "lat": 23.698814,
      "lng": 86.9587435
    },
    "totalScore": 4.8,
    "permanentlyClosed": false,
    "temporarilyClosed": false,
    "placeId": "ChIJvRNAu4wf9zkRICuElWWQ__A",
    "categories": [
      "Used car dealer",
      "Car accessories store"
    ],
    "reviewsCount": 4,
    "imagesCount": 66,
    "openingHours": [
      {
        "day": "Monday",
        "hours": "9 AM to 7 PM"
      },
      {
        "day": "Tuesday",
        "hours": "9 AM to 7 PM"
      },
      {
        "day": "Wednesday",
        "hours": "9 AM to 7 PM"
      },
      {
        "day": "Thursday",
        "hours": "9 AM to 7 PM"
      },
      {
        "day": "Friday",
        "hours": "9 AM to 7 PM"
      },
      {
        "day": "Saturday",
        "hours": "9 AM to 7 PM"
      },
      {
        "day": "Sunday",
        "hours": "Closed"
      }
    ],
    "imageUrl": "https://media.indianluxurycars.com/google/587a4f6bd30679dcc1c8e9850e72c8cdd9739431e376deb7abc2a9361ca1b368.jpg",
    "url": "https://www.google.com/maps/search/?api=1&query=Unique%20Essentials&query_place_id=ChIJvRNAu4wf9zkRICuElWWQ__A"
  },
  {
    "title": "Vikings Tours & Travels",
    "subTitle": "ভাইকিংস ট্যুর & ট্রাভেলস",
    "categoryName": "Car rental agency",
    "address": "Chinnamasta Road, Radha Nagar, Asansol, West Bengal 713304, India",
    "neighborhood": "Radha Nagar",
    "street": "Chinnamasta Road",
    "city": "Asansol",
    "postalCode": "713304",
    "state": "West Bengal",
    "countryCode": "IN",
    "phone": "+918299295458",
    "phoneUnformatted": "+918299295458",
    "location": {
      "lat": 23.6910455,
      "lng": 86.9383477
    },
    "totalScore": 5,
    "permanentlyClosed": false,
    "temporarilyClosed": false,
    "placeId": "ChIJT_0sUbAf9zkRnp3aXp33XIw",
    "categories": [
      "Car rental agency",
      "Tourist information center"
    ],
    "reviewsCount": 7,
    "imagesCount": 2,
    "openingHours": [
      {
        "day": "Monday",
        "hours": "Open 24 hours"
      },
      {
        "day": "Tuesday",
        "hours": "Open 24 hours"
      },
      {
        "day": "Wednesday",
        "hours": "Open 24 hours"
      },
      {
        "day": "Thursday",
        "hours": "Open 24 hours"
      },
      {
        "day": "Friday",
        "hours": "Open 24 hours"
      },
      {
        "day": "Saturday",
        "hours": "Open 24 hours"
      },
      {
        "day": "Sunday",
        "hours": "Open 24 hours"
      }
    ],
    "imageUrl": "https://media.indianluxurycars.com/google/7267335f435dc75634883cff3541972f104079d2f96396ae8e013f5b9027952f.jpg",
    "url": "https://www.google.com/maps/search/?api=1&query=Vikings%20Tours%20%26%20Travels&query_place_id=ChIJT_0sUbAf9zkRnp3aXp33XIw"
  }
]
