[
  {
    "title": "ABC Tour And Travels",
    "subTitle": "एबीसी टूर एंड ट्रैवल्स",
    "categoryName": "Car rental agency",
    "address": "satya prakash park, Near Quila Flyover, Rampur Rd, Bareilly, Uttar Pradesh 243003, India",
    "neighborhood": "Phool Bagh, Quilla Chhawni",
    "street": "satya prakash park, Near Quila Flyover, Rampur Rd",
    "city": "Bareilly",
    "postalCode": "243003",
    "state": "Uttar Pradesh",
    "countryCode": "IN",
    "website": "https://abctourandtravels.com/",
    "phone": "+919917867239",
    "phoneUnformatted": "+919917867239",
    "location": {
      "lat": 28.3710257,
      "lng": 79.3979144
    },
    "totalScore": 5,
    "permanentlyClosed": false,
    "temporarilyClosed": true,
    "placeId": "ChIJN9wwC2MHoDkRA01C5iBa1Pk",
    "categories": [
      "Car rental agency",
      "Bus tour agency",
      "Car leasing service",
      "Travel agency"
    ],
    "reviewsCount": 25,
    "imagesCount": 14,
    "openingHours": [],
    "imageUrl": "https://media.indianluxurycars.com/google/f987c53e0dd2607a3f0593a2f0f42f4ab3860fefc18cba67a7494516f1fe88d4.jpg",
    "url": "https://www.google.com/maps/search/?api=1&query=ABC%20Tour%20And%20Travels&query_place_id=ChIJN9wwC2MHoDkRA01C5iBa1Pk"
  },
  {
    "title": "Cab Service Bareilly Taxi Service In Bareilly One Way Cab Outstation Taxi Airpor Bareilly To Delhi Cab",
    "subTitle": "कैब सर्विस बरेली टैक्सी सर्विस इन बरेली वन वे कैब आउटस्टेशन टैक्सी एयरपोर बरेली तो दिल्ली कैब",
    "categoryName": "Car rental agency",
    "address": "near Samrat Ashok Nagar, Shakti Nagar, Avas Vikas Colony, Bareilly, Uttar Pradesh 243006, India",
    "neighborhood": "Shakti Nagar, Avas Vikas Colony",
    "street": "near Samrat Ashok Nagar",
    "city": "Bareilly",
    "postalCode": "243006",
    "state": "Uttar Pradesh",
    "countryCode": "IN",
    "website": "https://bareillycab.in/",
    "phone": "+919084655551",
    "phoneUnformatted": "+919084655551",
    "location": {
      "lat": 28.3728665,
      "lng": 79.4535368
    },
    "totalScore": 4.6,
    "permanentlyClosed": false,
    "temporarilyClosed": false,
    "placeId": "ChIJ6V_1fY8HoDkR0KnPkAaEqZw",
    "categories": [
      "Car rental agency",
      "Car leasing service",
      "Taxi service",
      "Travel agency"
    ],
    "reviewsCount": 34,
    "imagesCount": 78,
    "openingHours": [],
    "imageUrl": "https://media.indianluxurycars.com/google/e630bf64a98aae3553ef03a7d6be49fe8f0f0e02921178dfb087f1d6c83603b9.jpg",
    "url": "https://www.google.com/maps/search/?api=1&query=Cab%20Service%20Bareilly%20Taxi%20Service%20In%20Bareilly%20One%20Way%20Cab%20Outstation%20Taxi%20Airpor%20Bareilly%20To%20Delhi%20Cab&query_place_id=ChIJ6V_1fY8HoDkR0KnPkAaEqZw"
  },
  {
    "title": "Car on rent",
    "subTitle": "कार ऑन रेंट",
    "categoryName": "Car leasing service",
    "address": "Bareilly - Badaun Rd, behind Vaishno Devi Mandir, Ganga Nagar, Chandra Puram Colony, Bareilly, Uttar Pradesh 243001, India",
    "neighborhood": "Ganga Nagar, Chandra Puram Colony",
    "street": "Bareilly - Badaun Rd, behind Vaishno Devi Mandir",
    "city": "Bareilly",
    "postalCode": "243001",
    "state": "Uttar Pradesh",
    "countryCode": "IN",
    "location": {
      "lat": 28.3369563,
      "lng": 79.3964807
    },
    "totalScore": 4.9,
    "permanentlyClosed": false,
    "temporarilyClosed": true,
    "placeId": "ChIJz_KQz2IBoDkRyTdsD1x7D-g",
    "categories": [
      "Car leasing service"
    ],
    "reviewsCount": 10,
    "imagesCount": 1,
    "openingHours": [],
    "imageUrl": "https://media.indianluxurycars.com/google/b0210b56e1a592caa76bc1199d67ce82ce110664a559ad7fb8f70e62dbae245f.jpg",
    "url": "https://www.google.com/maps/search/?api=1&query=Car%20on%20rent&query_place_id=ChIJz_KQz2IBoDkRyTdsD1x7D-g"
  },
  {
    "title": "Detailing Devils Bareilly | Premium Car Wash, Ceramic Coating, PPF & Detailing",
    "subTitle": "डिटेलिंग डेविल्स बरेली | प्रीमियम कार वाश, सेरेमिक कोटिंग, पीपीएफ & डिटेलिंग",
    "categoryName": "Car wash",
    "address": "Pilibhit Bypass Rd, near Bajrang Dhawa, beside Star Hospital, Sanjay Nagar, Chandpur Bichpuri, Bareilly, Uttar Pradesh 243006, India",
    "neighborhood": "Sanjay Nagar, Chandpur Bichpuri",
    "street": "Pilibhit Bypass Rd, near Bajrang Dhawa, beside Star Hospital",
    "city": "Bareilly",
    "postalCode": "243006",
    "state": "Uttar Pradesh",
    "countryCode": "IN",
    "website": "https://www.detailingdevils.com/detailing-studios/bareilly",
    "phone": "+919259779767",
    "phoneUnformatted": "+919259779767",
    "location": {
      "lat": 28.3827128,
      "lng": 79.4533696
    },
    "totalScore": 4,
    "permanentlyClosed": false,
    "temporarilyClosed": false,
    "placeId": "ChIJAfDWFQAHoDkRtre_7FkyO3k",
    "categories": [
      "Car wash",
      "Auto repair shop",
      "Auto restoration service"
    ],
    "reviewsCount": 4,
    "imagesCount": 34,
    "openingHours": [
      {
        "day": "Monday",
        "hours": "9 AM to 9 PM"
      },
      {
        "day": "Tuesday",
        "hours": "9 AM to 9 PM"
      },
      {
        "day": "Wednesday",
        "hours": "9 AM to 9 PM"
      },
      {
        "day": "Thursday",
        "hours": "9 AM to 9 PM"
      },
      {
        "day": "Friday",
        "hours": "9 AM to 9 PM"
      },
      {
        "day": "Saturday",
        "hours": "9 AM to 9 PM"
      },
      {
        "day": "Sunday",
        "hours": "9 AM to 9 PM"
      }
    ],
    "imageUrl": "https://media.indianluxurycars.com/google/bef8209ff1fe33cc9c59be0538b93c18963480ecde40e66dc01a28f0105da9b4.jpg",
    "url": "https://www.google.com/maps/search/?api=1&query=Detailing%20Devils%20Bareilly%20%7C%20Premium%20Car%20Wash%2C%20Ceramic%20Coating%2C%20PPF%20%26%20Detailing&query_place_id=ChIJAfDWFQAHoDkRtre_7FkyO3k"
  },
  {
    "title": "J.B.Motors",
    "subTitle": "ज.बी.मोटर्स",
    "categoryName": "Car repair and maintenance service",
    "address": "189, near Head Post office, Civil Lines, Bareilly, Uttar Pradesh 243001, India",
    "neighborhood": "Civil Lines",
    "street": "189, near Head Post office",
    "city": "Bareilly",
    "postalCode": "243001",
    "state": "Uttar Pradesh",
    "countryCode": "IN",
    "phone": "+919105200000",
    "phoneUnformatted": "+919105200000",
    "location": {
      "lat": 28.3400185,
      "lng": 79.4214913
    },
    "totalScore": 4.6,
    "permanentlyClosed": false,
    "temporarilyClosed": false,
    "placeId": "ChIJ2aKfo9kAoDkRfKz-HoXtoX8",
    "categories": [
      "Car repair and maintenance service",
      "Auto dent removal service",
      "Auto repair shop",
      "Car battery store",
      "Car wash",
      "Paint store",
      "Tire shop",
      "Used car dealer",
      "Wholesaler"
    ],
    "reviewsCount": 812,
    "imagesCount": 167,
    "openingHours": [
      {
        "day": "Monday",
        "hours": "9 AM to 7:30 PM"
      },
      {
        "day": "Tuesday",
        "hours": "9 AM to 7:30 PM"
      },
      {
        "day": "Wednesday",
        "hours": "9 AM to 7:30 PM"
      },
      {
        "day": "Thursday",
        "hours": "9 AM to 7:30 PM"
      },
      {
        "day": "Friday",
        "hours": "9 AM to 7:30 PM"
      },
      {
        "day": "Saturday",
        "hours": "9 AM to 7:30 PM"
      },
      {
        "day": "Sunday",
        "hours": "Closed"
      }
    ],
    "imageUrl": "https://media.indianluxurycars.com/google/4386b9fc6edcd735c2d9f90eecbced5627beb31e44b6f88f77b9e3dc848639d5.jpg",
    "url": "https://www.google.com/maps/search/?api=1&query=J.B.Motors&query_place_id=ChIJ2aKfo9kAoDkRfKz-HoXtoX8"
  },
  {
    "title": "Just Cab -: Taxi Service & Cab Service in Bareilly for Outstation | Car rental service Bareilly",
    "subTitle": "जस्ट कैब, शशि लॉजिस्टिक्स",
    "categoryName": "Car rental agency",
    "address": "E-1032, Opp, KK Hospital Rd, vrindavan Colony, Rajendra Nagar, Bareilly, Uttar Pradesh 243122, India",
    "neighborhood": "vrindavan Colony, Rajendra Nagar",
    "street": "E-1032, Opp, KK Hospital Rd",
    "city": "Bareilly",
    "postalCode": "243122",
    "state": "Uttar Pradesh",
    "countryCode": "IN",
    "website": "http://justcab.in/",
    "phone": "+917248504850",
    "phoneUnformatted": "+917248504850",
    "location": {
      "lat": 28.388645,
      "lng": 79.429064
    },
    "totalScore": 3.9,
    "permanentlyClosed": false,
    "temporarilyClosed": false,
    "placeId": "ChIJXcNfMOMGoDkRY28micyow1A",
    "categories": [
      "Car rental agency",
      "Taxi service",
      "Truck rental agency"
    ],
    "reviewsCount": 119,
    "imagesCount": 6,
    "openingHours": [],
    "imageUrl": "https://media.indianluxurycars.com/google/aa7fa2ce429b450dea417f1c1d4022cd131d9d08cc0d7d93939e3cfd08f34a0f.jpg",
    "url": "https://www.google.com/maps/search/?api=1&query=Just%20Cab%20-%3A%20Taxi%20Service%20%26%20Cab%20Service%20in%20Bareilly%20for%20Outstation%20%7C%20Car%20rental%20service%20Bareilly&query_place_id=ChIJXcNfMOMGoDkRY28micyow1A"
  },
  {
    "title": "MAGIC CAR POINT",
    "subTitle": "मैजिक कार पॉइंट",
    "categoryName": "Used car dealer",
    "address": "4, Pilibhit Bypass Rd, Pawan Vihar, Bareilly, Uttar Pradesh 243006, India",
    "neighborhood": "Pawan Vihar",
    "street": "4, Pilibhit Bypass Rd",
    "city": "Bareilly",
    "postalCode": "243006",
    "state": "Uttar Pradesh",
    "countryCode": "IN",
    "location": {
      "lat": 28.3571619,
      "lng": 79.4480646
    },
    "totalScore": 4.3,
    "permanentlyClosed": false,
    "temporarilyClosed": false,
    "placeId": "ChIJcU3YsEoBoDkRLg5A1EYQfS4",
    "categories": [
      "Used car dealer"
    ],
    "reviewsCount": 20,
    "imagesCount": 1,
    "openingHours": [
      {
        "day": "Monday",
        "hours": "9 AM to 8 PM"
      },
      {
        "day": "Tuesday",
        "hours": "9 AM to 8 PM"
      },
      {
        "day": "Wednesday",
        "hours": "9 AM to 8 PM"
      },
      {
        "day": "Thursday",
        "hours": "9 AM to 8 PM"
      },
      {
        "day": "Friday",
        "hours": "9 AM to 8 PM"
      },
      {
        "day": "Saturday",
        "hours": "9 AM to 8 PM"
      },
      {
        "day": "Sunday",
        "hours": "9 AM to 8 PM"
      }
    ],
    "imageUrl": "https://media.indianluxurycars.com/google/5fe36407f785d7a0c9226ad356fe3e17705fefb0ed4aaa6403694c4db506190e.jpg",
    "url": "https://www.google.com/maps/search/?api=1&query=MAGIC%20CAR%20POINT&query_place_id=ChIJcU3YsEoBoDkRLg5A1EYQfS4"
  },
  {
    "title": "Mahindra Mosaram Enterprises Limited",
    "subTitle": "महिंद्रा मोसाराम एंटरप्राइजेस लिमिटेड",
    "categoryName": "Car dealer",
    "address": "100 FITA, T- Point, Pilibhit Bypass Rd, Tula Sherpur, Bareilly, Uttar Pradesh 243122, India",
    "neighborhood": "Tula Sherpur",
    "street": "100 FITA, T- Point, Pilibhit Bypass Rd",
    "city": "Bareilly",
    "postalCode": "243122",
    "state": "Uttar Pradesh",
    "countryCode": "IN",
    "website": "https://dealers-auto.mahindra.com/mahindra-mosaram-enterprises-suv-and-commercial-showroom-moe02m011661-bareilly",
    "phone": "+918929172594",
    "phoneUnformatted": "+918929172594",
    "location": {
      "lat": 28.3876356,
      "lng": 79.4547827
    },
    "totalScore": 4.8,
    "permanentlyClosed": false,
    "temporarilyClosed": false,
    "placeId": "ChIJSYa5vPcBoDkRiui2LjJQBOw",
    "categories": [
      "Car dealer"
    ],
    "reviewsCount": 3951,
    "imagesCount": 330,
    "openingHours": [
      {
        "day": "Monday",
        "hours": "9:30 AM to 8:30 PM"
      },
      {
        "day": "Tuesday",
        "hours": "9:30 AM to 8:30 PM"
      },
      {
        "day": "Wednesday",
        "hours": "9:30 AM to 8:30 PM"
      },
      {
        "day": "Thursday",
        "hours": "9:30 AM to 8:30 PM"
      },
      {
        "day": "Friday",
        "hours": "9:30 AM to 8:30 PM"
      },
      {
        "day": "Saturday",
        "hours": "9:30 AM to 8:30 PM"
      },
      {
        "day": "Sunday",
        "hours": "9:30 AM to 8:30 PM"
      }
    ],
    "imageUrl": "https://media.indianluxurycars.com/google/860b1c4341ae1e321b25fa95c2b0c7f5f0cd9a64ea8f5fb6111f77daaf9c8bb0.jpg",
    "url": "https://www.google.com/maps/search/?api=1&query=Mahindra%20Mosaram%20Enterprises%20Limited&query_place_id=ChIJSYa5vPcBoDkRiui2LjJQBOw"
  },
  {
    "title": "Mishra Car Bazaar",
    "subTitle": "मिश्रा कार बाज़ार",
    "categoryName": "Used car dealer",
    "address": "MG Car Showroom, Oposite, Rampur Rd, CB Ganj, Bareilly, Uttar Pradesh 243502, India",
    "neighborhood": "CB Ganj",
    "street": "MG Car Showroom, Oposite, Rampur Rd",
    "city": "Bareilly",
    "postalCode": "243502",
    "state": "Uttar Pradesh",
    "countryCode": "IN",
    "phone": "+919536393888",
    "phoneUnformatted": "+919536393888",
    "location": {
      "lat": 28.3821751,
      "lng": 79.3869739
    },
    "totalScore": 3.7,
    "permanentlyClosed": false,
    "temporarilyClosed": false,
    "placeId": "ChIJ3yTGKtgHoDkRNlEVL0jMEUc",
    "categories": [
      "Used car dealer"
    ],
    "reviewsCount": 19,
    "imagesCount": 54,
    "openingHours": [
      {
        "day": "Monday",
        "hours": "9:30 AM to 7:30 PM"
      },
      {
        "day": "Tuesday",
        "hours": "9:30 AM to 12 AM"
      },
      {
        "day": "Wednesday",
        "hours": "12 AM to 7:30 PM"
      },
      {
        "day": "Thursday",
        "hours": "9:30 AM to 7:30 PM"
      },
      {
        "day": "Friday",
        "hours": "9:30 AM to 7:30 PM"
      },
      {
        "day": "Saturday",
        "hours": "9:30 AM to 7:30 PM"
      },
      {
        "day": "Sunday",
        "hours": "9:30 AM to 7:30 PM"
      }
    ],
    "imageUrl": "https://media.indianluxurycars.com/google/3b9b875ba719a3803ffcbdeb2f7629b5ca76f8fe7ae14026a470f80a711dea0d.jpg",
    "url": "https://www.google.com/maps/search/?api=1&query=Mishra%20Car%20Bazaar&query_place_id=ChIJ3yTGKtgHoDkRNlEVL0jMEUc"
  },
  {
    "title": "N H Cab Service Airport Taxi,One way Taxi Service In Bareilly",
    "subTitle": "एन् हेच् कैब सर्विस एयरपोर्ट टैक्सी,वन वे टैक्सी सर्विस इन बरेली",
    "categoryName": "Car rental agency",
    "address": "Faridpur Choudry, Gali Number 8, Izatnagar, Bareilly, Uttar Pradesh 243122, India",
    "neighborhood": "Izatnagar",
    "street": "Faridpur Choudry, Gali Number 8",
    "city": "Bareilly",
    "postalCode": "243122",
    "state": "Uttar Pradesh",
    "countryCode": "IN",
    "phone": "+919027222324",
    "phoneUnformatted": "+919027222324",
    "location": {
      "lat": 28.3829552,
      "lng": 79.4473651
    },
    "totalScore": 5,
    "permanentlyClosed": false,
    "temporarilyClosed": false,
    "placeId": "ChIJRfsAY6sHoDkRr-DXwwiHi60",
    "categories": [
      "Car rental agency",
      "Car leasing service",
      "Taxi service"
    ],
    "reviewsCount": 5,
    "imagesCount": 14,
    "openingHours": [],
    "imageUrl": "https://media.indianluxurycars.com/google/bc131a6a6be9f3b4c84be7e8fc69fe556820c24da27f772fd143afb3c7fa5491.jpg",
    "url": "https://www.google.com/maps/search/?api=1&query=N%20H%20Cab%20Service%20Airport%20Taxi%2COne%20way%20Taxi%20Service%20In%20Bareilly&query_place_id=ChIJRfsAY6sHoDkRr-DXwwiHi60"
  },
  {
    "title": "Radhe Krishan Travels",
    "subTitle": "राधे कृष्ण ट्रैवल्स",
    "categoryName": "Car rental agency",
    "address": "Om Sweets, Sanjay Nagar, Mini Byp, Rajendra Nagar, Bareilly, Uttar Pradesh 243122, India",
    "neighborhood": "Rajendra Nagar",
    "street": "Om Sweets, Sanjay Nagar, Mini Byp",
    "city": "Bareilly",
    "postalCode": "243122",
    "state": "Uttar Pradesh",
    "countryCode": "IN",
    "location": {
      "lat": 28.3878626,
      "lng": 79.4205776
    },
    "totalScore": 4.5,
    "permanentlyClosed": false,
    "temporarilyClosed": false,
    "placeId": "ChIJz6eU0oAHoDkRzNJlI9qXoYo",
    "categories": [
      "Car rental agency",
      "Auto restoration service",
      "Car leasing service",
      "Taxi service",
      "Tour operator",
      "Tourist information center",
      "Travel agency",
      "Travel clinic",
      "Travel lounge"
    ],
    "reviewsCount": 11,
    "imagesCount": 14,
    "openingHours": [
      {
        "day": "Monday",
        "hours": "Open 24 hours"
      },
      {
        "day": "Tuesday",
        "hours": "Open 24 hours"
      },
      {
        "day": "Wednesday",
        "hours": "Open 24 hours"
      },
      {
        "day": "Thursday",
        "hours": "Open 24 hours"
      },
      {
        "day": "Friday",
        "hours": "Open 24 hours"
      },
      {
        "day": "Saturday",
        "hours": "Open 24 hours"
      },
      {
        "day": "Sunday",
        "hours": "Open 24 hours"
      }
    ],
    "imageUrl": "https://media.indianluxurycars.com/google/78e67bbc080f56fd7a77767a382f94dbd35fe64b026c03222e8a9135f47a4288.jpg",
    "url": "https://www.google.com/maps/search/?api=1&query=Radhe%20Krishan%20Travels&query_place_id=ChIJz6eU0oAHoDkRzNJlI9qXoYo"
  },
  {
    "title": "Repozit Cab Service -: Bareilly Taxi | Outstation Taxi In Bareilly | One way Cab | Local Taxi",
    "subTitle": "रिपोजित कैब सर्विस -: बरेली टैक्सी | आउटस्टेशन टैक्सी इन बरेली | वन वे कैब | लोकल टैक्सी",
    "categoryName": "Car rental agency",
    "address": "Pilibhit Bypass Rd, Civil Lines, Bareilly, Uttar Pradesh 243005, India",
    "neighborhood": "Civil Lines",
    "street": "Pilibhit Bypass Rd",
    "city": "Bareilly",
    "postalCode": "243005",
    "state": "Uttar Pradesh",
    "countryCode": "IN",
    "website": "https://zittaxi.com/",
    "phone": "+919084655551",
    "phoneUnformatted": "+919084655551",
    "location": {
      "lat": 28.3552621,
      "lng": 79.446862
    },
    "totalScore": 5,
    "permanentlyClosed": false,
    "temporarilyClosed": false,
    "placeId": "ChIJJ7b7RTUBoDkRnV4DQPNeng4",
    "categories": [
      "Car rental agency",
      "Car leasing service",
      "Taxi service",
      "Travel agency"
    ],
    "reviewsCount": 1,
    "imagesCount": 1,
    "openingHours": [],
    "imageUrl": "https://media.indianluxurycars.com/google/57b389f3a5f897ad549b29373fc54c03bd3033f2f464858daa8136615aeee7f9.jpg",
    "url": "https://www.google.com/maps/search/?api=1&query=Repozit%20Cab%20Service%20-%3A%20Bareilly%20Taxi%20%7C%20Outstation%20Taxi%20In%20Bareilly%20%7C%20One%20way%20Cab%20%7C%20Local%20Taxi&query_place_id=ChIJJ7b7RTUBoDkRnV4DQPNeng4"
  },
  {
    "title": "Shri Shyam travels",
    "subTitle": "श्री श्याम ट्रैवल्स",
    "categoryName": "Car rental agency",
    "address": "108/19, Umang Phase 1, Mahanagar Colony, Bareilly, Uttar Pradesh 243006, India",
    "neighborhood": "Umang Phase 1, Mahanagar Colony",
    "street": "108/19",
    "city": "Bareilly",
    "postalCode": "243006",
    "state": "Uttar Pradesh",
    "countryCode": "IN",
    "website": "https://shrishyamtravel.com/",
    "phone": "+919149228066",
    "phoneUnformatted": "+919149228066",
    "location": {
      "lat": 28.3892133,
      "lng": 79.4613741
    },
    "totalScore": 5,
    "permanentlyClosed": false,
    "temporarilyClosed": false,
    "placeId": "ChIJa0y-qn8HoDkREdY3B3Ie8pQ",
    "categories": [
      "Car rental agency",
      "Car leasing service",
      "Taxi service",
      "Travel agency"
    ],
    "reviewsCount": 31,
    "imagesCount": 6,
    "openingHours": [],
    "imageUrl": "https://media.indianluxurycars.com/google/c1c529dfb9c01b89e36f4ee96e070d194718a2e190bf09dfe6e74cbbd9d474d7.jpg",
    "url": "https://www.google.com/maps/search/?api=1&query=Shri%20Shyam%20travels&query_place_id=ChIJa0y-qn8HoDkREdY3B3Ie8pQ"
  },
  {
    "title": "Tata Motors Cars Showroom - Grover Motors, CB Ganj",
    "subTitle": "टाटा मोटर्स - ग्रोवर मोटर्स, सीबी गंज",
    "categoryName": "Car dealer",
    "address": "4th KM, Rampur Rd, opposite Mini Bypass, CB Ganj, Bareilly, Uttar Pradesh 243502, India",
    "neighborhood": "CB Ganj",
    "street": "4th KM, Rampur Rd, opposite Mini Bypass",
    "city": "Bareilly",
    "postalCode": "243502",
    "state": "Uttar Pradesh",
    "countryCode": "IN",
    "website": "https://dealer-locator.cars.tatamotors.com/tata-motors-cars-showroom-grover-motors-cb-ganj-car-dealer-cb-ganj-bareilly-80641/Home?utm_source=locator&utm_medium=googleplaces",
    "phone": "+917045172243",
    "phoneUnformatted": "+917045172243",
    "location": {
      "lat": 28.3796609,
      "lng": 79.3880703
    },
    "totalScore": 4,
    "permanentlyClosed": false,
    "temporarilyClosed": false,
    "placeId": "ChIJMSse80UHoDkRwrVXCCF-6No",
    "categories": [
      "Car dealer"
    ],
    "reviewsCount": 1615,
    "imagesCount": 391,
    "openingHours": [
      {
        "day": "Monday",
        "hours": "10 AM to 7 PM"
      },
      {
        "day": "Tuesday",
        "hours": "10 AM to 7 PM"
      },
      {
        "day": "Wednesday",
        "hours": "10 AM to 7 PM"
      },
      {
        "day": "Thursday",
        "hours": "10 AM to 7 PM"
      },
      {
        "day": "Friday",
        "hours": "10 AM to 7 PM"
      },
      {
        "day": "Saturday",
        "hours": "10 AM to 7 PM"
      },
      {
        "day": "Sunday",
        "hours": "10 AM to 7 PM"
      }
    ],
    "imageUrl": "https://media.indianluxurycars.com/google/e6ba35c8a9397a965a81665b47a0bc116865fec2b7d6c57ba4a2d92cd64ed02f.jpg",
    "url": "https://www.google.com/maps/search/?api=1&query=Tata%20Motors%20Cars%20Showroom%20-%20Grover%20Motors%2C%20CB%20Ganj&query_place_id=ChIJMSse80UHoDkRwrVXCCF-6No"
  },
  {
    "title": "Top Carat Motors",
    "subTitle": "टॉप कैरेट मोटर्स",
    "categoryName": "Used car dealer",
    "address": "Sindhu Nagar, Bareilly, Uttar Pradesh 243005, India",
    "neighborhood": "Sindhu Nagar",
    "city": "Bareilly",
    "postalCode": "243005",
    "state": "Uttar Pradesh",
    "countryCode": "IN",
    "website": "https://www.topcaratmotors.com/",
    "phone": "+915814017157",
    "phoneUnformatted": "+915814017157",
    "location": {
      "lat": 28.3541663,
      "lng": 79.4437303
    },
    "totalScore": 3.8,
    "permanentlyClosed": false,
    "temporarilyClosed": false,
    "placeId": "ChIJNeI2OCYBoDkRjWTk4M2Nysw",
    "categories": [
      "Used car dealer"
    ],
    "reviewsCount": 19,
    "imagesCount": 24,
    "openingHours": [
      {
        "day": "Monday",
        "hours": "9:30 AM to 7 PM"
      },
      {
        "day": "Tuesday",
        "hours": "9:30 AM to 7 PM"
      },
      {
        "day": "Wednesday",
        "hours": "9:30 AM to 7 PM"
      },
      {
        "day": "Thursday",
        "hours": "9:30 AM to 7 PM"
      },
      {
        "day": "Friday",
        "hours": "9:30 AM to 7 PM"
      },
      {
        "day": "Saturday",
        "hours": "9:30 AM to 7 PM"
      },
      {
        "day": "Sunday",
        "hours": "9:30 AM to 7 PM"
      }
    ],
    "imageUrl": "https://media.indianluxurycars.com/google/1392b1f865f7c3145b115ea9db516d2812ba845de76d1de7b79e14df152be33b.jpg",
    "url": "https://www.google.com/maps/search/?api=1&query=Top%20Carat%20Motors&query_place_id=ChIJNeI2OCYBoDkRjWTk4M2Nysw"
  },
  {
    "title": "Vrinda Travels",
    "subTitle": "वृंदा ट्रैवल्स",
    "categoryName": "Car rental agency",
    "address": "1, Bhartaul, Bareilly, Uttar Pradesh 243123, India",
    "neighborhood": "Bhartaul",
    "street": "1",
    "city": "Bareilly",
    "postalCode": "243123",
    "state": "Uttar Pradesh",
    "countryCode": "IN",
    "phone": "+919412655868",
    "phoneUnformatted": "+919412655868",
    "location": {
      "lat": 28.3440006,
      "lng": 79.4625542
    },
    "totalScore": 4.9,
    "permanentlyClosed": false,
    "temporarilyClosed": false,
    "placeId": "ChIJd9mHOokBoDkRVBAi_JJm3bo",
    "categories": [
      "Car rental agency",
      "Travel agency"
    ],
    "reviewsCount": 70,
    "imagesCount": 73,
    "openingHours": [
      {
        "day": "Monday",
        "hours": "Open 24 hours"
      },
      {
        "day": "Tuesday",
        "hours": "Open 24 hours"
      },
      {
        "day": "Wednesday",
        "hours": "Open 24 hours"
      },
      {
        "day": "Thursday",
        "hours": "Open 24 hours"
      },
      {
        "day": "Friday",
        "hours": "Open 24 hours"
      },
      {
        "day": "Saturday",
        "hours": "Open 24 hours"
      },
      {
        "day": "Sunday",
        "hours": "Open 24 hours"
      }
    ],
    "imageUrl": "https://media.indianluxurycars.com/google/ae73349d520a9b61c7c67a6e0faa8b47fca97af36cd2b4b859b83745dfa8014e.jpg",
    "url": "https://www.google.com/maps/search/?api=1&query=Vrinda%20Travels&query_place_id=ChIJd9mHOokBoDkRVBAi_JJm3bo"
  },
  {
    "title": "Zit Taxi-: Bareilly Cab Service | Cab Booking In Bareilly| Car Rental | One way Cab | Outstation Taxi Bareilly",
    "subTitle": "जीत टैक्सी-: बरेली कैब सर्विस | कैब बुकिंग इन बरेली| कार रेंटल | वन वे कैब | आउटस्टेशन टैक्सी बरेली",
    "categoryName": "Car rental agency",
    "address": "206 Raj Nagar near Satellite Bus Stand, Bareilly, Uttar Pradesh 243005, India",
    "neighborhood": "Sindhu Nagar",
    "street": "206 Raj Nagar near Satellite Bus Stand",
    "city": "Bareilly",
    "postalCode": "243005",
    "state": "Uttar Pradesh",
    "countryCode": "IN",
    "website": "https://zittaxi.in/",
    "phone": "+919634662222",
    "phoneUnformatted": "+919634662222",
    "location": {
      "lat": 28.3547091,
      "lng": 79.442889
    },
    "totalScore": 5,
    "permanentlyClosed": false,
    "temporarilyClosed": false,
    "placeId": "ChIJhwhPASsBoDkRe0x6MJXr77o",
    "categories": [
      "Car rental agency",
      "Taxi service",
      "Tour agency",
      "Travel agency",
      "Travel clinic"
    ],
    "reviewsCount": 189,
    "imagesCount": 270,
    "openingHours": [],
    "imageUrl": "https://media.indianluxurycars.com/google/e119bcbeffb9f4b52612887df818294cb34cf0f9e7a53d07c3c923f76ebcaeb5.jpg",
    "url": "https://www.google.com/maps/search/?api=1&query=Zit%20Taxi-%3A%20Bareilly%20Cab%20Service%20%7C%20Cab%20Booking%20In%20Bareilly%7C%20Car%20Rental%20%7C%20One%20way%20Cab%20%7C%20Outstation%20Taxi%20Bareilly&query_place_id=ChIJhwhPASsBoDkRe0x6MJXr77o"
  }
]
