[
  {
    "title": "Aradhya Tours And Travels",
    "categoryName": "Car rental agency",
    "address": "SY NO 1076, Ujwal Nagar, Belagavi, Karnataka 590016, India",
    "neighborhood": "Ujwal Nagar, Gandhi Nagar",
    "street": "SY NO 1076",
    "city": "Belagavi",
    "postalCode": "590016",
    "state": "Karnataka",
    "countryCode": "IN",
    "phone": "+917829797007",
    "phoneUnformatted": "+917829797007",
    "location": {
      "lat": 15.8651574,
      "lng": 74.5331935
    },
    "totalScore": 4.9,
    "permanentlyClosed": false,
    "temporarilyClosed": false,
    "placeId": "ChIJ8aKpJXlnvzsRt_t65xPoU_U",
    "categories": [
      "Car rental agency",
      "Bus company",
      "Bus tour agency",
      "Car leasing service",
      "Taxi service",
      "Minibus taxi service",
      "Tour agency",
      "Tour operator",
      "Travel agency"
    ],
    "reviewsCount": 125,
    "imagesCount": 151,
    "openingHours": [],
    "imageUrl": "https://lh3.googleusercontent.com/p/AF1QipPf86u9UaXNuzLnmTR-vN2DqSrNFkrMRle2d02o=w408-h408-k-no",
    "url": "https://www.google.com/maps/search/?api=1&query=Aradhya%20Tours%20And%20Travels&query_place_id=ChIJ8aKpJXlnvzsRt_t65xPoU_U"
  },
  {
    "title": "Ayush Tour And Travels Belgaum | Taxi Service in Belgaum | Cab Rental Service in Belgaum",
    "categoryName": "Car rental agency",
    "address": "CTS No 4232, 1/A1, Corner, Bhadkal Galli, Khade Bazar, Raviwar Peth, Belagavi, Karnataka 590001, India",
    "neighborhood": "Khade Bazar, Raviwar Peth",
    "street": "CTS No 4232, 1/A1, Corner, Bhadkal Galli",
    "city": "Belagavi",
    "postalCode": "590001",
    "state": "Karnataka",
    "countryCode": "IN",
    "website": "http://www.ayushtravelsbelagavi.com/",
    "phone": "+919964003218",
    "phoneUnformatted": "+919964003218",
    "location": {
      "lat": 15.8644372,
      "lng": 74.5129329
    },
    "totalScore": 5,
    "permanentlyClosed": false,
    "temporarilyClosed": false,
    "placeId": "ChIJpYKHLSpnvzsRlC6-bK36OpU",
    "categories": [
      "Car rental agency",
      "Airport shuttle service",
      "Car leasing service",
      "Taxi service",
      "Minibus taxi service"
    ],
    "reviewsCount": 312,
    "imagesCount": 48,
    "openingHours": [],
    "imageUrl": "https://lh3.googleusercontent.com/p/AF1QipN5WUW5ASBRVzz1asG9mpSjHyNy6xMwf1CxWL66=w408-h404-k-no",
    "url": "https://www.google.com/maps/search/?api=1&query=Ayush%20Tour%20And%20Travels%20Belgaum%20%7C%20Taxi%20Service%20in%20Belgaum%20%7C%20Cab%20Rental%20Service%20in%20Belgaum&query_place_id=ChIJpYKHLSpnvzsRlC6-bK36OpU"
  },
  {
    "title": "BOOM VEHICLES",
    "categoryName": "Car leasing service",
    "address": "opposite gogte college, beside tinniri hotel, Ranade Colony, Hindwadi, Belagavi, Karnataka 590011, India",
    "neighborhood": "Ranade Colony, Hindwadi",
    "street": "opposite gogte college, beside tinniri hotel",
    "city": "Belagavi",
    "postalCode": "590011",
    "state": "Karnataka",
    "countryCode": "IN",
    "phone": "+918792212334",
    "phoneUnformatted": "+918792212334",
    "location": {
      "lat": 15.8360376,
      "lng": 74.5075095
    },
    "totalScore": 5,
    "permanentlyClosed": false,
    "temporarilyClosed": false,
    "placeId": "ChIJo6aZNTJnvzsR8xOlE_r7yjI",
    "categories": [
      "Car leasing service"
    ],
    "reviewsCount": 9,
    "imagesCount": 12,
    "openingHours": [
      {
        "day": "Monday",
        "hours": "Open 24 hours"
      },
      {
        "day": "Tuesday",
        "hours": "Open 24 hours"
      },
      {
        "day": "Wednesday",
        "hours": "Open 24 hours"
      },
      {
        "day": "Thursday",
        "hours": "Open 24 hours"
      },
      {
        "day": "Friday",
        "hours": "Open 24 hours"
      },
      {
        "day": "Saturday",
        "hours": "Open 24 hours"
      },
      {
        "day": "Sunday",
        "hours": "Open 24 hours"
      }
    ],
    "imageUrl": "https://streetviewpixels-pa.googleapis.com/v1/thumbnail?panoid=ITCP2S1IY86dWPF3EXYkOQ&cb_client=search.gws-prod.gps&w=408&h=240&yaw=125.15092&pitch=0&thumbfov=100",
    "url": "https://www.google.com/maps/search/?api=1&query=BOOM%20VEHICLES&query_place_id=ChIJo6aZNTJnvzsR8xOlE_r7yjI"
  },
  {
    "title": "Carbel Cabs & Travels | Taxi Service in Belgaum | Cabs in Belgaum",
    "categoryName": "Car leasing service",
    "address": "Balaji Arcade, Goaves Circle, 108, Mahatma Phule Rd, Shahapur, Belagavi, Karnataka 590003, India",
    "neighborhood": "Shahapur",
    "street": "Balaji Arcade, Goaves Circle, 108, Mahatma Phule Rd",
    "city": "Belagavi",
    "postalCode": "590003",
    "state": "Karnataka",
    "countryCode": "IN",
    "website": "https://www.carbel.in/",
    "phone": "+918277911108",
    "phoneUnformatted": "+918277911108",
    "location": {
      "lat": 15.8412906,
      "lng": 74.5096956
    },
    "totalScore": 4.9,
    "permanentlyClosed": false,
    "temporarilyClosed": false,
    "placeId": "ChIJi4jc0OY67g4RbyC8oz5vWpA",
    "categories": [
      "Car leasing service",
      "Airport",
      "Taxi service",
      "Chauffeur service",
      "Sightseeing tour agency",
      "Tour agency",
      "Tour operator",
      "Travel agency"
    ],
    "reviewsCount": 15,
    "imagesCount": 10,
    "openingHours": [],
    "imageUrl": "https://lh3.googleusercontent.com/p/AF1QipPUs83g5TIeWO8al6opSH0G5IMWwoYsiKKNIvjb=w425-h240-k-no",
    "url": "https://www.google.com/maps/search/?api=1&query=Carbel%20Cabs%20%26%20Travels%20%7C%20Taxi%20Service%20in%20Belgaum%20%7C%20Cabs%20in%20Belgaum&query_place_id=ChIJi4jc0OY67g4RbyC8oz5vWpA"
  },
  {
    "title": "CARZONE Auto Consultancy",
    "categoryName": "Used car dealer",
    "address": "Main Road, Ashok Nagar, Shivaji Nagar, Belagavi, Karnataka 590016, India",
    "neighborhood": "Ashok Nagar, Shivaji Nagar",
    "street": "Main Road",
    "city": "Belagavi",
    "postalCode": "590016",
    "state": "Karnataka",
    "countryCode": "IN",
    "phone": "+919886457277",
    "phoneUnformatted": "+919886457277",
    "location": {
      "lat": 15.8778177,
      "lng": 74.5250639
    },
    "totalScore": 5,
    "permanentlyClosed": false,
    "temporarilyClosed": false,
    "placeId": "ChIJY1gUyxJhvzsRHmkWZkgiSbo",
    "categories": [
      "Used car dealer"
    ],
    "reviewsCount": 3,
    "imagesCount": 51,
    "openingHours": [
      {
        "day": "Monday",
        "hours": "9 AM to 9 PM"
      },
      {
        "day": "Tuesday",
        "hours": "9 AM to 9 PM"
      },
      {
        "day": "Wednesday",
        "hours": "9 AM to 9 PM"
      },
      {
        "day": "Thursday",
        "hours": "9 AM to 9 PM"
      },
      {
        "day": "Friday",
        "hours": "9 AM to 9 PM"
      },
      {
        "day": "Saturday",
        "hours": "9 AM to 9 PM"
      },
      {
        "day": "Sunday",
        "hours": "9 AM to 9 PM"
      }
    ],
    "imageUrl": "https://lh3.googleusercontent.com/gps-cs-s/AG0ilSzabUEaiTbzF4Q-u_m5imCuwU2mOT5h6wAY2Olc49FyMEizWpKVkf3JhCVH23xb9rL3dRgjSN0Ly56xS14-z77UKxUeHzv5BnQrpQ-vxzfFHn4Ix2rW0CfLVvBrNvk98j-MNr9w=w480-h240-k-no",
    "url": "https://www.google.com/maps/search/?api=1&query=CARZONE%20Auto%20Consultancy&query_place_id=ChIJY1gUyxJhvzsRHmkWZkgiSbo"
  },
  {
    "title": "Classic cars",
    "subTitle": "ಕ್ಲಾಸಿಕ್ ಕಾರ್ಸ್",
    "categoryName": "Used car dealer",
    "address": "VGJ7+X8R, 9th Cross Rd, Sadashiv Nagar, Belagavi, Karnataka 590010, India",
    "neighborhood": "Sadashiv Nagar",
    "street": "VGJ7+X8R, 9th Cross Rd",
    "city": "Belagavi",
    "postalCode": "590010",
    "state": "Karnataka",
    "countryCode": "IN",
    "phone": "+919620850432",
    "phoneUnformatted": "+919620850432",
    "location": {
      "lat": 15.8824841,
      "lng": 74.513278
    },
    "totalScore": 4.8,
    "permanentlyClosed": false,
    "temporarilyClosed": false,
    "placeId": "ChIJ7ZvrLl9hvzsRFafayME3Wcs",
    "categories": [
      "Used car dealer"
    ],
    "reviewsCount": 4,
    "imagesCount": 20,
    "openingHours": [
      {
        "day": "Monday",
        "hours": "10 AM to 7 PM"
      },
      {
        "day": "Tuesday",
        "hours": "10 AM to 7 PM"
      },
      {
        "day": "Wednesday",
        "hours": "10 AM to 7 PM"
      },
      {
        "day": "Thursday",
        "hours": "10 AM to 7 PM"
      },
      {
        "day": "Friday",
        "hours": "10 AM to 7 PM"
      },
      {
        "day": "Saturday",
        "hours": "10 AM to 7 PM"
      },
      {
        "day": "Sunday",
        "hours": "10 AM to 7 PM"
      }
    ],
    "imageUrl": "https://lh3.googleusercontent.com/gps-cs-s/AG0ilSxmUu0vlJnC4OJC8jBw9IyeAQaMZr1T9abQLEF0fnSICFGNWiTXBe-rPYoRQLHI8bilzPO4swtE96VfHfKSoK7cVEFPyexG4MZ0QaFQMHe0MGAMx1MwdBt7_qgb4QkHfTupYG4G4Q=w408-h306-k-no",
    "url": "https://www.google.com/maps/search/?api=1&query=Classic%20cars&query_place_id=ChIJ7ZvrLl9hvzsRFafayME3Wcs"
  },
  {
    "title": "CLASSIC CARS",
    "categoryName": "Car dealer",
    "address": "BUS STOP, LAST, MAIN SERVICE ROAD, Ashok Nagar, Shivaji Nagar, Belagavi, Karnataka 590016, India",
    "neighborhood": "Ashok Nagar, Shivaji Nagar",
    "street": "BUS STOP, LAST, MAIN SERVICE ROAD",
    "city": "Belagavi",
    "postalCode": "590016",
    "state": "Karnataka",
    "countryCode": "IN",
    "phone": "+917204388231",
    "phoneUnformatted": "+917204388231",
    "location": {
      "lat": 15.8767659,
      "lng": 74.5255959
    },
    "totalScore": 4.3,
    "permanentlyClosed": false,
    "temporarilyClosed": false,
    "placeId": "ChIJvfgsXXdhvzsREZqbDya6DMs",
    "categories": [
      "Car dealer"
    ],
    "reviewsCount": 6,
    "imagesCount": 59,
    "openingHours": [
      {
        "day": "Monday",
        "hours": "9 AM to 8 PM"
      },
      {
        "day": "Tuesday",
        "hours": "9 AM to 8 PM"
      },
      {
        "day": "Wednesday",
        "hours": "9 AM to 8 PM"
      },
      {
        "day": "Thursday",
        "hours": "9 AM to 8 PM"
      },
      {
        "day": "Friday",
        "hours": "9 AM to 8 PM"
      },
      {
        "day": "Saturday",
        "hours": "9 AM to 8 PM"
      },
      {
        "day": "Sunday",
        "hours": "9 AM to 8 PM"
      }
    ],
    "imageUrl": "https://lh3.googleusercontent.com/gps-cs-s/AG0ilSx31qeztq_8KsChjZC_mgFjO0QiyfbgQBMWxUaEhM72S9sklNsuuUQ2ZAC5aBSn2Z6lHwR2QoPEZ8sd7k-2xtF5fjvneoKwgKm3KHNRFoCAnBnt8mW0rhouz6ZV0VpoSlFV8IgtOyVGX8o=w408-h306-k-no",
    "url": "https://www.google.com/maps/search/?api=1&query=CLASSIC%20CARS&query_place_id=ChIJvfgsXXdhvzsREZqbDya6DMs"
  },
  {
    "title": "DREAM CARS BELAGAVI",
    "categoryName": "Used car dealer",
    "address": "CTS No 78, 1/d, Shukrawar Peth Rd, Shivaji Colony, Tilakwadi, Belagavi, Karnataka 590006, India",
    "neighborhood": "Shivaji Colony, Tilakwadi",
    "street": "CTS No 78, 1/d, Shukrawar Peth Rd",
    "city": "Belagavi",
    "postalCode": "590006",
    "state": "Karnataka",
    "countryCode": "IN",
    "phone": "+919972517077",
    "phoneUnformatted": "+919972517077",
    "location": {
      "lat": 15.8384057,
      "lng": 74.5044031
    },
    "totalScore": 4.8,
    "permanentlyClosed": false,
    "temporarilyClosed": false,
    "placeId": "ChIJDfPsjIdnvzsRyzQxn30awdI",
    "categories": [
      "Used car dealer"
    ],
    "reviewsCount": 29,
    "imagesCount": 140,
    "openingHours": [
      {
        "day": "Monday",
        "hours": "9:30 AM to 7 PM"
      },
      {
        "day": "Tuesday",
        "hours": "9:30 AM to 7 PM"
      },
      {
        "day": "Wednesday",
        "hours": "9:30 AM to 7 PM"
      },
      {
        "day": "Thursday",
        "hours": "9:30 AM to 7 PM"
      },
      {
        "day": "Friday",
        "hours": "9:30 AM to 7 PM"
      },
      {
        "day": "Saturday",
        "hours": "9:30 AM to 7 PM"
      },
      {
        "day": "Sunday",
        "hours": "10 AM to 2 PM"
      }
    ],
    "imageUrl": "https://lh3.googleusercontent.com/p/AF1QipPZHgLgxCI5lsCsDcUJJ9GyVAg7YrxC630QeG7k=w533-h240-k-no",
    "url": "https://www.google.com/maps/search/?api=1&query=DREAM%20CARS%20BELAGAVI&query_place_id=ChIJDfPsjIdnvzsRyzQxn30awdI"
  },
  {
    "title": "Good Choice Cars",
    "categoryName": "Car dealer",
    "address": "near Aqsa Masjid, Ashok Nagar, Shivaji Nagar, Belagavi, Karnataka 590016, India",
    "neighborhood": "Ashok Nagar, Shivaji Nagar",
    "street": "near Aqsa Masjid",
    "city": "Belagavi",
    "postalCode": "590016",
    "state": "Karnataka",
    "countryCode": "IN",
    "location": {
      "lat": 15.8750799,
      "lng": 74.5266436
    },
    "totalScore": 4.4,
    "permanentlyClosed": false,
    "temporarilyClosed": false,
    "placeId": "ChIJNfn9RctmvzsRMuZNAoyc2LA",
    "categories": [
      "Car dealer"
    ],
    "reviewsCount": 446,
    "imagesCount": 10251,
    "openingHours": [
      {
        "day": "Monday",
        "hours": "9 AM to 8 PM"
      },
      {
        "day": "Tuesday",
        "hours": "9 AM to 8 PM"
      },
      {
        "day": "Wednesday",
        "hours": "9 AM to 8 PM"
      },
      {
        "day": "Thursday",
        "hours": "9 AM to 8 PM"
      },
      {
        "day": "Friday",
        "hours": "9 AM to 8 PM"
      },
      {
        "day": "Saturday",
        "hours": "9 AM to 8 PM"
      },
      {
        "day": "Sunday",
        "hours": "9 AM to 8 PM"
      }
    ],
    "imageUrl": "https://lh3.googleusercontent.com/gps-cs-s/AG0ilSxVFo9lS5VtkhEPmg-uhLYZ5zJoWafaoO_9VwcvOVRSUX7krL-xTb2KSyJZIIHv8Fzh8Bjq5Z7z4jheEW676ZoieHsfHM6o5neRokHJkn1b6y0acf_2t3OkFQiBdRiKo659xZy7=w426-h240-k-no",
    "url": "https://www.google.com/maps/search/?api=1&query=Good%20Choice%20Cars&query_place_id=ChIJNfn9RctmvzsRMuZNAoyc2LA"
  },
  {
    "title": "Hc Travels",
    "subTitle": "ಎಚ್‌ಸಿ ಟ್ರಾವೆಲ್ಸ್",
    "categoryName": "Car rental agency",
    "address": "Raviwar Peth Rd, Raviwar Peth, Belagavi, Karnataka 590001, India",
    "neighborhood": "Raviwar Peth",
    "street": "Raviwar Peth Rd",
    "city": "Belagavi",
    "postalCode": "590001",
    "state": "Karnataka",
    "countryCode": "IN",
    "location": {
      "lat": 15.8576568,
      "lng": 74.5120538
    },
    "totalScore": 5,
    "permanentlyClosed": false,
    "temporarilyClosed": false,
    "placeId": "ChIJo8bAlhhnvzsRLWU09sftCKI",
    "categories": [
      "Car rental agency"
    ],
    "reviewsCount": 57,
    "imagesCount": 6,
    "openingHours": [
      {
        "day": "Monday",
        "hours": "Open 24 hours"
      },
      {
        "day": "Tuesday",
        "hours": "Open 24 hours"
      },
      {
        "day": "Wednesday",
        "hours": "Open 24 hours"
      },
      {
        "day": "Thursday",
        "hours": "Open 24 hours"
      },
      {
        "day": "Friday",
        "hours": "Open 24 hours"
      },
      {
        "day": "Saturday",
        "hours": "Open 24 hours"
      },
      {
        "day": "Sunday",
        "hours": "Open 24 hours"
      }
    ],
    "imageUrl": "https://lh3.googleusercontent.com/p/AF1QipOuTK-AI9Wl28oPc5tcNbR2_jCfYsf0RaqOkq-4=w427-h240-k-no",
    "url": "https://www.google.com/maps/search/?api=1&query=Hc%20Travels&query_place_id=ChIJo8bAlhhnvzsRLWU09sftCKI"
  },
  {
    "title": "Jayalakshmi Tours And Travels :: Travel Expert Mr Punith Raj",
    "categoryName": "Car rental agency",
    "address": "MIG: 1, SHOP NO 4, MAIN BUS STOP, Mahantesh Nagar, Belagavi, Karnataka 590017, India",
    "neighborhood": "Mahantesh Nagar",
    "street": "MIG: 1, SHOP NO 4, MAIN BUS STOP",
    "city": "Belagavi",
    "postalCode": "590017",
    "state": "Karnataka",
    "countryCode": "IN",
    "phone": "+918147378372",
    "phoneUnformatted": "+918147378372",
    "location": {
      "lat": 15.8733205,
      "lng": 74.5293649
    },
    "totalScore": 4.7,
    "permanentlyClosed": false,
    "temporarilyClosed": false,
    "placeId": "ChIJi7_NnMxmvzsRZOJeHX6PAFg",
    "categories": [
      "Car rental agency",
      "Airline ticket agency",
      "Bus ticket agency",
      "Car leasing service",
      "Travel agency",
      "Hotel",
      "Money transfer service",
      "Taxi service",
      "Train ticket agency"
    ],
    "reviewsCount": 310,
    "imagesCount": 13,
    "openingHours": [],
    "imageUrl": "https://lh3.googleusercontent.com/p/AF1QipNTbUPWh0G84Mcq2Y2DjrRqXx1otr2YYWTGu_Fc=w408-h272-k-no",
    "url": "https://www.google.com/maps/search/?api=1&query=Jayalakshmi%20Tours%20And%20Travels%20%3A%3A%20Travel%20Expert%20Mr%20Punith%20Raj&query_place_id=ChIJi7_NnMxmvzsRZOJeHX6PAFg"
  },
  {
    "title": "Namokar Travels",
    "categoryName": "Car rental agency",
    "address": "BC No 20 Fort, Karnataka 590016, India",
    "neighborhood": "Belgaum Fort Area",
    "street": "BC No 20 Fort",
    "city": "Belagavi",
    "postalCode": "590016",
    "state": "Karnataka",
    "countryCode": "IN",
    "phone": "+919480901029",
    "phoneUnformatted": "+919480901029",
    "location": {
      "lat": 15.8583034,
      "lng": 74.526461
    },
    "totalScore": 4.9,
    "permanentlyClosed": false,
    "temporarilyClosed": false,
    "placeId": "ChIJ-WaEKcdmvzsRDrfAtzFHfH8",
    "categories": [
      "Car rental agency",
      "Air taxi",
      "Airport",
      "Car leasing service",
      "Taxi service",
      "Car sharing location",
      "Tour agency",
      "Travel agency"
    ],
    "reviewsCount": 120,
    "imagesCount": 7,
    "openingHours": [],
    "imageUrl": "https://lh3.googleusercontent.com/gps-cs-s/AG0ilSymbYUJF8IwxNdxyEKH2WDJGsK-WmO383xL-cUw7N4TjatVmTaTjZJOuxEAhhw2RRDiB6kiQffb5aN6Q51dmi2cNavPZzWDGx7LKILM-y2LRIkf55QLcQBQMy5V0Y6rhTSUQS4S=w408-h306-k-no",
    "url": "https://www.google.com/maps/search/?api=1&query=Namokar%20Travels&query_place_id=ChIJ-WaEKcdmvzsRDrfAtzFHfH8"
  },
  {
    "title": "Om Motors (Car Repair, Car Services)",
    "subTitle": "ಓಂ ಮೋಟರ್ಸ್ (ಕಾರ್ ರಿಪೇರ್, ಕಾರ್ ಸರ್ವಿಸಸ್)",
    "categoryName": "Car repair and maintenance service",
    "address": "opp to nagshanti hyundai kle road, kalameshwar Housing Colony, Udyambag, Belagavi, Karnataka 590006, India",
    "neighborhood": "kalameshwar Housing Colony, Udyambag",
    "street": "opp to nagshanti hyundai kle road",
    "city": "Belagavi",
    "postalCode": "590006",
    "state": "Karnataka",
    "countryCode": "IN",
    "phone": "+918549000999",
    "phoneUnformatted": "+918549000999",
    "location": {
      "lat": 15.8189129,
      "lng": 74.4946296
    },
    "totalScore": 4.1,
    "permanentlyClosed": false,
    "temporarilyClosed": false,
    "placeId": "ChIJQT5Q2dZlvzsRNS3u4f6uh00",
    "categories": [
      "Car repair and maintenance service",
      "Auto body shop",
      "Auto insurance agency",
      "Auto repair shop"
    ],
    "reviewsCount": 143,
    "imagesCount": 121,
    "openingHours": [
      {
        "day": "Monday",
        "hours": "9 AM to 6:30 PM"
      },
      {
        "day": "Tuesday",
        "hours": "9 AM to 6:30 PM"
      },
      {
        "day": "Wednesday",
        "hours": "9 AM to 6:30 PM"
      },
      {
        "day": "Thursday",
        "hours": "9 AM to 6:30 PM"
      },
      {
        "day": "Friday",
        "hours": "9 AM to 6:30 PM"
      },
      {
        "day": "Saturday",
        "hours": "9 AM to 6:30 PM"
      },
      {
        "day": "Sunday",
        "hours": "Closed"
      }
    ],
    "imageUrl": "https://lh3.googleusercontent.com/gps-cs-s/AG0ilSzvye-reNSx4xqqCtaNt5FX_s5Olt5iIjMS8PYdQBj5Oj5BTbFk82KpRYJGsLlCQc866eNc_DNIxibwXUirYUCKvaZrckJNvVj5QqnBS9QO9oNkhx9LPM34UXsZv-9z3FGiJYI=w408-h306-k-no",
    "url": "https://www.google.com/maps/search/?api=1&query=Om%20Motors%20(Car%20Repair%2C%20Car%20Services)&query_place_id=ChIJQT5Q2dZlvzsRNS3u4f6uh00"
  },
  {
    "title": "Pride Cars",
    "categoryName": "Car dealer",
    "address": "CTS No. 9659/7, Sector No.11, beside Mahindra Tractor Showroom, Mahantesh Nagar, Belagavi, Karnataka 590017, India",
    "neighborhood": "Mahantesh Nagar",
    "street": "CTS No. 9659/7, Sector No.11, beside Mahindra Tractor Showroom",
    "city": "Belagavi",
    "postalCode": "590017",
    "state": "Karnataka",
    "countryCode": "IN",
    "website": "https://www.instagram.com/pridecarsbelagavi?igsh=bno5Mmpzb2xhdGY4",
    "phone": "+917795196713",
    "phoneUnformatted": "+917795196713",
    "location": {
      "lat": 15.8706897,
      "lng": 74.529818
    },
    "totalScore": 3.8,
    "permanentlyClosed": false,
    "temporarilyClosed": false,
    "placeId": "ChIJm6QrjTNhvzsRyaBeU9JiArc",
    "categories": [
      "Car dealer"
    ],
    "reviewsCount": 12,
    "imagesCount": 54,
    "openingHours": [
      {
        "day": "Monday",
        "hours": "10 AM to 7 PM"
      },
      {
        "day": "Tuesday",
        "hours": "10 AM to 7 PM"
      },
      {
        "day": "Wednesday",
        "hours": "10 AM to 7 PM"
      },
      {
        "day": "Thursday",
        "hours": "10 AM to 7 PM"
      },
      {
        "day": "Friday",
        "hours": "10 AM to 7 PM"
      },
      {
        "day": "Saturday",
        "hours": "10 AM to 7 PM"
      },
      {
        "day": "Sunday",
        "hours": "10 AM to 2 PM"
      }
    ],
    "imageUrl": "https://lh3.googleusercontent.com/gps-cs-s/AG0ilSwjqpRaGs2RrbAoCpB6gbFAPoLF_ksq59jyWfn0bK81-7gtnH8hTPQvrSBB50AxGURZNfdu8EjRo3t1daNGzd7RjG0tdQtSyHmO5UDx7Y12SJ7hLxvmys1lhngejRjyQ4o57lVmRQ=w408-h306-k-no",
    "url": "https://www.google.com/maps/search/?api=1&query=Pride%20Cars&query_place_id=ChIJm6QrjTNhvzsRyaBeU9JiArc"
  },
  {
    "title": "Raju Car rental",
    "subTitle": "Raju ಕಾರ್ ರೆಂಟಲ್",
    "categoryName": "Car rental agency",
    "address": "Sahyadri Colony, Bhagya Nagar, Angol, Belagavi, Karnataka 590008, India",
    "neighborhood": "Sahyadri Colony, Bhagya Nagar, Angol",
    "city": "Belagavi",
    "postalCode": "590008",
    "state": "Karnataka",
    "countryCode": "IN",
    "location": {
      "lat": 15.8183927,
      "lng": 74.5070466
    },
    "permanentlyClosed": false,
    "temporarilyClosed": false,
    "placeId": "ChIJxw-RBHBnvzsRwTN17v2Ttzo",
    "categories": [
      "Car rental agency"
    ],
    "imagesCount": 39,
    "openingHours": [
      {
        "day": "Monday",
        "hours": "Open 24 hours"
      },
      {
        "day": "Tuesday",
        "hours": "Open 24 hours"
      },
      {
        "day": "Wednesday",
        "hours": "Open 24 hours"
      },
      {
        "day": "Thursday",
        "hours": "Open 24 hours"
      },
      {
        "day": "Friday",
        "hours": "Open 24 hours"
      },
      {
        "day": "Saturday",
        "hours": "Open 24 hours"
      },
      {
        "day": "Sunday",
        "hours": "Open 24 hours"
      }
    ],
    "imageUrl": "https://lh3.googleusercontent.com/p/AF1QipMpzBhMejFzJVI2MuM5dPBwowoXCZvSj05r6qzO=w408-h306-k-no",
    "url": "https://www.google.com/maps/search/?api=1&query=Raju%20Car%20rental&query_place_id=ChIJxw-RBHBnvzsRwTN17v2Ttzo"
  },
  {
    "title": "RIGHT CHOICE CAR'S",
    "categoryName": "Car dealer",
    "address": "Ashok Nagar, Shivaji Nagar, Belagavi, Karnataka 590016, India",
    "neighborhood": "Ashok Nagar, Shivaji Nagar",
    "city": "Belagavi",
    "postalCode": "590016",
    "state": "Karnataka",
    "countryCode": "IN",
    "location": {
      "lat": 15.8770906,
      "lng": 74.5254049
    },
    "totalScore": 4.8,
    "permanentlyClosed": false,
    "temporarilyClosed": false,
    "placeId": "ChIJB2ym3BdhvzsR7UmBpGZQA9o",
    "categories": [
      "Car dealer"
    ],
    "reviewsCount": 15,
    "imagesCount": 22,
    "openingHours": [
      {
        "day": "Monday",
        "hours": "10 AM to 7 PM"
      },
      {
        "day": "Tuesday",
        "hours": "10 AM to 7 PM"
      },
      {
        "day": "Wednesday",
        "hours": "10 AM to 7 PM"
      },
      {
        "day": "Thursday",
        "hours": "10 AM to 7 PM"
      },
      {
        "day": "Friday",
        "hours": "10 AM to 7 PM"
      },
      {
        "day": "Saturday",
        "hours": "10 AM to 7 PM"
      },
      {
        "day": "Sunday",
        "hours": "10 AM to 7 PM"
      }
    ],
    "imageUrl": "https://lh3.googleusercontent.com/p/AF1QipP9QuamOHrSEGU22yBZ-U4H2qtp5vZci6MUSR7L=w408-h544-k-no",
    "url": "https://www.google.com/maps/search/?api=1&query=RIGHT%20CHOICE%20CAR'S&query_place_id=ChIJB2ym3BdhvzsR7UmBpGZQA9o"
  },
  {
    "title": "Rishab Travels",
    "categoryName": "Car rental agency",
    "address": "Uday bhavan, Near, Deshmukh Rd, Tilakwadi, Belagavi, Karnataka 590006, India",
    "neighborhood": "Tilakwadi",
    "street": "Uday bhavan, Near, Deshmukh Rd",
    "city": "Belagavi",
    "postalCode": "590006",
    "state": "Karnataka",
    "countryCode": "IN",
    "phone": "+919019640012",
    "phoneUnformatted": "+919019640012",
    "location": {
      "lat": 15.8349824,
      "lng": 74.5046301
    },
    "totalScore": 5,
    "permanentlyClosed": false,
    "temporarilyClosed": false,
    "placeId": "ChIJM5GBX1lnvzsRjqz43if12pE",
    "categories": [
      "Car rental agency",
      "Taxi service"
    ],
    "reviewsCount": 11,
    "imagesCount": 12,
    "openingHours": [],
    "imageUrl": "https://lh3.googleusercontent.com/p/AF1QipOPfOozrpUBvYgpcrePDAHWipV_w7kkf_KLQkZ3=w408-h544-k-no",
    "url": "https://www.google.com/maps/search/?api=1&query=Rishab%20Travels&query_place_id=ChIJM5GBX1lnvzsRjqz43if12pE"
  },
  {
    "title": "Royal Cars Belagavi",
    "categoryName": "Used car dealer",
    "address": "Service Road, Bridge, beside H Promise Hyundai Show room, near Shree Nagar, Shivabasava Nagar, Belagavi, Karnataka 590016, India",
    "neighborhood": "Shivabasava Nagar, Nehru Nagar",
    "street": "Service Road, Bridge, beside H Promise Hyundai Show room, near Shree Nagar",
    "city": "Belagavi",
    "postalCode": "590016",
    "state": "Karnataka",
    "countryCode": "IN",
    "phone": "+917022000777",
    "phoneUnformatted": "+917022000777",
    "location": {
      "lat": 15.8812418,
      "lng": 74.5246841
    },
    "totalScore": 3.7,
    "permanentlyClosed": false,
    "temporarilyClosed": false,
    "placeId": "ChIJLwAA7EthvzsRdNTnEG0RNdc",
    "categories": [
      "Used car dealer"
    ],
    "reviewsCount": 47,
    "imagesCount": 46,
    "openingHours": [
      {
        "day": "Monday",
        "hours": "10:30 AM to 8 PM"
      },
      {
        "day": "Tuesday",
        "hours": "10:30 AM to 8:30 PM"
      },
      {
        "day": "Wednesday",
        "hours": "10:30 AM to 8 PM"
      },
      {
        "day": "Thursday",
        "hours": "10:30 AM to 8 PM"
      },
      {
        "day": "Friday",
        "hours": "10:30 AM to 8 PM"
      },
      {
        "day": "Saturday",
        "hours": "10:30 AM to 8 PM"
      },
      {
        "day": "Sunday",
        "hours": "10:30 AM to 6 PM"
      }
    ],
    "imageUrl": "https://lh3.googleusercontent.com/gps-cs-s/AG0ilSzCRoGPu5p_h5BB6OiTF_XdJj1hWrAW9NSNhjn-LSaLAH7KsELMXSGAmPdHurP2yMXUqTD9SoPrME38wQGL0Qz5Ixe5BRZwjBzLZU4hKmI92DE3DAcKSGsDuy_jetvMOBHpAq9QYA=w408-h306-k-no",
    "url": "https://www.google.com/maps/search/?api=1&query=Royal%20Cars%20Belagavi&query_place_id=ChIJLwAA7EthvzsRdNTnEG0RNdc"
  },
  {
    "title": "ROYAL CARS Park & Sale",
    "categoryName": "Used car dealer",
    "address": "CTS NO 10587/B, opp. A M Shaikh Medical College, Nehru Nagar, Belagavi, Karnataka 590016, India",
    "neighborhood": "Nehru Nagar",
    "street": "CTS NO 10587/B, opp. A M Shaikh Medical College",
    "city": "Belagavi",
    "postalCode": "590016",
    "state": "Karnataka",
    "countryCode": "IN",
    "website": "https://www.biztoll.com/ViewBusinessDetails.aspx?CsId=9981",
    "location": {
      "lat": 15.8777397,
      "lng": 74.5180581
    },
    "totalScore": 4.5,
    "permanentlyClosed": false,
    "temporarilyClosed": false,
    "placeId": "ChIJwwqKYFFhvzsRQn0Dx4dFuz4",
    "categories": [
      "Used car dealer"
    ],
    "reviewsCount": 4,
    "imagesCount": 3,
    "openingHours": [
      {
        "day": "Monday",
        "hours": "9 AM to 10 PM"
      },
      {
        "day": "Tuesday",
        "hours": "9 AM to 10 PM"
      },
      {
        "day": "Wednesday",
        "hours": "9 AM to 10 PM"
      },
      {
        "day": "Thursday",
        "hours": "9 AM to 10 PM"
      },
      {
        "day": "Friday",
        "hours": "9 AM to 10 PM"
      },
      {
        "day": "Saturday",
        "hours": "9 AM to 10 PM"
      },
      {
        "day": "Sunday",
        "hours": "9 AM to 10 PM"
      }
    ],
    "imageUrl": "https://streetviewpixels-pa.googleapis.com/v1/thumbnail?panoid=GpTh-f1QajTV1FNpprl3FQ&cb_client=search.gws-prod.gps&w=408&h=240&yaw=252.90965&pitch=0&thumbfov=100",
    "url": "https://www.google.com/maps/search/?api=1&query=ROYAL%20CARS%20Park%20%26%20Sale&query_place_id=ChIJwwqKYFFhvzsRQn0Dx4dFuz4"
  },
  {
    "title": "Sairath Travels",
    "categoryName": "Car leasing service",
    "address": "Congress Rd, Shivaji Colony, Tilakwadi, Belagavi, Karnataka 590009, India",
    "neighborhood": "Shivaji Colony, Tilakwadi",
    "street": "Congress Rd",
    "city": "Belagavi",
    "postalCode": "590009",
    "state": "Karnataka",
    "countryCode": "IN",
    "website": "https://www.sairathtravels.com/",
    "phone": "+917090947802",
    "phoneUnformatted": "+917090947802",
    "location": {
      "lat": 15.8439908,
      "lng": 74.5043933
    },
    "totalScore": 3.9,
    "permanentlyClosed": false,
    "temporarilyClosed": false,
    "placeId": "ChIJfc93l9dnvzsRvjl3sGIWXKc",
    "categories": [
      "Car leasing service"
    ],
    "reviewsCount": 7,
    "imagesCount": 38,
    "openingHours": [
      {
        "day": "Monday",
        "hours": "Open 24 hours"
      },
      {
        "day": "Tuesday",
        "hours": "Open 24 hours"
      },
      {
        "day": "Wednesday",
        "hours": "Open 24 hours"
      },
      {
        "day": "Thursday",
        "hours": "Open 24 hours"
      },
      {
        "day": "Friday",
        "hours": "Open 24 hours"
      },
      {
        "day": "Saturday",
        "hours": "Open 24 hours"
      },
      {
        "day": "Sunday",
        "hours": "Open 24 hours"
      }
    ],
    "imageUrl": "https://lh3.googleusercontent.com/p/AF1QipPPtJSCs3udi-jnRi4ZsuESrLDIWNaYIziMi2CO=w408-h906-k-no",
    "url": "https://www.google.com/maps/search/?api=1&query=Sairath%20Travels&query_place_id=ChIJfc93l9dnvzsRvjl3sGIWXKc"
  },
  {
    "title": "Sayyed Tours & Travels",
    "categoryName": "Car leasing service",
    "address": "Khade Bazar, Raviwar Peth, Belagavi, Karnataka 590016, India",
    "neighborhood": "Khade Bazar, Raviwar Peth",
    "city": "Belagavi",
    "postalCode": "590016",
    "state": "Karnataka",
    "countryCode": "IN",
    "phone": "+918296202488",
    "phoneUnformatted": "+918296202488",
    "location": {
      "lat": 15.8615121,
      "lng": 74.5159183
    },
    "totalScore": 5,
    "permanentlyClosed": false,
    "temporarilyClosed": false,
    "placeId": "ChIJLSD0vCFnvzsRPxYNDaTe6OQ",
    "categories": [
      "Car leasing service"
    ],
    "reviewsCount": 3,
    "imagesCount": 5,
    "openingHours": [
      {
        "day": "Monday",
        "hours": "Open 24 hours"
      },
      {
        "day": "Tuesday",
        "hours": "Open 24 hours"
      },
      {
        "day": "Wednesday",
        "hours": "Open 24 hours"
      },
      {
        "day": "Thursday",
        "hours": "Open 24 hours"
      },
      {
        "day": "Friday",
        "hours": "Open 24 hours"
      },
      {
        "day": "Saturday",
        "hours": "Open 24 hours"
      },
      {
        "day": "Sunday",
        "hours": "Open 24 hours"
      }
    ],
    "imageUrl": "https://lh3.googleusercontent.com/p/AF1QipNwjRbspWA22odIRCMzC4sincSm621o6Dl9QhHk=w408-h544-k-no",
    "url": "https://www.google.com/maps/search/?api=1&query=Sayyed%20Tours%20%26%20Travels&query_place_id=ChIJLSD0vCFnvzsRPxYNDaTe6OQ"
  },
  {
    "title": "Self drive",
    "categoryName": "Car leasing service",
    "address": "shri saibaba mandir left side 2nd office, 26, Ambedkar Nagar, opposite raza e, mustafa colony, Sadashiv Nagar, Belagavi, Karnataka 590019, India",
    "neighborhood": "mustafa colony, Sadashiv Nagar",
    "street": "shri saibaba mandir left side 2nd office, 26, Ambedkar Nagar, opposite raza e",
    "city": "Belagavi",
    "postalCode": "590019",
    "state": "Karnataka",
    "countryCode": "IN",
    "phone": "+917795508754",
    "phoneUnformatted": "+917795508754",
    "location": {
      "lat": 15.8818203,
      "lng": 74.5029733
    },
    "totalScore": 5,
    "permanentlyClosed": false,
    "temporarilyClosed": false,
    "placeId": "ChIJV0LpqJJhvzsRt1r8sNIr5TY",
    "categories": [
      "Car leasing service"
    ],
    "reviewsCount": 14,
    "imagesCount": 5,
    "openingHours": [
      {
        "day": "Monday",
        "hours": "Open 24 hours"
      },
      {
        "day": "Tuesday",
        "hours": "Open 24 hours"
      },
      {
        "day": "Wednesday",
        "hours": "Open 24 hours"
      },
      {
        "day": "Thursday",
        "hours": "Open 24 hours"
      },
      {
        "day": "Friday",
        "hours": "2:30 to 10 AM"
      },
      {
        "day": "Saturday",
        "hours": "Open 24 hours"
      },
      {
        "day": "Sunday",
        "hours": "Open 24 hours"
      }
    ],
    "imageUrl": "https://lh3.googleusercontent.com/p/AF1QipNnGgtwDKFl8j0a6gOfYJQLpdFvbZbzfeTrQkoO=w408-h541-k-no",
    "url": "https://www.google.com/maps/search/?api=1&query=Self%20drive&query_place_id=ChIJV0LpqJJhvzsRt1r8sNIr5TY"
  },
  {
    "title": "Shree Ganpath Travels",
    "categoryName": "Car rental agency",
    "address": "shop no 5, Sheri Galli, near shani mandir, Raviwar Peth, Belagavi, Karnataka 590001, India",
    "neighborhood": "Raviwar Peth",
    "street": "shop no 5, Sheri Galli, near shani mandir",
    "city": "Belagavi",
    "postalCode": "590001",
    "state": "Karnataka",
    "countryCode": "IN",
    "website": "https://www.shreeganpathtravels.in/?utm_source=google&utm_medium=wix_google_business_profile&utm_campaign=17906784219144180019",
    "phone": "+919538582255",
    "phoneUnformatted": "+919538582255",
    "location": {
      "lat": 15.8548928,
      "lng": 74.5143669
    },
    "totalScore": 5,
    "permanentlyClosed": false,
    "temporarilyClosed": false,
    "placeId": "ChIJW1iqB0ZnvzsRA27-PxDs98U",
    "categories": [
      "Car rental agency",
      "Air taxi",
      "Airport",
      "Bus tour agency",
      "Car leasing service",
      "Taxi service",
      "Car sharing location",
      "Minibus taxi service",
      "Tour operator",
      "Travel agency"
    ],
    "reviewsCount": 338,
    "imagesCount": 99,
    "openingHours": [],
    "imageUrl": "https://lh3.googleusercontent.com/p/AF1QipOdM0HcG5wNTp2VwrN4cB1IVuj50Uvff5V4nCuA=w408-h408-k-no",
    "url": "https://www.google.com/maps/search/?api=1&query=Shree%20Ganpath%20Travels&query_place_id=ChIJW1iqB0ZnvzsRA27-PxDs98U"
  },
  {
    "title": "Siddeshwar Travels Belagavi",
    "categoryName": "Car leasing service",
    "address": "House No 12, sector no 11, Mahantesh Nagar, Belagavi, Karnataka 590017, India",
    "neighborhood": "sector no 11, Mahantesh Nagar",
    "street": "House No 12",
    "city": "Belagavi",
    "postalCode": "590017",
    "state": "Karnataka",
    "countryCode": "IN",
    "phone": "+918431128058",
    "phoneUnformatted": "+918431128058",
    "location": {
      "lat": 15.8797125,
      "lng": 74.5293333
    },
    "totalScore": 4.9,
    "permanentlyClosed": false,
    "temporarilyClosed": false,
    "placeId": "ChIJdyGuy9phvzsR7L2s8P5ghnY",
    "categories": [
      "Car leasing service",
      "Taxi service",
      "Tour operator",
      "Travel agency"
    ],
    "reviewsCount": 80,
    "imagesCount": 8,
    "openingHours": [],
    "imageUrl": "https://lh3.googleusercontent.com/p/AF1QipPObXHOIz3GJWEIAImoqkpvZ55dgvbmn_5p9ex0=w408-h271-k-no",
    "url": "https://www.google.com/maps/search/?api=1&query=Siddeshwar%20Travels%20Belagavi&query_place_id=ChIJdyGuy9phvzsR7L2s8P5ghnY"
  },
  {
    "title": "Super Auto Electronics & Car Accessories",
    "subTitle": "ಸೂಪರ್ ಆಟೋ ಎಲೆಕ್ಟ್ರಾನಿಕ್ಸ್ ಮತ್ತು ಕಾರು ಪರಿಕರಗಳು",
    "categoryName": "Car accessories store",
    "address": "4122/A1, Gavli Galli, near Tarun Bharat Press, Khade Bazar, Raviwar Peth, Belagavi, Karnataka 590001, India",
    "neighborhood": "Khade Bazar, Raviwar Peth",
    "street": "4122/A1, Gavli Galli, near Tarun Bharat Press",
    "city": "Belagavi",
    "postalCode": "590001",
    "state": "Karnataka",
    "countryCode": "IN",
    "phone": "+919845369762",
    "phoneUnformatted": "+919845369762",
    "location": {
      "lat": 15.8626358,
      "lng": 74.5099776
    },
    "totalScore": 4.9,
    "permanentlyClosed": false,
    "temporarilyClosed": false,
    "placeId": "ChIJswpy9a9mvzsR8cUwDowy2eE",
    "categories": [
      "Car accessories store"
    ],
    "reviewsCount": 2585,
    "imagesCount": 2212,
    "openingHours": [
      {
        "day": "Monday",
        "hours": "9 AM to 9 PM"
      },
      {
        "day": "Tuesday",
        "hours": "9 AM to 3 PM"
      },
      {
        "day": "Wednesday",
        "hours": "9 AM to 9 PM"
      },
      {
        "day": "Thursday",
        "hours": "9 AM to 9 PM"
      },
      {
        "day": "Friday",
        "hours": "9 AM to 9 PM"
      },
      {
        "day": "Saturday",
        "hours": "9 AM to 9 PM"
      },
      {
        "day": "Sunday",
        "hours": "9 AM to 9 PM"
      }
    ],
    "imageUrl": "https://lh3.googleusercontent.com/gps-cs-s/AG0ilSwkjpDrdkKIMr2ZkS6DnBj0XPkOsJJ2468CgqHA_Wsntlc7HfjKi9mYJTUgCpMnv7L8o-3TD0uwf7PGrlOAU8gVaKy8RhVJl2dmaBIGwAeAaCqtnC9xam31aBEcncVafonZb82WYw=w408-h306-k-no",
    "url": "https://www.google.com/maps/search/?api=1&query=Super%20Auto%20Electronics%20%26%20Car%20Accessories&query_place_id=ChIJswpy9a9mvzsR8cUwDowy2eE"
  },
  {
    "title": "The Travels Hub Belgaum",
    "categoryName": "Car rental agency",
    "address": "Star tower Khanapur Road Tilakwadi Belgaum Airport road, Sambra Airport, Gandhi Nagar, Belagavi, Karnataka 590006, India",
    "neighborhood": "Gandhi Nagar, Tilakwadi",
    "street": "Star tower Khanapur Road Tilakwadi Belgaum Airport road, Sambra Airport",
    "city": "Belagavi",
    "postalCode": "590006",
    "state": "Karnataka",
    "countryCode": "IN",
    "website": "http://www.thetravelshubbelgaum.com/",
    "phone": "+919986242508",
    "phoneUnformatted": "+919986242508",
    "location": {
      "lat": 15.8341248,
      "lng": 74.5038927
    },
    "totalScore": 4.9,
    "permanentlyClosed": false,
    "temporarilyClosed": false,
    "placeId": "ChIJORkMuwFnvzsRjC1LmvhYM14",
    "categories": [
      "Car rental agency",
      "Airport shuttle service",
      "Car leasing service",
      "Taxi service",
      "Sightseeing tour agency",
      "Tour operator",
      "Towing service"
    ],
    "reviewsCount": 229,
    "imagesCount": 30,
    "openingHours": [],
    "imageUrl": "https://lh3.googleusercontent.com/p/AF1QipPBJafLQDJ6K9QX8FUZeEE162FTmBU1VPmiHSD2=w408-h912-k-no",
    "url": "https://www.google.com/maps/search/?api=1&query=The%20Travels%20Hub%20Belgaum&query_place_id=ChIJORkMuwFnvzsRjC1LmvhYM14"
  },
  {
    "title": "Unique cars",
    "subTitle": "ಯುನಿಕ್ ಕಾರ್ಸ್",
    "categoryName": "Car dealer",
    "address": "Plot no, 1, Civil Hospital Rd, Ayodhya Nagar, Sadashiv Nagar, Belagavi, Karnataka 590019, India",
    "neighborhood": "Ayodhya Nagar, Sadashiv Nagar",
    "street": "Plot no, 1, Civil Hospital Rd",
    "city": "Belagavi",
    "postalCode": "590019",
    "state": "Karnataka",
    "countryCode": "IN",
    "phone": "+919739411679",
    "phoneUnformatted": "+919739411679",
    "location": {
      "lat": 15.8753079,
      "lng": 74.5129964
    },
    "totalScore": 4.9,
    "permanentlyClosed": false,
    "temporarilyClosed": false,
    "placeId": "ChIJ5ROEFxlnvzsRxqKmbH9TOco",
    "categories": [
      "Car dealer"
    ],
    "reviewsCount": 14,
    "imagesCount": 39,
    "openingHours": [
      {
        "day": "Monday",
        "hours": "10 AM to 9 PM"
      },
      {
        "day": "Tuesday",
        "hours": "10 AM to 9 PM"
      },
      {
        "day": "Wednesday",
        "hours": "10 AM to 9 PM"
      },
      {
        "day": "Thursday",
        "hours": "10 AM to 9 PM"
      },
      {
        "day": "Friday",
        "hours": "10 AM to 9 PM"
      },
      {
        "day": "Saturday",
        "hours": "10 AM to 9 PM"
      },
      {
        "day": "Sunday",
        "hours": "10 AM to 9 PM"
      }
    ],
    "imageUrl": "https://lh3.googleusercontent.com/p/AF1QipObXrEW9zF4vMy2uBMlrCA5Feh0WNgARwS6WAY=w408-h242-k-no",
    "url": "https://www.google.com/maps/search/?api=1&query=Unique%20cars&query_place_id=ChIJ5ROEFxlnvzsRxqKmbH9TOco"
  },
  {
    "title": "UNITY CARS",
    "subTitle": "ಯೂನಿಟಿ ಕಾರ್ಸ್",
    "categoryName": "Used car dealer",
    "address": "Unity Cars CTS No 10323, opp. Dharmnath Bhavan Belagavi, Shivabasava Nagar, Belagavi, Karnataka 590016, India",
    "neighborhood": "Shivabasava Nagar, Nehru Nagar",
    "street": "Unity Cars CTS No 10323, opp. Dharmnath Bhavan Belagavi",
    "city": "Belagavi",
    "postalCode": "590016",
    "state": "Karnataka",
    "countryCode": "IN",
    "website": "https://biztoll.com/ViewBusinessDetails.aspx?CsId=2677",
    "phone": "+918660325557",
    "phoneUnformatted": "+918660325557",
    "location": {
      "lat": 15.8760744,
      "lng": 74.5219035
    },
    "totalScore": 4.8,
    "permanentlyClosed": false,
    "temporarilyClosed": false,
    "placeId": "ChIJrRj1zWlhvzsRxjSC4rvhUPk",
    "categories": [
      "Used car dealer"
    ],
    "reviewsCount": 39,
    "imagesCount": 39,
    "openingHours": [
      {
        "day": "Monday",
        "hours": "9:30 AM to 8 PM"
      },
      {
        "day": "Tuesday",
        "hours": "9:30 AM to 8 PM"
      },
      {
        "day": "Wednesday",
        "hours": "9:30 AM to 8 PM"
      },
      {
        "day": "Thursday",
        "hours": "9:30 AM to 8 PM"
      },
      {
        "day": "Friday",
        "hours": "9:30 AM to 8 PM"
      },
      {
        "day": "Saturday",
        "hours": "9:30 AM to 8 PM"
      },
      {
        "day": "Sunday",
        "hours": "9:30 AM to 8 PM"
      }
    ],
    "imageUrl": "https://lh3.googleusercontent.com/p/AF1QipPhPpF59yTzASBrEMesfBFr4BVAXZTHRC6SvekI=w537-h240-k-no",
    "url": "https://www.google.com/maps/search/?api=1&query=UNITY%20CARS&query_place_id=ChIJrRj1zWlhvzsRxjSC4rvhUPk"
  },
  {
    "title": "Virat Sales Auto Consultant And Travel Agency",
    "categoryName": "Used car dealer",
    "address": "RS NO, 1407/B, KANABARGI ROAD, near AYAPPA SWAMI TEMPLE, Rukmini Nagar, Mahantesh Nagar, Belagavi, Karnataka 590017, India",
    "neighborhood": "Rukmini Nagar, Mahantesh Nagar",
    "street": "RS NO, 1407/B, KANABARGI ROAD, near AYAPPA SWAMI TEMPLE",
    "city": "Belagavi",
    "postalCode": "590017",
    "state": "Karnataka",
    "countryCode": "IN",
    "location": {
      "lat": 15.8781661,
      "lng": 74.5398767
    },
    "totalScore": 5,
    "permanentlyClosed": false,
    "temporarilyClosed": false,
    "placeId": "ChIJs6rtdcVhvzsRs8XQ3gWS1rw",
    "categories": [
      "Used car dealer"
    ],
    "reviewsCount": 2,
    "imagesCount": 4,
    "openingHours": [
      {
        "day": "Monday",
        "hours": "9 AM to 9 PM"
      },
      {
        "day": "Tuesday",
        "hours": "9 AM to 9 PM"
      },
      {
        "day": "Wednesday",
        "hours": "9 AM to 9 PM"
      },
      {
        "day": "Thursday",
        "hours": "9 AM to 9 PM"
      },
      {
        "day": "Friday",
        "hours": "9 AM to 9 PM"
      },
      {
        "day": "Saturday",
        "hours": "9 AM to 9 PM"
      },
      {
        "day": "Sunday",
        "hours": "9 AM to 9 PM"
      }
    ],
    "imageUrl": "https://lh3.googleusercontent.com/gps-cs-s/AG0ilSyU4tkicyJXltbat1FeSzTrdk_xVSVEXyw0pkxjPUOqlxL-lj-GU5wzQauCcdqKYSut4tHsCIQdZfnuTtqi52PqSNFh0dwlC-9cJOaDvKDXDIPgwqIn90Qc762BuXGp228HHrU=w426-h240-k-no",
    "url": "https://www.google.com/maps/search/?api=1&query=Virat%20Sales%20Auto%20Consultant%20And%20Travel%20Agency&query_place_id=ChIJs6rtdcVhvzsRs8XQ3gWS1rw"
  }
]
