[
  {
    "title": "@Cluxesive Pvt Ltd",
    "subTitle": "@क्लक्सेसिव पीवीटी एलटीडी",
    "categoryName": "Car dealer",
    "address": "H no 18, 2 Karimbaksh colony, Bus Stop Rd, near peteol pump ⛽, Nariyalkheda, Bhopal, Madhya Pradesh 462100, India",
    "neighborhood": "Nariyalkheda",
    "street": "H no 18, 2 Karimbaksh colony, Bus Stop Rd, near peteol pump ⛽",
    "city": "Bhopal",
    "postalCode": "462100",
    "state": "Madhya Pradesh",
    "countryCode": "IN",
    "phone": "+918319385975",
    "phoneUnformatted": "+918319385975",
    "location": {
      "lat": 23.2861756,
      "lng": 77.3967333
    },
    "totalScore": 4.8,
    "permanentlyClosed": false,
    "temporarilyClosed": false,
    "placeId": "ChIJ_xGW5y1pfDkRC3E3gjVA1Ow",
    "categories": [
      "Car dealer"
    ],
    "reviewsCount": 9,
    "imagesCount": 127,
    "openingHours": [
      {
        "day": "Monday",
        "hours": "11 AM to 6 PM"
      },
      {
        "day": "Tuesday",
        "hours": "11 AM to 6 PM"
      },
      {
        "day": "Wednesday",
        "hours": "11 AM to 6 PM"
      },
      {
        "day": "Thursday",
        "hours": "11 AM to 6 PM"
      },
      {
        "day": "Friday",
        "hours": "11 AM to 6 PM"
      },
      {
        "day": "Saturday",
        "hours": "11 AM to 6 PM"
      },
      {
        "day": "Sunday",
        "hours": "Closed"
      }
    ],
    "imageUrl": "https://media.indianluxurycars.com/google/c3843251567c5272c68bf736c501d91335525c565df10970a8a18a86c44669d1.jpg",
    "url": "https://www.google.com/maps/search/?api=1&query=%40Cluxesive%20Pvt%20Ltd&query_place_id=ChIJ_xGW5y1pfDkRC3E3gjVA1Ow"
  },
  {
    "title": "Bhoomi Tours And Travels",
    "categoryName": "Car leasing service",
    "address": "A 57, near Industrial Area, Govindpura, New Subhash Colony, Soubhagya Nagar, Subhash Colony, Bhopal, Madhya Pradesh 462023, India",
    "neighborhood": "New Subhash Colony, Soubhagya Nagar, Subhash Colony",
    "street": "A 57, near Industrial Area, Govindpura",
    "city": "Bhopal",
    "postalCode": "462023",
    "state": "Madhya Pradesh",
    "countryCode": "IN",
    "website": "http://www.bhoomitravels.in/www.bhoomitoursandtravels.com",
    "phone": "+919522221996",
    "phoneUnformatted": "+919522221996",
    "location": {
      "lat": 23.2663545,
      "lng": 77.4357613
    },
    "totalScore": 4.6,
    "permanentlyClosed": false,
    "temporarilyClosed": false,
    "placeId": "ChIJIWhllddpfDkRIX2ZBrNlTPo",
    "categories": [
      "Car leasing service",
      "Bus tour agency",
      "Travel agency",
      "Cruise agency",
      "Minibus taxi service",
      "Motoring club",
      "Sightseeing tour agency",
      "Taxi service",
      "Tour operator",
      "Tourist information center"
    ],
    "reviewsCount": 58,
    "imagesCount": 51,
    "openingHours": [
      {
        "day": "Monday",
        "hours": "8 AM to 10 PM"
      },
      {
        "day": "Tuesday",
        "hours": "8 AM to 10 PM"
      },
      {
        "day": "Wednesday",
        "hours": "8 AM to 10 PM"
      },
      {
        "day": "Thursday",
        "hours": "8 AM to 10 PM"
      },
      {
        "day": "Friday",
        "hours": "8:30 AM to 10 PM"
      },
      {
        "day": "Saturday",
        "hours": "8 AM to 10 PM"
      },
      {
        "day": "Sunday",
        "hours": "Closed"
      }
    ],
    "imageUrl": "https://media.indianluxurycars.com/google/ffb56ed4b0cce7a5f78f577f554f323f1f8d7604b780e5ef9f3f309dd7331188.jpg",
    "url": "https://www.google.com/maps/search/?api=1&query=Bhoomi%20Tours%20And%20Travels&query_place_id=ChIJIWhllddpfDkRIX2ZBrNlTPo"
  },
  {
    "title": "Bhopal Car Bazar",
    "subTitle": "भोपाल कार बाजार",
    "categoryName": "Car dealer",
    "address": "Afzal Colony, Jahangirabad, Bhopal, Madhya Pradesh 462008, India",
    "neighborhood": "Afzal Colony, Jahangirabad",
    "city": "Bhopal",
    "postalCode": "462008",
    "state": "Madhya Pradesh",
    "countryCode": "IN",
    "phone": "+919302906002",
    "phoneUnformatted": "+919302906002",
    "location": {
      "lat": 23.2498283,
      "lng": 77.424724
    },
    "totalScore": 4,
    "permanentlyClosed": false,
    "temporarilyClosed": false,
    "placeId": "ChIJGV7stodDfDkR2x5Z9QPc7sI",
    "categories": [
      "Car dealer"
    ],
    "reviewsCount": 42,
    "imagesCount": 24,
    "openingHours": [
      {
        "day": "Monday",
        "hours": "10 AM to 10 PM"
      },
      {
        "day": "Tuesday",
        "hours": "10 AM to 10 PM"
      },
      {
        "day": "Wednesday",
        "hours": "10 AM to 10 PM"
      },
      {
        "day": "Thursday",
        "hours": "10 AM to 10 PM"
      },
      {
        "day": "Friday",
        "hours": "10 AM to 10 PM"
      },
      {
        "day": "Saturday",
        "hours": "10 AM to 10 PM"
      },
      {
        "day": "Sunday",
        "hours": "10 AM to 10 PM"
      }
    ],
    "imageUrl": "https://media.indianluxurycars.com/google/5c8be78856edded372702f63b63cc48bb925b3c064b6deb6d62a878ca007fb7e.jpg",
    "url": "https://www.google.com/maps/search/?api=1&query=Bhopal%20Car%20Bazar&query_place_id=ChIJGV7stodDfDkR2x5Z9QPc7sI"
  },
  {
    "title": "Bhopal Car Deal",
    "subTitle": "भोपाल कार डील",
    "categoryName": "Used car dealer",
    "address": "86, Sector-B, Airport Rd, near spandan hospital, Indra Vihar Colony, Nayapura, Lalghati, Bhopal, Madhya Pradesh 462030, India",
    "neighborhood": "Indra Vihar Colony, Nayapura, Lalghati",
    "street": "86, Sector-B, Airport Rd, near spandan hospital",
    "city": "Bhopal",
    "postalCode": "462030",
    "state": "Madhya Pradesh",
    "countryCode": "IN",
    "website": "http://bhopalcardeal.com/?utm_source=gmb&utm_medium=referral",
    "phone": "+918358804031",
    "phoneUnformatted": "+918358804031",
    "location": {
      "lat": 23.2763044,
      "lng": 77.3676066
    },
    "totalScore": 4.1,
    "permanentlyClosed": false,
    "temporarilyClosed": false,
    "placeId": "ChIJuWzrRhpofDkR7qldkTCgn0Q",
    "categories": [
      "Used car dealer",
      "Car dealer"
    ],
    "reviewsCount": 17,
    "imagesCount": 79,
    "openingHours": [
      {
        "day": "Monday",
        "hours": "10 AM to 9 PM"
      },
      {
        "day": "Tuesday",
        "hours": "10 AM to 9 PM"
      },
      {
        "day": "Wednesday",
        "hours": "10 AM to 9 PM"
      },
      {
        "day": "Thursday",
        "hours": "10 AM to 9 PM"
      },
      {
        "day": "Friday",
        "hours": "10 AM to 9 PM"
      },
      {
        "day": "Saturday",
        "hours": "10 AM to 9 PM"
      },
      {
        "day": "Sunday",
        "hours": "10 AM to 9 PM"
      }
    ],
    "imageUrl": "https://media.indianluxurycars.com/google/e16c4726cdbe4a9b714802b81ac388cbf62de3bd5744869b5d9ac9699f223399.jpg",
    "url": "https://www.google.com/maps/search/?api=1&query=Bhopal%20Car%20Deal&query_place_id=ChIJuWzrRhpofDkR7qldkTCgn0Q"
  },
  {
    "title": "Bhopal car rental | Bhopal taxi service",
    "subTitle": "भोपाल कार रेंटल | भोपाल टैक्सी सर्विस",
    "categoryName": "Car leasing service",
    "address": "Shop no-29, Kakra Abhinav homes, Ayodhya Bypass Rd, Rusalli, Karond, Bhopal, Madhya Pradesh 462038, India",
    "neighborhood": "Rusalli, Karond",
    "street": "Shop no-29, Kakra Abhinav homes, Ayodhya Bypass Rd",
    "city": "Bhopal",
    "postalCode": "462038",
    "state": "Madhya Pradesh",
    "countryCode": "IN",
    "website": "https://bhopaltaxiservice.in/",
    "phone": "+919753474142",
    "phoneUnformatted": "+919753474142",
    "location": {
      "lat": 23.3026087,
      "lng": 77.4013898
    },
    "totalScore": 4.9,
    "permanentlyClosed": false,
    "temporarilyClosed": false,
    "placeId": "ChIJ0S_lvjhpfDkRtAWO3BuTGnw",
    "categories": [
      "Car leasing service",
      "Taxi service"
    ],
    "reviewsCount": 280,
    "imagesCount": 138,
    "openingHours": [],
    "imageUrl": "https://media.indianluxurycars.com/google/392f2b0f9bd016793684b0033204cd0f9183934131fb17673f8f704aa1a1b049.jpg",
    "url": "https://www.google.com/maps/search/?api=1&query=Bhopal%20car%20rental%20%7C%20Bhopal%20taxi%20service&query_place_id=ChIJ0S_lvjhpfDkRtAWO3BuTGnw"
  },
  {
    "title": "Cabsy I Taxi and Cab Services",
    "categoryName": "Car rental agency",
    "address": "104, Plot, No. 86, First Floor, Flat No, Zone-II, Maharana Pratap Nagar, Bhopal, Madhya Pradesh 462011, India",
    "neighborhood": "Near Raymond Showroom, Zone-II, Maharana Pratap Nagar",
    "street": "104, Plot, No. 86, First Floor, Flat No",
    "city": "Bhopal",
    "postalCode": "462011",
    "state": "Madhya Pradesh",
    "countryCode": "IN",
    "website": "https://cabsy-i-taxi-and-cab.grexa.site/",
    "phone": "+919111503030",
    "phoneUnformatted": "+919111503030",
    "location": {
      "lat": 23.2326484,
      "lng": 77.4355888
    },
    "totalScore": 4.9,
    "permanentlyClosed": false,
    "temporarilyClosed": false,
    "placeId": "ChIJpeRN0odDfDkR9x7mlL6xObg",
    "categories": [
      "Car rental agency",
      "Airport shuttle service",
      "Car leasing service",
      "Taxi service",
      "Minibus taxi service",
      "Tour operator"
    ],
    "reviewsCount": 232,
    "imagesCount": 124,
    "openingHours": [],
    "imageUrl": "https://media.indianluxurycars.com/google/50f79c8e86c0ca6c98b77cc544140b60c59c4fce2e022f74fa6bd29f128e3ed3.jpg",
    "url": "https://www.google.com/maps/search/?api=1&query=Cabsy%20I%20Taxi%20and%20Cab%20Services&query_place_id=ChIJpeRN0odDfDkR9x7mlL6xObg"
  },
  {
    "title": "Car Shringar -Best Car Accessories |Top Car Modification |Seat Cover in MP Nagar Bhopal",
    "subTitle": "कार श्रृंगार -बेस्ट कार एसेसरिज |टॉप कार मोडिफिकेशन |सीट कवर इन एमपी नगर भोपाल",
    "categoryName": "Car accessories store",
    "address": "In front or, 196, shop no -4 kamdhenu complex, service lane, DB City Mall, Zone-I, Maharana Pratap Nagar, Bhopal, Madhya Pradesh 462011, India",
    "neighborhood": "DB City Mall, Zone-I, Maharana Pratap Nagar",
    "street": "In front or, 196, shop no -4 kamdhenu complex, service lane",
    "city": "Bhopal",
    "postalCode": "462011",
    "state": "Madhya Pradesh",
    "countryCode": "IN",
    "phone": "+919893285566",
    "phoneUnformatted": "+919893285566",
    "location": {
      "lat": 23.2326841,
      "lng": 77.431549
    },
    "totalScore": 4.6,
    "permanentlyClosed": false,
    "temporarilyClosed": false,
    "placeId": "ChIJAQAAwGdCfDkRsG1ed6kYgvs",
    "categories": [
      "Car accessories store",
      "Car stereo store"
    ],
    "reviewsCount": 74,
    "imagesCount": 107,
    "openingHours": [
      {
        "day": "Monday",
        "hours": "10 AM to 9:30 PM"
      },
      {
        "day": "Tuesday",
        "hours": "10 AM to 9:30 PM"
      },
      {
        "day": "Wednesday",
        "hours": "10 AM to 9:30 PM"
      },
      {
        "day": "Thursday",
        "hours": "10 AM to 9:30 PM"
      },
      {
        "day": "Friday",
        "hours": "10 AM to 9:30 PM"
      },
      {
        "day": "Saturday",
        "hours": "10 AM to 9:30 PM"
      },
      {
        "day": "Sunday",
        "hours": "10 AM to 9:30 PM"
      }
    ],
    "imageUrl": "https://media.indianluxurycars.com/google/2804a3ca189240449891debf4dddc50775d979338cc6bbefdcf1caa4a82fdd6a.jpg",
    "url": "https://www.google.com/maps/search/?api=1&query=Car%20Shringar%20-Best%20Car%20Accessories%20%7CTop%20Car%20Modification%20%7CSeat%20Cover%20in%20MP%20Nagar%20Bhopal&query_place_id=ChIJAQAAwGdCfDkRsG1ed6kYgvs"
  },
  {
    "title": "Car World",
    "subTitle": "कार वर्ल्ड",
    "categoryName": "Car accessories store",
    "address": "opposite db mall, Near Hotel Surendra Vilas, Zone-I, Maharana Pratap Nagar, Bhopal, Madhya Pradesh 462011, India",
    "neighborhood": "Near Hotel Surendra Vilas, Zone-I, Maharana Pratap Nagar",
    "street": "opposite db mall",
    "city": "Bhopal",
    "postalCode": "462011",
    "state": "Madhya Pradesh",
    "countryCode": "IN",
    "phone": "+919669674398",
    "phoneUnformatted": "+919669674398",
    "location": {
      "lat": 23.2328742,
      "lng": 77.4319511
    },
    "totalScore": 4.9,
    "permanentlyClosed": false,
    "temporarilyClosed": false,
    "placeId": "ChIJi2H3bGdCfDkRSFo1YTppuQU",
    "categories": [
      "Car accessories store"
    ],
    "reviewsCount": 22,
    "imagesCount": 14,
    "openingHours": [
      {
        "day": "Monday",
        "hours": "11 AM to 9 PM"
      },
      {
        "day": "Tuesday",
        "hours": "11 AM to 9 PM"
      },
      {
        "day": "Wednesday",
        "hours": "11 AM to 9 PM"
      },
      {
        "day": "Thursday",
        "hours": "11 AM to 9 PM"
      },
      {
        "day": "Friday",
        "hours": "11 AM to 9 PM"
      },
      {
        "day": "Saturday",
        "hours": "11 AM to 9 PM"
      },
      {
        "day": "Sunday",
        "hours": "11 AM to 9 PM"
      }
    ],
    "imageUrl": "https://media.indianluxurycars.com/google/6515b4662b6357b4e0ffb1eb9ad66d367283fe812e229d5012cd88709e8eb594.jpg",
    "url": "https://www.google.com/maps/search/?api=1&query=Car%20World&query_place_id=ChIJi2H3bGdCfDkRSFo1YTppuQU"
  },
  {
    "title": "D K Travels",
    "subTitle": "डि के ट्रैवल्स",
    "categoryName": "Car rental agency",
    "address": "Choraha, P&T, Shop No. 305-2,1, Nehru Nagar Main Rd, near Harish Chok, Ekta Market, Bhopal, Madhya Pradesh 462003, India",
    "neighborhood": "Ekta Market, Shastri Nagar",
    "street": "Choraha, P&T, Shop No. 305-2,1, Nehru Nagar Main Rd, near Harish Chok",
    "city": "Bhopal",
    "postalCode": "462003",
    "state": "Madhya Pradesh",
    "countryCode": "IN",
    "website": "https://thedktravels.in/",
    "phone": "+917000244504",
    "phoneUnformatted": "+917000244504",
    "location": {
      "lat": 23.2217072,
      "lng": 77.3909569
    },
    "totalScore": 4.7,
    "permanentlyClosed": false,
    "temporarilyClosed": false,
    "placeId": "ChIJvftV1NlDfDkRL92hFHIxiEs",
    "categories": [
      "Car rental agency",
      "Bus charter",
      "Bus tour agency",
      "Car leasing service",
      "Minibus taxi service",
      "Taxi service",
      "Travel agency",
      "Van rental agency"
    ],
    "reviewsCount": 19,
    "imagesCount": 45,
    "openingHours": [
      {
        "day": "Monday",
        "hours": "Open 24 hours"
      },
      {
        "day": "Tuesday",
        "hours": "Open 24 hours"
      },
      {
        "day": "Wednesday",
        "hours": "Open 24 hours"
      },
      {
        "day": "Thursday",
        "hours": "Open 24 hours"
      },
      {
        "day": "Friday",
        "hours": "Open 24 hours"
      },
      {
        "day": "Saturday",
        "hours": "Open 24 hours"
      },
      {
        "day": "Sunday",
        "hours": "Open 24 hours"
      }
    ],
    "imageUrl": "https://media.indianluxurycars.com/google/002d5d36b008f1688c5bfd8305944516bca1dbc55848d58018e7b930afaa162e.jpg",
    "url": "https://www.google.com/maps/search/?api=1&query=D%20K%20Travels&query_place_id=ChIJvftV1NlDfDkRL92hFHIxiEs"
  },
  {
    "title": "DB cars",
    "subTitle": "डीबी कार्स",
    "categoryName": "Car accessories store",
    "address": "Shop# 9 & 24, Kamdhenu Complex, Narmadapuram Rd, Near Surendra Vilas, Zone-I, Maharana Pratap Nagar, Bhopal, Madhya Pradesh 462011, India",
    "neighborhood": "Near Surendra Vilas, Zone-I, Maharana Pratap Nagar",
    "street": "Shop# 9 & 24, Kamdhenu Complex, Narmadapuram Rd",
    "city": "Bhopal",
    "postalCode": "462011",
    "state": "Madhya Pradesh",
    "countryCode": "IN",
    "phone": "+919752662089",
    "phoneUnformatted": "+919752662089",
    "location": {
      "lat": 23.2328515,
      "lng": 77.4317747
    },
    "totalScore": 4.4,
    "permanentlyClosed": false,
    "temporarilyClosed": false,
    "placeId": "ChIJcchibGdCfDkRkGN1hWvkYEE",
    "categories": [
      "Car accessories store",
      "Auto restoration service",
      "Car alarm supplier",
      "Car stereo store"
    ],
    "reviewsCount": 101,
    "imagesCount": 70,
    "openingHours": [
      {
        "day": "Monday",
        "hours": "10:30 AM to 9 PM"
      },
      {
        "day": "Tuesday",
        "hours": "10:30 AM to 9 PM"
      },
      {
        "day": "Wednesday",
        "hours": "10:30 AM to 9 PM"
      },
      {
        "day": "Thursday",
        "hours": "10:30 AM to 9 PM"
      },
      {
        "day": "Friday",
        "hours": "10:30 AM to 9 PM"
      },
      {
        "day": "Saturday",
        "hours": "10:30 AM to 9 PM"
      },
      {
        "day": "Sunday",
        "hours": "10:30 AM to 9 PM"
      }
    ],
    "imageUrl": "https://media.indianluxurycars.com/google/cd99c1706bd151b6f47633f903e67a4375d4b8c566aeece69c20993fe812790a.jpg",
    "url": "https://www.google.com/maps/search/?api=1&query=DB%20cars&query_place_id=ChIJcchibGdCfDkRkGN1hWvkYEE"
  },
  {
    "title": "Drive urself self drive car rental",
    "subTitle": "ड्राइव उर्सेल्फ सेल्फ ड्राइव कार रेंटल",
    "categoryName": "Car rental agency",
    "address": "5/8, Ranthambore Complex, zone 2, Anna Nagar, Zone-II, Maharana Pratap Nagar, Bhopal, Madhya Pradesh 462011, India",
    "neighborhood": "Anna Nagar, Zone-II, Maharana Pratap Nagar",
    "street": "5/8, Ranthambore Complex, zone 2",
    "city": "Bhopal",
    "postalCode": "462011",
    "state": "Madhya Pradesh",
    "countryCode": "IN",
    "website": "https://sites.google.com/view/driveurselfselfdrivecarrental/home",
    "phone": "+918827031109",
    "phoneUnformatted": "+918827031109",
    "location": {
      "lat": 23.2323874,
      "lng": 77.4342632
    },
    "totalScore": 4.8,
    "permanentlyClosed": false,
    "temporarilyClosed": false,
    "placeId": "ChIJZ2q8q0RDfDkRiveKKiZGYVY",
    "categories": [
      "Car rental agency",
      "Car leasing service"
    ],
    "reviewsCount": 104,
    "imagesCount": 30,
    "openingHours": [
      {
        "day": "Monday",
        "hours": "Open 24 hours"
      },
      {
        "day": "Tuesday",
        "hours": "Open 24 hours"
      },
      {
        "day": "Wednesday",
        "hours": "Open 24 hours"
      },
      {
        "day": "Thursday",
        "hours": "Open 24 hours"
      },
      {
        "day": "Friday",
        "hours": "Open 24 hours"
      },
      {
        "day": "Saturday",
        "hours": "Open 24 hours"
      },
      {
        "day": "Sunday",
        "hours": "Open 24 hours"
      }
    ],
    "imageUrl": "https://media.indianluxurycars.com/google/ced59bd934faca97d2f6e2083cb273fdb870c1463b1064652911cff1ebd5cbac.jpg",
    "url": "https://www.google.com/maps/search/?api=1&query=Drive%20urself%20self%20drive%20car%20rental&query_place_id=ChIJZ2q8q0RDfDkRiveKKiZGYVY"
  },
  {
    "title": "DWARKA TRAVELS",
    "subTitle": "द्वारका ट्रैवल्स",
    "categoryName": "Car rental agency",
    "address": "Bhadbhada Rd, Jawahar Chowk, STT Nagar, TT Nagar, Bhopal, Madhya Pradesh 462003, India",
    "neighborhood": "Jawahar Chowk, STT Nagar, TT Nagar",
    "street": "Bhadbhada Rd",
    "city": "Bhopal",
    "postalCode": "462003",
    "state": "Madhya Pradesh",
    "countryCode": "IN",
    "website": "http://dwarkatravels.in/",
    "phone": "+919827220007",
    "phoneUnformatted": "+919827220007",
    "location": {
      "lat": 23.229477,
      "lng": 77.393453
    },
    "totalScore": 4.3,
    "permanentlyClosed": false,
    "temporarilyClosed": false,
    "placeId": "ChIJ67zAj7hCfDkRYunoDdVxOAY",
    "categories": [
      "Car rental agency",
      "Car leasing service"
    ],
    "reviewsCount": 92,
    "imagesCount": 11,
    "openingHours": [
      {
        "day": "Monday",
        "hours": "Open 24 hours"
      },
      {
        "day": "Tuesday",
        "hours": "Open 24 hours"
      },
      {
        "day": "Wednesday",
        "hours": "Open 24 hours"
      },
      {
        "day": "Thursday",
        "hours": "Open 24 hours"
      },
      {
        "day": "Friday",
        "hours": "Open 24 hours"
      },
      {
        "day": "Saturday",
        "hours": "Open 24 hours"
      },
      {
        "day": "Sunday",
        "hours": "Open 24 hours"
      }
    ],
    "imageUrl": "https://media.indianluxurycars.com/google/12536330bd3f3c5e02653f1c791a8719ef6cc269658c4d4b5596b525b0b78a67.jpg",
    "url": "https://www.google.com/maps/search/?api=1&query=DWARKA%20TRAVELS&query_place_id=ChIJ67zAj7hCfDkRYunoDdVxOAY"
  },
  {
    "title": "Intercity Cab Service - Taxi Service in Bhopal",
    "subTitle": "इंटरसिटी कैब सर्विस - टैक्सी सर्विस इन भोपाल",
    "categoryName": "Car rental agency",
    "address": "82 Panchwati Colony Phase 2, Berasia Rd, Krishna Nagar, Rusalli, Karond, Bhopal, Madhya Pradesh 462038, India",
    "neighborhood": "Krishna Nagar, Rusalli, Karond",
    "street": "82 Panchwati Colony Phase 2, Berasia Rd",
    "city": "Bhopal",
    "postalCode": "462038",
    "state": "Madhya Pradesh",
    "countryCode": "IN",
    "website": "https://taxiservicebhopal.com/",
    "phone": "+919977503300",
    "phoneUnformatted": "+919977503300",
    "location": {
      "lat": 23.3004963,
      "lng": 77.4032261
    },
    "totalScore": 5,
    "permanentlyClosed": false,
    "temporarilyClosed": false,
    "placeId": "ChIJ6eVzUURpfDkRm_tAITuXioA",
    "categories": [
      "Car rental agency",
      "Airport shuttle service",
      "Car leasing service",
      "Taxi service",
      "Minibus taxi service",
      "Tour operator",
      "Travel agency",
      "Van rental agency"
    ],
    "reviewsCount": 155,
    "imagesCount": 36,
    "openingHours": [],
    "imageUrl": "https://media.indianluxurycars.com/google/ae8771688e1d709e3d850d051406a8e57a52472a68a47469b61badf498c388c6.jpg",
    "url": "https://www.google.com/maps/search/?api=1&query=Intercity%20Cab%20Service%20-%20Taxi%20Service%20in%20Bhopal&query_place_id=ChIJ6eVzUURpfDkRm_tAITuXioA"
  },
  {
    "title": "Kafuna Automobiles",
    "subTitle": "काफुना ऑटोमोबिल्स",
    "categoryName": "Car repair and maintenance service",
    "address": "bus stand, 14, Behind sun Green City garden, Halalpura, Lalghati, Bhopal, Madhya Pradesh 462030, India",
    "neighborhood": "Halalpura, Lalghati",
    "street": "bus stand, 14, Behind sun Green City garden",
    "city": "Bhopal",
    "postalCode": "462030",
    "state": "Madhya Pradesh",
    "countryCode": "IN",
    "website": "http://kafuna.in/",
    "phone": "+919111130786",
    "phoneUnformatted": "+919111130786",
    "location": {
      "lat": 23.2726311,
      "lng": 77.3630184
    },
    "totalScore": 4.8,
    "permanentlyClosed": false,
    "temporarilyClosed": false,
    "placeId": "ChIJVVVVVRFofDkRa5q9tUC1bU4",
    "categories": [
      "Car repair and maintenance service"
    ],
    "reviewsCount": 157,
    "imagesCount": 81,
    "openingHours": [
      {
        "day": "Monday",
        "hours": "10 AM to 7 PM"
      },
      {
        "day": "Tuesday",
        "hours": "10 AM to 7 PM"
      },
      {
        "day": "Wednesday",
        "hours": "10 AM to 7 PM"
      },
      {
        "day": "Thursday",
        "hours": "10 AM to 7 PM"
      },
      {
        "day": "Friday",
        "hours": "10 AM to 7 PM"
      },
      {
        "day": "Saturday",
        "hours": "10 AM to 7 PM"
      },
      {
        "day": "Sunday",
        "hours": "10 AM to 7 PM"
      }
    ],
    "imageUrl": "https://media.indianluxurycars.com/google/ad092ae3b98541dacf1f9be2333510b7106450e36f5251e910cb95139b5f575b.jpg",
    "url": "https://www.google.com/maps/search/?api=1&query=Kafuna%20Automobiles&query_place_id=ChIJVVVVVRFofDkRa5q9tUC1bU4"
  },
  {
    "title": "Karan kars",
    "subTitle": "करण कार्स",
    "categoryName": "Used car dealer",
    "address": "1/17, Mehta Market, Near St. Peter's Marthons School, Old Subhash Nagar, Bhopal, Madhya Pradesh 462023, India",
    "neighborhood": "Mehta Market, Near St. Peter's Marthons School, Old Subhash Nagar",
    "street": "1/17",
    "city": "Bhopal",
    "postalCode": "462023",
    "state": "Madhya Pradesh",
    "countryCode": "IN",
    "phone": "+919826601077",
    "phoneUnformatted": "+919826601077",
    "location": {
      "lat": 23.2456604,
      "lng": 77.4345472
    },
    "totalScore": 4.8,
    "permanentlyClosed": false,
    "temporarilyClosed": false,
    "placeId": "ChIJO4XJ-SVofDkRSuJMWbqlINc",
    "categories": [
      "Used car dealer"
    ],
    "reviewsCount": 65,
    "imagesCount": 28,
    "openingHours": [
      {
        "day": "Monday",
        "hours": "11 AM to 8:30 PM"
      },
      {
        "day": "Tuesday",
        "hours": "11 AM to 8:30 PM"
      },
      {
        "day": "Wednesday",
        "hours": "11 AM to 8:30 PM"
      },
      {
        "day": "Thursday",
        "hours": "11 AM to 8:30 PM"
      },
      {
        "day": "Friday",
        "hours": "11 AM to 8:30 PM"
      },
      {
        "day": "Saturday",
        "hours": "11 AM to 8:30 PM"
      },
      {
        "day": "Sunday",
        "hours": "11 AM to 8:30 PM"
      }
    ],
    "imageUrl": "https://media.indianluxurycars.com/google/f4bb76811d208b55887bcf5feb9c6a352c841bcb21c552949feccc503f6c4c75.jpg",
    "url": "https://www.google.com/maps/search/?api=1&query=Karan%20kars&query_place_id=ChIJO4XJ-SVofDkRSuJMWbqlINc"
  },
  {
    "title": "King Car Rental Tour and Travels",
    "subTitle": "किंग कार रेंटल टूर एंड ट्रैवल्स",
    "categoryName": "Car rental agency",
    "address": "Arun Nagar, Old Subhash Nagar Colony, Govindpura, Bhopal, Madhya Pradesh 462023, India",
    "neighborhood": "Arun Nagar, Old Subhash Nagar Colony, Govindpura",
    "city": "Bhopal",
    "postalCode": "462023",
    "state": "Madhya Pradesh",
    "countryCode": "IN",
    "phone": "+917400593937",
    "phoneUnformatted": "+917400593937",
    "location": {
      "lat": 23.2506463,
      "lng": 77.4347601
    },
    "totalScore": 4.9,
    "permanentlyClosed": false,
    "temporarilyClosed": false,
    "placeId": "ChIJAQAAcNRpfDkRGH-2pCrGHKU",
    "categories": [
      "Car rental agency"
    ],
    "reviewsCount": 45,
    "imagesCount": 38,
    "openingHours": [
      {
        "day": "Monday",
        "hours": "Open 24 hours"
      },
      {
        "day": "Tuesday",
        "hours": "Open 24 hours"
      },
      {
        "day": "Wednesday",
        "hours": "Open 24 hours"
      },
      {
        "day": "Thursday",
        "hours": "Open 24 hours"
      },
      {
        "day": "Friday",
        "hours": "Open 24 hours"
      },
      {
        "day": "Saturday",
        "hours": "Open 24 hours"
      },
      {
        "day": "Sunday",
        "hours": "Open 24 hours"
      }
    ],
    "imageUrl": "https://media.indianluxurycars.com/google/454c48e80723f0e7945bbefe4a1a5792df61d545f8b4e105ac2387209b88a9ea.jpg",
    "url": "https://www.google.com/maps/search/?api=1&query=King%20Car%20Rental%20Tour%20and%20Travels&query_place_id=ChIJAQAAcNRpfDkRGH-2pCrGHKU"
  },
  {
    "title": "Maa Chamunda Toure Travels",
    "subTitle": "Maa Chamunda Tour Travels",
    "categoryName": "Car rental agency",
    "address": "80 Feet Rd, Pushpa Nagar, Bhopal, Madhya Pradesh 462010, India",
    "neighborhood": "Pushpa Nagar",
    "street": "80 Feet Rd",
    "city": "Bhopal",
    "postalCode": "462010",
    "state": "Madhya Pradesh",
    "countryCode": "IN",
    "phone": "+917748041788",
    "phoneUnformatted": "+917748041788",
    "location": {
      "lat": 23.262952,
      "lng": 77.419064
    },
    "totalScore": 5,
    "permanentlyClosed": false,
    "temporarilyClosed": false,
    "placeId": "ChIJO1Ku0y1ofDkR8c26xdr8FtY",
    "categories": [
      "Car rental agency",
      "Bus tour agency",
      "Car leasing service",
      "Travel agency"
    ],
    "reviewsCount": 20,
    "imagesCount": 70,
    "openingHours": [
      {
        "day": "Monday",
        "hours": "Open 24 hours"
      },
      {
        "day": "Tuesday",
        "hours": "Open 24 hours"
      },
      {
        "day": "Wednesday",
        "hours": "Open 24 hours"
      },
      {
        "day": "Thursday",
        "hours": "Open 24 hours"
      },
      {
        "day": "Friday",
        "hours": "Open 24 hours"
      },
      {
        "day": "Saturday",
        "hours": "Open 24 hours"
      },
      {
        "day": "Sunday",
        "hours": "Open 24 hours"
      }
    ],
    "imageUrl": "https://media.indianluxurycars.com/google/034c5f977f62ae89d71a0240b6c59e7cca62830d843570d7f9b06d72b9589b3c.jpg",
    "url": "https://www.google.com/maps/search/?api=1&query=Maa%20Chamunda%20Toure%20Travels&query_place_id=ChIJO1Ku0y1ofDkR8c26xdr8FtY"
  },
  {
    "title": "Mahakal Tour And Travels - Cab & Taxi Service In Bhopal | Tempo Traveller | Airport Taxi Service",
    "subTitle": "महाकाल टूर एंड ट्रैवल्स - कैब & टैक्सी सर्विस इन भोपाल | टेम्पो ट्रैवलर | एयरपोर्ट टैक्सी सर्विस",
    "categoryName": "Car dealer",
    "address": "Shop No 22, New Azad Nagar, Zone-I, Maharana Pratap Nagar, Bhopal, Madhya Pradesh 462011, India",
    "neighborhood": "Zone-I, Maharana Pratap Nagar",
    "street": "Shop No 22, New Azad Nagar",
    "city": "Bhopal",
    "postalCode": "462011",
    "state": "Madhya Pradesh",
    "countryCode": "IN",
    "website": "https://mahakaltourandtravels.co.in/",
    "phone": "+918103529344",
    "phoneUnformatted": "+918103529344",
    "location": {
      "lat": 23.2351157,
      "lng": 77.4328995
    },
    "totalScore": 5,
    "permanentlyClosed": false,
    "temporarilyClosed": false,
    "placeId": "ChIJee5KpYVDfDkR3iF526MUgqA",
    "categories": [
      "Car dealer",
      "Airport shuttle service",
      "Bus tour agency",
      "Taxi service",
      "Car leasing service",
      "Minibus taxi service",
      "Tour operator",
      "Travel agency"
    ],
    "reviewsCount": 55,
    "imagesCount": 24,
    "openingHours": [],
    "imageUrl": "https://media.indianluxurycars.com/google/484130035579ce381dd5b908c55920dc75787c9f510fe1a42dc19d066ddb24ba.jpg",
    "url": "https://www.google.com/maps/search/?api=1&query=Mahakal%20Tour%20And%20Travels%20-%20Cab%20%26%20Taxi%20Service%20In%20Bhopal%20%7C%20Tempo%20Traveller%20%7C%20Airport%20Taxi%20Service&query_place_id=ChIJee5KpYVDfDkR3iF526MUgqA"
  },
  {
    "title": "MI Travels: Self Drive Cars in Bhopal | Car Rental in Bhopal",
    "subTitle": "एमआई ट्रैवल्स",
    "categoryName": "Car leasing service",
    "address": "Balaji Apartment, B-12, near Bank Of Baroda, Kamla Nagar, Government Quarters, Kotra Sultanabad, Bhopal, Madhya Pradesh 462003, India",
    "neighborhood": "Kamla Nagar, Government Quarters, Kotra Sultanabad",
    "street": "Balaji Apartment, B-12, near Bank Of Baroda",
    "city": "Bhopal",
    "postalCode": "462003",
    "state": "Madhya Pradesh",
    "countryCode": "IN",
    "website": "http://mi-travels.in/",
    "phone": "+918839079158",
    "phoneUnformatted": "+918839079158",
    "location": {
      "lat": 23.2196104,
      "lng": 77.3918506
    },
    "totalScore": 4.7,
    "permanentlyClosed": false,
    "temporarilyClosed": false,
    "placeId": "ChIJcX1XMjZDfDkRzBLh24ru0p0",
    "categories": [
      "Car leasing service"
    ],
    "reviewsCount": 459,
    "imagesCount": 161,
    "openingHours": [
      {
        "day": "Monday",
        "hours": "Open 24 hours"
      },
      {
        "day": "Tuesday",
        "hours": "Open 24 hours"
      },
      {
        "day": "Wednesday",
        "hours": "Open 24 hours"
      },
      {
        "day": "Thursday",
        "hours": "Open 24 hours"
      },
      {
        "day": "Friday",
        "hours": "Open 24 hours"
      },
      {
        "day": "Saturday",
        "hours": "Open 24 hours"
      },
      {
        "day": "Sunday",
        "hours": "Open 24 hours"
      }
    ],
    "imageUrl": "https://media.indianluxurycars.com/google/d951df9a8dd8c72d07f373ad9122bfe47647ff2d285d778909fa4a5568590a7d.jpg",
    "url": "https://www.google.com/maps/search/?api=1&query=MI%20Travels%3A%20Self%20Drive%20Cars%20in%20Bhopal%20%7C%20Car%20Rental%20in%20Bhopal&query_place_id=ChIJcX1XMjZDfDkRzBLh24ru0p0"
  },
  {
    "title": "Monika Travels",
    "subTitle": "मोनिका ट्रैवल्स",
    "categoryName": "Car leasing service",
    "address": "TT Nagar Square, Dussera Maidan, New Market, North TT Nagar, TT Nagar, Bhopal, Madhya Pradesh 462003, India",
    "neighborhood": "Dussera Maidan, New Market, North TT Nagar, TT Nagar",
    "street": "TT Nagar Square",
    "city": "Bhopal",
    "postalCode": "462003",
    "state": "Madhya Pradesh",
    "countryCode": "IN",
    "phone": "+919958048725",
    "phoneUnformatted": "+919958048725",
    "location": {
      "lat": 23.2362066,
      "lng": 77.3962054
    },
    "totalScore": 4.1,
    "permanentlyClosed": false,
    "temporarilyClosed": false,
    "placeId": "ChIJZf6VeNpDfDkRjH-m68cviz8",
    "categories": [
      "Car leasing service"
    ],
    "reviewsCount": 45,
    "imagesCount": 33,
    "openingHours": [
      {
        "day": "Monday",
        "hours": "Open 24 hours"
      },
      {
        "day": "Tuesday",
        "hours": "Open 24 hours"
      },
      {
        "day": "Wednesday",
        "hours": "Open 24 hours"
      },
      {
        "day": "Thursday",
        "hours": "Open 24 hours"
      },
      {
        "day": "Friday",
        "hours": "Open 24 hours"
      },
      {
        "day": "Saturday",
        "hours": "Open 24 hours"
      },
      {
        "day": "Sunday",
        "hours": "Open 24 hours"
      }
    ],
    "imageUrl": "https://media.indianluxurycars.com/google/7f0326458fc037aeb874a4e9e684a65e1c4bc719b1e3b07df6fea1a4422186cf.jpg",
    "url": "https://www.google.com/maps/search/?api=1&query=Monika%20Travels&query_place_id=ChIJZf6VeNpDfDkRjH-m68cviz8"
  },
  {
    "title": "Munmun Tour & Travels Munmun Travel House MTH Cab",
    "subTitle": "मुनमुन टूर & ट्रैवल्स मुनमुन ट्रैवल हाउस एमटीएच कैब",
    "categoryName": "Car rental agency",
    "address": "Plot No 701, D-Sector, Indra colony, Bhopal, Madhya Pradesh 462010, India",
    "neighborhood": "D-Sector, Indra colony",
    "street": "Plot No 701",
    "city": "Bhopal",
    "postalCode": "462010",
    "state": "Madhya Pradesh",
    "countryCode": "IN",
    "website": "https://www.instagram.com/munmun__travel_house?igsh=c3hxZTYyeGJ6OHQy",
    "phone": "+919806106807",
    "phoneUnformatted": "+919806106807",
    "location": {
      "lat": 23.258821,
      "lng": 77.4178238
    },
    "totalScore": 5,
    "permanentlyClosed": false,
    "temporarilyClosed": false,
    "placeId": "ChIJ35mnjx1pfDkRHQdbXuDJ7AE",
    "categories": [
      "Car rental agency",
      "Car leasing service",
      "Travel agency"
    ],
    "reviewsCount": 197,
    "openingHours": [
      {
        "day": "Monday",
        "hours": "Open 24 hours"
      },
      {
        "day": "Tuesday",
        "hours": "Open 24 hours"
      },
      {
        "day": "Wednesday",
        "hours": "Open 24 hours"
      },
      {
        "day": "Thursday",
        "hours": "Open 24 hours"
      },
      {
        "day": "Friday",
        "hours": "Open 24 hours"
      },
      {
        "day": "Saturday",
        "hours": "Open 24 hours"
      },
      {
        "day": "Sunday",
        "hours": "Open 24 hours"
      }
    ],
    "url": "https://www.google.com/maps/search/?api=1&query=Munmun%20Tour%20%26%20Travels%20Munmun%20Travel%20House%20MTH%20Cab&query_place_id=ChIJ35mnjx1pfDkRHQdbXuDJ7AE"
  },
  {
    "title": "Mytrip Self Drive Car Rental Bhopal",
    "subTitle": "माइट्रिप सेल्फ ड्राइव कार रेंटल भोपाल",
    "categoryName": "Car rental agency",
    "address": "14, Infront of Dmart, Anekant Nagar, Jahangirabad, Bhopal, Madhya Pradesh 462008, India",
    "neighborhood": "Jahangirabad",
    "street": "14, Infront of Dmart, Anekant Nagar",
    "city": "Bhopal",
    "postalCode": "462008",
    "state": "Madhya Pradesh",
    "countryCode": "IN",
    "website": "https://www.mytripselfdrive.com/",
    "phone": "+917773002777",
    "phoneUnformatted": "+917773002777",
    "location": {
      "lat": 23.253717,
      "lng": 77.4140455
    },
    "totalScore": 4.6,
    "permanentlyClosed": false,
    "temporarilyClosed": false,
    "placeId": "ChIJAQAAAINCfDkRK9fAl0e2zKI",
    "categories": [
      "Car rental agency",
      "Car leasing service"
    ],
    "reviewsCount": 418,
    "imagesCount": 348,
    "openingHours": [
      {
        "day": "Monday",
        "hours": "Open 24 hours"
      },
      {
        "day": "Tuesday",
        "hours": "Open 24 hours"
      },
      {
        "day": "Wednesday",
        "hours": "Open 24 hours"
      },
      {
        "day": "Thursday",
        "hours": "Open 24 hours"
      },
      {
        "day": "Friday",
        "hours": "Open 24 hours"
      },
      {
        "day": "Saturday",
        "hours": "Open 24 hours"
      },
      {
        "day": "Sunday",
        "hours": "Open 24 hours"
      }
    ],
    "imageUrl": "https://media.indianluxurycars.com/google/91a1061347c05d152a6f51171ae985be0c08bf0cce4559d5db2c1441ffdfbc1e.jpg",
    "url": "https://www.google.com/maps/search/?api=1&query=Mytrip%20Self%20Drive%20Car%20Rental%20Bhopal&query_place_id=ChIJAQAAAINCfDkRK9fAl0e2zKI"
  },
  {
    "title": "New Lucky Travel's",
    "subTitle": "न्यू लकी ट्रैवल'स",
    "categoryName": "Car rental agency",
    "address": "Shop No:32, 18, Main Rd, Near Islami Gate, Badabagh, Shahjahanabad, Bhopal, Madhya Pradesh 462001, India",
    "neighborhood": "Near Islami Gate, Badabagh, Shahjahanabad",
    "street": "Shop No:32, 18, Main Rd",
    "city": "Bhopal",
    "postalCode": "462001",
    "state": "Madhya Pradesh",
    "countryCode": "IN",
    "location": {
      "lat": 23.2700224,
      "lng": 77.3959877
    },
    "totalScore": 5,
    "permanentlyClosed": false,
    "temporarilyClosed": false,
    "placeId": "ChIJTbbEjS9pfDkREhNu-hJw3RY",
    "categories": [
      "Car rental agency"
    ],
    "reviewsCount": 5,
    "imagesCount": 6,
    "openingHours": [
      {
        "day": "Monday",
        "hours": "11 AM to 8 PM"
      },
      {
        "day": "Tuesday",
        "hours": "11 AM to 8 PM"
      },
      {
        "day": "Wednesday",
        "hours": "11 AM to 8 PM"
      },
      {
        "day": "Thursday",
        "hours": "11 AM to 8 PM"
      },
      {
        "day": "Friday",
        "hours": "11 AM to 8 PM"
      },
      {
        "day": "Saturday",
        "hours": "11 AM to 8 PM"
      },
      {
        "day": "Sunday",
        "hours": "Closed"
      }
    ],
    "imageUrl": "https://media.indianluxurycars.com/google/48aec8445468e511fdc8b0cdf3faeda9cc736b43a744223d82b573db66adc6af.jpg",
    "url": "https://www.google.com/maps/search/?api=1&query=New%20Lucky%20Travel's&query_place_id=ChIJTbbEjS9pfDkREhNu-hJw3RY"
  },
  {
    "title": "New R. K. Travels",
    "subTitle": "नई आर.के. ट्रेवल्स",
    "categoryName": "Car rental agency",
    "address": "Shop No. D-13, Platinum Plaza, Mata Mandir Square, New Market, STT Nagar, TT Nagar, Bhopal, Madhya Pradesh 462003, India",
    "neighborhood": "New Market, STT Nagar, TT Nagar",
    "street": "Shop No. D-13, Platinum Plaza, Mata Mandir Square",
    "city": "Bhopal",
    "postalCode": "462003",
    "state": "Madhya Pradesh",
    "countryCode": "IN",
    "website": "http://www.newrktravels.com/",
    "phone": "+919826439110",
    "phoneUnformatted": "+919826439110",
    "location": {
      "lat": 23.226561,
      "lng": 77.4016843
    },
    "totalScore": 4.8,
    "permanentlyClosed": false,
    "temporarilyClosed": false,
    "placeId": "ChIJfUJUgepCfDkRL7LGh8ohxHk",
    "categories": [
      "Car rental agency",
      "Bus tour agency",
      "Car leasing service",
      "Travel agency",
      "Recreational vehicle rental agency",
      "Sightseeing tour agency",
      "Taxi service",
      "Tour agency",
      "Tour operator"
    ],
    "reviewsCount": 133,
    "imagesCount": 61,
    "openingHours": [
      {
        "day": "Monday",
        "hours": "Open 24 hours"
      },
      {
        "day": "Tuesday",
        "hours": "Open 24 hours"
      },
      {
        "day": "Wednesday",
        "hours": "Open 24 hours"
      },
      {
        "day": "Thursday",
        "hours": "Open 24 hours"
      },
      {
        "day": "Friday",
        "hours": "Open 24 hours"
      },
      {
        "day": "Saturday",
        "hours": "Open 24 hours"
      },
      {
        "day": "Sunday",
        "hours": "Open 24 hours"
      }
    ],
    "imageUrl": "https://media.indianluxurycars.com/google/545345660ab4248a3fc8f33373c3c9a5e867a738a1f2426f9457cbb919e642cd.png",
    "url": "https://www.google.com/maps/search/?api=1&query=New%20R.%20K.%20Travels&query_place_id=ChIJfUJUgepCfDkRL7LGh8ohxHk"
  },
  {
    "title": "PARADISE MOTOR'S",
    "subTitle": "पैराडाइज मोटर'स",
    "categoryName": "Used car dealer",
    "address": "Rama Arcade, Shope number 1 or 2, Raisen Rd, opp. Apsara talkies, Bhopal, Madhya Pradesh 462023, India",
    "neighborhood": "Punjabi Bagh, Shanshah Garden",
    "street": "Rama Arcade, Shope number 1 or 2, Raisen Rd, opp. Apsara talkies",
    "city": "Bhopal",
    "postalCode": "462023",
    "state": "Madhya Pradesh",
    "countryCode": "IN",
    "phone": "+917000879475",
    "phoneUnformatted": "+917000879475",
    "location": {
      "lat": 23.2534061,
      "lng": 77.4354601
    },
    "totalScore": 5,
    "permanentlyClosed": false,
    "temporarilyClosed": false,
    "placeId": "ChIJqVtwHQRDfDkRi5FS32gv5hw",
    "categories": [
      "Used car dealer"
    ],
    "reviewsCount": 2,
    "imagesCount": 20,
    "openingHours": [
      {
        "day": "Monday",
        "hours": "10 AM to 8 PM"
      },
      {
        "day": "Tuesday",
        "hours": "10 AM to 8:30 PM"
      },
      {
        "day": "Wednesday",
        "hours": "10 AM to 8 PM"
      },
      {
        "day": "Thursday",
        "hours": "10 AM to 8 PM"
      },
      {
        "day": "Friday",
        "hours": "10 AM to 8 PM"
      },
      {
        "day": "Saturday",
        "hours": "10 AM to 8 PM"
      },
      {
        "day": "Sunday",
        "hours": "10 AM to 8 PM"
      }
    ],
    "imageUrl": "https://media.indianluxurycars.com/google/4fe285c0e70b5d8236a878b749b01c86f6a46d23e063c8c049c8c2b7cbfb43a9.jpg",
    "url": "https://www.google.com/maps/search/?api=1&query=PARADISE%20MOTOR'S&query_place_id=ChIJqVtwHQRDfDkRi5FS32gv5hw"
  },
  {
    "title": "Pari Travels",
    "subTitle": "परी ट्रैवल्स",
    "categoryName": "Car rental agency",
    "address": "06 durga nagar, gate, chandbad, Semra, Bhopal, Madhya Pradesh 462010, India",
    "neighborhood": "Babu Colony, chandbad, Semra",
    "street": "06 durga nagar, gate",
    "city": "Bhopal",
    "postalCode": "462010",
    "state": "Madhya Pradesh",
    "countryCode": "IN",
    "phone": "+919993338957",
    "phoneUnformatted": "+919993338957",
    "location": {
      "lat": 23.2705749,
      "lng": 77.4269086
    },
    "totalScore": 4.7,
    "permanentlyClosed": false,
    "temporarilyClosed": false,
    "placeId": "ChIJjzQS8eVpfDkRfbfYHLHPKJA",
    "categories": [
      "Car rental agency",
      "Car leasing service",
      "Taxi service",
      "Carpooling location",
      "Motoring club",
      "Taxicab Stand",
      "Taxidermist"
    ],
    "reviewsCount": 23,
    "imagesCount": 29,
    "openingHours": [],
    "imageUrl": "https://media.indianluxurycars.com/google/da15f905a936253aa4f247df82699bf579b5a4efbbdb8d32a54116b802033af4.png",
    "url": "https://www.google.com/maps/search/?api=1&query=Pari%20Travels&query_place_id=ChIJjzQS8eVpfDkRfbfYHLHPKJA"
  },
  {
    "title": "Perfect Travels",
    "subTitle": "परफेक्ट ट्रेवल्स",
    "categoryName": "Car rental agency",
    "address": "Shop No. 29 , Ground Floor, Kartar Arcade, Raisen Rd, near Capital Petrol Pump, New Subhash Nagar, Gurunanak Pura, Govindpura, Bhopal, Madhya Pradesh 462023, India",
    "neighborhood": "New Subhash Nagar, Gurunanak Pura, Govindpura",
    "street": "Shop No. 29 , Ground Floor, Kartar Arcade, Raisen Rd, near Capital Petrol Pump",
    "city": "Bhopal",
    "postalCode": "462023",
    "state": "Madhya Pradesh",
    "countryCode": "IN",
    "website": "https://perfect-travels.com/",
    "phone": "+919893586024",
    "phoneUnformatted": "+919893586024",
    "location": {
      "lat": 23.2521386,
      "lng": 77.430793
    },
    "totalScore": 4.9,
    "permanentlyClosed": false,
    "temporarilyClosed": false,
    "placeId": "ChIJsf_py0RCfDkRJGid42NBOlA",
    "categories": [
      "Car rental agency",
      "Bus tour agency",
      "Car leasing service",
      "Travel agency",
      "Department of Transportation",
      "Tour agency",
      "Tour operator",
      "Transportation escort service",
      "Transportation service"
    ],
    "reviewsCount": 34,
    "imagesCount": 48,
    "openingHours": [
      {
        "day": "Monday",
        "hours": "10 AM to 9 PM"
      },
      {
        "day": "Tuesday",
        "hours": "11 AM to 9 PM"
      },
      {
        "day": "Wednesday",
        "hours": "11 AM to 9 PM"
      },
      {
        "day": "Thursday",
        "hours": "11 AM to 9 PM"
      },
      {
        "day": "Friday",
        "hours": "11 AM to 9 PM"
      },
      {
        "day": "Saturday",
        "hours": "11 AM to 9 PM"
      },
      {
        "day": "Sunday",
        "hours": "Closed"
      }
    ],
    "imageUrl": "https://media.indianluxurycars.com/google/ef4572913b8fb385d45ceac2a4b27cdf585d7213acd5951be7e4f3c15e8d08c7.jpg",
    "url": "https://www.google.com/maps/search/?api=1&query=Perfect%20Travels&query_place_id=ChIJsf_py0RCfDkRJGid42NBOlA"
  },
  {
    "title": "R S Motors",
    "subTitle": "आर एस् मोटर्स",
    "categoryName": "Car leasing service",
    "address": "near Bank Of India, Sindhi Colony, Ibrahimganj, Bhopal, Madhya Pradesh 462001, India",
    "neighborhood": "Sindhi Colony, Ibrahimganj",
    "street": "near Bank Of India",
    "city": "Bhopal",
    "postalCode": "462001",
    "state": "Madhya Pradesh",
    "countryCode": "IN",
    "website": "https://www.instagram.com/rs_motors_official",
    "phone": "+919993230605",
    "phoneUnformatted": "+919993230605",
    "location": {
      "lat": 23.2686625,
      "lng": 77.403019
    },
    "totalScore": 4.7,
    "permanentlyClosed": false,
    "temporarilyClosed": false,
    "placeId": "ChIJI6sJYodpfDkRp4fOHJh8XOY",
    "categories": [
      "Car leasing service"
    ],
    "reviewsCount": 49,
    "imagesCount": 1,
    "openingHours": [
      {
        "day": "Monday",
        "hours": "Open 24 hours"
      },
      {
        "day": "Tuesday",
        "hours": "Open 24 hours"
      },
      {
        "day": "Wednesday",
        "hours": "Open 24 hours"
      },
      {
        "day": "Thursday",
        "hours": "Open 24 hours"
      },
      {
        "day": "Friday",
        "hours": "Open 24 hours"
      },
      {
        "day": "Saturday",
        "hours": "Open 24 hours"
      },
      {
        "day": "Sunday",
        "hours": "Open 24 hours"
      }
    ],
    "imageUrl": "https://media.indianluxurycars.com/google/f7fe8ccf9f192da5ca74795713b2d27422d309959cbb8edb62791df751dad231.jpg",
    "url": "https://www.google.com/maps/search/?api=1&query=R%20S%20Motors&query_place_id=ChIJI6sJYodpfDkRp4fOHJh8XOY"
  },
  {
    "title": "Raj tours and travels",
    "subTitle": "राज टूर्स एंड ट्रैवल्स",
    "categoryName": "Car leasing service",
    "address": "Jahangirabad, Bhopal, Madhya Pradesh 462008, India",
    "neighborhood": "Jahangirabad",
    "city": "Bhopal",
    "postalCode": "462008",
    "state": "Madhya Pradesh",
    "countryCode": "IN",
    "website": "https://car365.weeblysite.com/",
    "location": {
      "lat": 23.2546437,
      "lng": 77.4124929
    },
    "totalScore": 5,
    "permanentlyClosed": false,
    "temporarilyClosed": true,
    "placeId": "ChIJw8pRHKFpfDkRCpIZkthAhIw",
    "categories": [
      "Car leasing service"
    ],
    "reviewsCount": 1,
    "imagesCount": 7,
    "openingHours": [],
    "imageUrl": "https://media.indianluxurycars.com/google/71740e816b77e86c419e72f491ee5762e740bd3eb594de23d56cd2b3557197c2.jpg",
    "url": "https://www.google.com/maps/search/?api=1&query=Raj%20tours%20and%20travels&query_place_id=ChIJw8pRHKFpfDkRCpIZkthAhIw"
  },
  {
    "title": "Regal journey",
    "subTitle": "रीगल जर्नी",
    "categoryName": "Car rental agency",
    "address": "Apsara Complex, 16, Raisen Rd, near bikaner sweets, Ashoka Enclave, Old Subhash Nagar Colony, Govindpura, Bhopal, Madhya Pradesh 462023, India",
    "neighborhood": "Ashoka Enclave, Old Subhash Nagar Colony, Govindpura",
    "street": "Apsara Complex, 16, Raisen Rd, near bikaner sweets",
    "city": "Bhopal",
    "postalCode": "462023",
    "state": "Madhya Pradesh",
    "countryCode": "IN",
    "website": "http://www.regaljourney.com/",
    "phone": "+917566557226",
    "phoneUnformatted": "+917566557226",
    "location": {
      "lat": 23.2524083,
      "lng": 77.4358777
    },
    "totalScore": 5,
    "permanentlyClosed": false,
    "temporarilyClosed": false,
    "placeId": "ChIJ_e3M5RVDfDkRQxKRuYiKgSg",
    "categories": [
      "Car rental agency",
      "Bus tour agency",
      "Car leasing service",
      "Leasing service",
      "Rental car return location",
      "Taxi service",
      "Tour operator",
      "Travel agency",
      "Travel clinic",
      "Van rental agency"
    ],
    "reviewsCount": 81,
    "imagesCount": 158,
    "openingHours": [
      {
        "day": "Monday",
        "hours": "7 AM to 11:45 PM"
      },
      {
        "day": "Tuesday",
        "hours": "7 AM to 11:45 PM"
      },
      {
        "day": "Wednesday",
        "hours": "7 AM to 11:45 PM"
      },
      {
        "day": "Thursday",
        "hours": "7 AM to 11:45 PM"
      },
      {
        "day": "Friday",
        "hours": "7 AM to 11:45 PM"
      },
      {
        "day": "Saturday",
        "hours": "7 AM to 11:45 PM"
      },
      {
        "day": "Sunday",
        "hours": "7 AM to 11:45 PM"
      }
    ],
    "imageUrl": "https://media.indianluxurycars.com/google/e410ab4020db83f1cc3ca1ec636352dd0877c6e4a1e312ab99839be129685d3a.png",
    "url": "https://www.google.com/maps/search/?api=1&query=Regal%20journey&query_place_id=ChIJ_e3M5RVDfDkRQxKRuYiKgSg"
  },
  {
    "title": "Rent/Hire Audi/BMW/Jaguar- Luxurious Cars at dirt cheap Rate.",
    "subTitle": "रेंट/हीरे ऑडी/बीएमडब्ल्यू/जगुआर- लुक्सुरिओउस कार्स अत डर्ट चीप रेट.",
    "categoryName": "Car leasing service",
    "address": "L/25 Indus Estates karariya, Madhya Pradesh 462010, India",
    "neighborhood": "Vindhyachal Valley, Karariya Sajidabad",
    "street": "L/25 Indus Estates karariya",
    "city": "Bhopal",
    "postalCode": "462010",
    "state": "Madhya Pradesh",
    "countryCode": "IN",
    "phone": "+918871779831",
    "phoneUnformatted": "+918871779831",
    "location": {
      "lat": 23.2768085,
      "lng": 77.4291549
    },
    "totalScore": 5,
    "permanentlyClosed": false,
    "temporarilyClosed": true,
    "placeId": "ChIJHb9dfe5pfDkREqo5VSaSpNc",
    "categories": [
      "Car leasing service"
    ],
    "reviewsCount": 7,
    "imagesCount": 4,
    "openingHours": [],
    "imageUrl": "https://media.indianluxurycars.com/google/4e4636c5b7a61d76321c64f43bec488ae077f75c53f1e503b6c44f2bee3aeaf6.png",
    "url": "https://www.google.com/maps/search/?api=1&query=Rent%2FHire%20Audi%2FBMW%2FJaguar-%20Luxurious%20Cars%20at%20dirt%20cheap%20Rate.&query_place_id=ChIJHb9dfe5pfDkREqo5VSaSpNc"
  },
  {
    "title": "Royals tour and travels",
    "subTitle": "रॉयल्स टूर एंड ट्रैवल्स",
    "categoryName": "Car rental agency",
    "address": "H.No.786, 462010, Babu Colony, Semra, Bhopal, Madhya Pradesh 462010, India",
    "neighborhood": "Babu Colony, Semra",
    "street": "H.No.786, 462010",
    "city": "Bhopal",
    "postalCode": "462010",
    "state": "Madhya Pradesh",
    "countryCode": "IN",
    "phone": "+917987746740",
    "phoneUnformatted": "+917987746740",
    "location": {
      "lat": 23.2701928,
      "lng": 77.4253732
    },
    "totalScore": 5,
    "permanentlyClosed": false,
    "temporarilyClosed": false,
    "placeId": "ChIJw8yvtI5pfDkRTBS4VnO1STQ",
    "categories": [
      "Car rental agency"
    ],
    "reviewsCount": 39,
    "imagesCount": 17,
    "openingHours": [
      {
        "day": "Monday",
        "hours": "10 AM to 10 PM"
      },
      {
        "day": "Tuesday",
        "hours": "10 AM to 10 PM"
      },
      {
        "day": "Wednesday",
        "hours": "10 AM to 10 PM"
      },
      {
        "day": "Thursday",
        "hours": "10 AM to 10 PM"
      },
      {
        "day": "Friday",
        "hours": "10 AM to 10 PM"
      },
      {
        "day": "Saturday",
        "hours": "10 AM to 10 PM"
      },
      {
        "day": "Sunday",
        "hours": "10 AM to 10 PM"
      }
    ],
    "imageUrl": "https://media.indianluxurycars.com/google/3356eda7df4223882247835d482351dd7ed5a402779990f0b4abd3a9c5fdc15c.jpg",
    "url": "https://www.google.com/maps/search/?api=1&query=Royals%20tour%20and%20travels&query_place_id=ChIJw8yvtI5pfDkRTBS4VnO1STQ"
  },
  {
    "title": "Rudransh Travel",
    "subTitle": "रुद्रांश ट्रैवल",
    "categoryName": "Car rental agency",
    "address": "157, Shiv Nagar, Murli Nagar, Karond, Bhopal, Madhya Pradesh 462038, India",
    "neighborhood": "Shiv Nagar, Murli Nagar, Karond",
    "street": "157",
    "city": "Bhopal",
    "postalCode": "462038",
    "state": "Madhya Pradesh",
    "countryCode": "IN",
    "phone": "+918269426163",
    "phoneUnformatted": "+918269426163",
    "location": {
      "lat": 23.2976585,
      "lng": 77.4054249
    },
    "totalScore": 4.9,
    "permanentlyClosed": false,
    "temporarilyClosed": false,
    "placeId": "ChIJid4PtB5pfDkRYee-WzbixRQ",
    "categories": [
      "Car rental agency",
      "Car leasing service",
      "Travel agency",
      "Taxi service"
    ],
    "reviewsCount": 21,
    "imagesCount": 31,
    "openingHours": [
      {
        "day": "Monday",
        "hours": "Open 24 hours"
      },
      {
        "day": "Tuesday",
        "hours": "Open 24 hours"
      },
      {
        "day": "Wednesday",
        "hours": "Open 24 hours"
      },
      {
        "day": "Thursday",
        "hours": "Open 24 hours"
      },
      {
        "day": "Friday",
        "hours": "Open 24 hours"
      },
      {
        "day": "Saturday",
        "hours": "Open 24 hours"
      },
      {
        "day": "Sunday",
        "hours": "Open 24 hours"
      }
    ],
    "imageUrl": "https://media.indianluxurycars.com/google/21fce834cc0871f43efcacc454649f64652ace45c9c022ac65dcfe88d01cbca3.jpg",
    "url": "https://www.google.com/maps/search/?api=1&query=Rudransh%20Travel&query_place_id=ChIJid4PtB5pfDkRYee-WzbixRQ"
  },
  {
    "title": "Supreme Auto Deal - Pre owned Car Dealer in Bhopal | Best Used Car Dealer in Bhopal",
    "subTitle": "सुप्रीम ऑटो डील - प्री ओन्ड कार डीलर इन भोपाल | बेस्ट यूज्ड कार डीलर इन भोपाल",
    "categoryName": "Used car dealer",
    "address": "320, Dynamic Centre, Zone-I, Maharana Pratap Nagar, Bhopal, Madhya Pradesh 462011, India",
    "neighborhood": "Dynamic Centre, Zone-I, Maharana Pratap Nagar",
    "street": "320",
    "city": "Bhopal",
    "postalCode": "462011",
    "state": "Madhya Pradesh",
    "countryCode": "IN",
    "website": "https://linktr.ee/Supremecarz",
    "phone": "+919826016829",
    "phoneUnformatted": "+919826016829",
    "location": {
      "lat": 23.2335439,
      "lng": 77.4310908
    },
    "totalScore": 4.8,
    "permanentlyClosed": false,
    "temporarilyClosed": false,
    "placeId": "ChIJXQoUPwNDfDkRlbRVkmBtwMs",
    "categories": [
      "Used car dealer"
    ],
    "reviewsCount": 181,
    "imagesCount": 507,
    "openingHours": [
      {
        "day": "Monday",
        "hours": "10 AM to 9 PM"
      },
      {
        "day": "Tuesday",
        "hours": "10 AM to 9 PM"
      },
      {
        "day": "Wednesday",
        "hours": "10 AM to 9 PM"
      },
      {
        "day": "Thursday",
        "hours": "10 AM to 9 PM"
      },
      {
        "day": "Friday",
        "hours": "10 AM to 9 PM"
      },
      {
        "day": "Saturday",
        "hours": "10 AM to 9 PM"
      },
      {
        "day": "Sunday",
        "hours": "10 AM to 9 PM"
      }
    ],
    "imageUrl": "https://media.indianluxurycars.com/google/16e1b24c11e6beec1277409945ddaf3069a4e67de1fe1750aa22551ee4b0c7f9.png",
    "url": "https://www.google.com/maps/search/?api=1&query=Supreme%20Auto%20Deal%20-%20Pre%20owned%20Car%20Dealer%20in%20Bhopal%20%7C%20Best%20Used%20Car%20Dealer%20in%20Bhopal&query_place_id=ChIJXQoUPwNDfDkRlbRVkmBtwMs"
  },
  {
    "title": "Surya Tour & Travels | Car rental | Taxi Service|Bus on Rental | Tempo Traveler |Car Hire | Cab on rent in Bhopal I Ola taxi",
    "subTitle": "सूर्य टूर & ट्रैवल्स | कार रेंटल | टैक्सी सर्विस|बस ऑन रेंटल | टेम्पो ट्रैवलर |कार हीरे | कैब ऑन रेंट इन भोपाल ऐ ओला टैक्सी",
    "categoryName": "Car leasing service",
    "address": "1st Floor, D2, near Prabhat Chouraha, New Subhash Nagar, Padmanabh Nagar, Govindpura, Bhopal, Madhya Pradesh 462023, India",
    "neighborhood": "New Subhash Nagar, Padmanabh Nagar, Govindpura",
    "street": "1st Floor, D2, near Prabhat Chouraha",
    "city": "Bhopal",
    "postalCode": "462023",
    "state": "Madhya Pradesh",
    "countryCode": "IN",
    "website": "https://suryacarrental.com/",
    "phone": "+919303708015",
    "phoneUnformatted": "+919303708015",
    "location": {
      "lat": 23.2521386,
      "lng": 77.430793
    },
    "totalScore": 4.6,
    "permanentlyClosed": false,
    "temporarilyClosed": false,
    "placeId": "ChIJrbcICBdDfDkRZpi9tUykr58",
    "categories": [
      "Car leasing service",
      "Bus tour agency",
      "Sightseeing tour agency",
      "Tour agency",
      "Tour operator",
      "Tourist attraction",
      "Tourist information center",
      "Travel agency"
    ],
    "reviewsCount": 221,
    "imagesCount": 251,
    "openingHours": [
      {
        "day": "Monday",
        "hours": "Open 24 hours"
      },
      {
        "day": "Tuesday",
        "hours": "Open 24 hours"
      },
      {
        "day": "Wednesday",
        "hours": "Open 24 hours"
      },
      {
        "day": "Thursday",
        "hours": "Open 24 hours"
      },
      {
        "day": "Friday",
        "hours": "Open 24 hours"
      },
      {
        "day": "Saturday",
        "hours": "Open 24 hours"
      },
      {
        "day": "Sunday",
        "hours": "Open 24 hours"
      }
    ],
    "imageUrl": "https://media.indianluxurycars.com/google/b59bde3a3d57b52b3c807e53cb17396d20a2e10fea5dc219e1cf8d4b9c0781b1.jpg",
    "url": "https://www.google.com/maps/search/?api=1&query=Surya%20Tour%20%26%20Travels%20%7C%20Car%20rental%20%7C%20Taxi%20Service%7CBus%20on%20Rental%20%7C%20Tempo%20Traveler%20%7CCar%20Hire%20%7C%20Cab%20on%20rent%20in%20Bhopal%20I%20Ola%20taxi&query_place_id=ChIJrbcICBdDfDkRZpi9tUykr58"
  }
]
