[
  {
    "title": "Annapurna Luxury Car Rental",
    "categoryName": "Car leasing service",
    "address": "Basuaghai, Cuttack - Puri Bypass Rd, Bhubaneswar, Odisha 751002, India",
    "street": "Basuaghai, Cuttack - Puri Bypass Rd",
    "city": "Bhubaneswar",
    "postalCode": "751002",
    "state": "Odisha",
    "countryCode": "IN",
    "website": "https://annapurnaholidays.com/",
    "location": {
      "lat": 20.2342801,
      "lng": 85.8610999
    },
    "totalScore": 5,
    "permanentlyClosed": false,
    "temporarilyClosed": false,
    "placeId": "ChIJgYMu7H-hGToRScNYjrmi0YU",
    "categories": [
      "Car leasing service"
    ],
    "reviewsCount": 1,
    "imagesCount": 18,
    "openingHours": [
      {
        "day": "Monday",
        "hours": "9‚ÄØAM to 9‚ÄØPM"
      },
      {
        "day": "Tuesday",
        "hours": "9‚ÄØAM to 9‚ÄØPM"
      },
      {
        "day": "Wednesday",
        "hours": "9‚ÄØAM to 9‚ÄØPM"
      },
      {
        "day": "Thursday",
        "hours": "9‚ÄØAM to 9‚ÄØPM"
      },
      {
        "day": "Friday",
        "hours": "9‚ÄØAM to 9‚ÄØPM"
      },
      {
        "day": "Saturday",
        "hours": "9‚ÄØAM to 9‚ÄØPM"
      },
      {
        "day": "Sunday",
        "hours": "9‚ÄØAM to 9‚ÄØPM"
      }
    ],
    "imageUrl": "https://media.indianluxurycars.com/google/f5239b09dae69909cc00598d0d1851ce12a9753387194f464adadc752a8edd8a.jpg",
    "url": "https://www.google.com/maps/search/?api=1&query=Annapurna%20Luxury%20Car%20Rental&query_place_id=ChIJgYMu7H-hGToRScNYjrmi0YU"
  },
  {
    "title": "Aone",
    "subTitle": "‡¨Ö‡¨®",
    "categoryName": "Car rental agency",
    "address": "878/1272, Bhagabat Sandhan Colony, Unit 6, Rasulgarh, Bhubaneswar, Odisha 751001, India",
    "neighborhood": "Bhagabat Sandhan Colony, Unit 6, Rasulgarh",
    "street": "878/1272",
    "city": "Bhubaneswar",
    "postalCode": "751001",
    "state": "Odisha",
    "countryCode": "IN",
    "website": "https://aone-self-drive-car-and-bike-in.ueniweb.com/",
    "phone": "+917978198231",
    "phoneUnformatted": "+917978198231",
    "location": {
      "lat": 20.2649002,
      "lng": 85.8217529
    },
    "totalScore": 4.9,
    "permanentlyClosed": false,
    "temporarilyClosed": false,
    "placeId": "ChIJMdFfKhWnGToRO81mWoY6F6k",
    "categories": [
      "Car rental agency"
    ],
    "reviewsCount": 17,
    "imagesCount": 6,
    "openingHours": [
      {
        "day": "Monday",
        "hours": "Open 24 hours"
      },
      {
        "day": "Tuesday",
        "hours": "Open 24 hours"
      },
      {
        "day": "Wednesday",
        "hours": "Open 24 hours"
      },
      {
        "day": "Thursday",
        "hours": "Open 24 hours"
      },
      {
        "day": "Friday",
        "hours": "Open 24 hours"
      },
      {
        "day": "Saturday",
        "hours": "Open 24 hours"
      },
      {
        "day": "Sunday",
        "hours": "Open 24 hours"
      }
    ],
    "imageUrl": "https://media.indianluxurycars.com/google/70614a68eb28ba704a2f65af2b84f0e254df20515dd74d90abe62abcb93321e6.jpg",
    "url": "https://www.google.com/maps/search/?api=1&query=Aone&query_place_id=ChIJMdFfKhWnGToRO81mWoY6F6k"
  },
  {
    "title": "Baladevjew Motors Used Car Showroom",
    "categoryName": "Used car dealer",
    "address": "Unit no.35, PLOT NO.2462/8822, Sahar, Badagada, Bhubaneswar, Odisha 751006, India",
    "neighborhood": "Sahar, Badagada",
    "street": "Unit no.35, PLOT NO.2462/8822",
    "city": "Bhubaneswar",
    "postalCode": "751006",
    "state": "Odisha",
    "countryCode": "IN",
    "website": "https://www.baladevjewmotors.com/",
    "phone": "+919777028006",
    "phoneUnformatted": "+919777028006",
    "location": {
      "lat": 20.2551709,
      "lng": 85.8645051
    },
    "totalScore": 5,
    "permanentlyClosed": false,
    "temporarilyClosed": false,
    "placeId": "ChIJg0bj3Z6hGToRCT-oPBdccbQ",
    "categories": [
      "Used car dealer"
    ],
    "reviewsCount": 237,
    "imagesCount": 49,
    "openingHours": [
      {
        "day": "Monday",
        "hours": "9‚ÄØAM to 7‚ÄØPM"
      },
      {
        "day": "Tuesday",
        "hours": "9‚ÄØAM to 7‚ÄØPM"
      },
      {
        "day": "Wednesday",
        "hours": "9‚ÄØAM to 7‚ÄØPM"
      },
      {
        "day": "Thursday",
        "hours": "9‚ÄØAM to 7‚ÄØPM"
      },
      {
        "day": "Friday",
        "hours": "9‚ÄØAM to 7‚ÄØPM"
      },
      {
        "day": "Saturday",
        "hours": "9‚ÄØAM to 7‚ÄØPM"
      },
      {
        "day": "Sunday",
        "hours": "9‚ÄØAM to 7‚ÄØPM"
      }
    ],
    "imageUrl": "https://media.indianluxurycars.com/google/fdfb8195b479bd71453c36438b6f4ea48a7d995ae11ec863edbdad0ec90f8494.jpg",
    "url": "https://www.google.com/maps/search/?api=1&query=Baladevjew%20Motors%20Used%20Car%20Showroom&query_place_id=ChIJg0bj3Z6hGToRCT-oPBdccbQ"
  },
  {
    "title": "Bharat Travels",
    "subTitle": "‡¨≠‡¨æ‡¨∞‡¨§ ‡¨ü‡≠ç‡¨∞‡¨æ‡¨≠‡≠á‡¨≤‡≠ç‡¨∏",
    "categoryName": "Car rental agency",
    "address": "Behera Sahi Rd, near Banadurga Temple, Nuasahi, Nayapalli, Bhubaneswar, Odisha 751012, India",
    "neighborhood": "Nuasahi, Nayapalli",
    "street": "Behera Sahi Rd, near Banadurga Temple",
    "city": "Bhubaneswar",
    "postalCode": "751012",
    "state": "Odisha",
    "countryCode": "IN",
    "phone": "+919861044198",
    "phoneUnformatted": "+919861044198",
    "location": {
      "lat": 20.2858094,
      "lng": 85.8220634
    },
    "totalScore": 4.9,
    "permanentlyClosed": false,
    "temporarilyClosed": false,
    "placeId": "ChIJ1aYO6t4JGToRehrsBcST4nM",
    "categories": [
      "Car rental agency",
      "Car leasing service",
      "Taxi service",
      "Travel agency",
      "Van rental agency"
    ],
    "reviewsCount": 119,
    "imagesCount": 19,
    "openingHours": [
      {
        "day": "Monday",
        "hours": "Open 24 hours"
      },
      {
        "day": "Tuesday",
        "hours": "Open 24 hours"
      },
      {
        "day": "Wednesday",
        "hours": "Open 24 hours"
      },
      {
        "day": "Thursday",
        "hours": "Open 24 hours"
      },
      {
        "day": "Friday",
        "hours": "Open 24 hours"
      },
      {
        "day": "Saturday",
        "hours": "Open 24 hours"
      },
      {
        "day": "Sunday",
        "hours": "Open 24 hours"
      }
    ],
    "imageUrl": "https://media.indianluxurycars.com/google/d9aeec05c203d47f46680554509996058bc9f072dfc10decfa625886fbca0cc8.jpg",
    "url": "https://www.google.com/maps/search/?api=1&query=Bharat%20Travels&query_place_id=ChIJ1aYO6t4JGToRehrsBcST4nM"
  },
  {
    "title": "Book N Drive - Self Drive Car Rental",
    "categoryName": "Car rental agency",
    "address": "2170, 4071, Ravi Talkies Rd, Old Town, Bhubaneswar, Odisha 751002, India",
    "neighborhood": "Old Town",
    "street": "2170, 4071, Ravi Talkies Rd",
    "city": "Bhubaneswar",
    "postalCode": "751002",
    "state": "Odisha",
    "countryCode": "IN",
    "website": "https://bookndrive.in/",
    "phone": "+918455888889",
    "phoneUnformatted": "+918455888889",
    "location": {
      "lat": 20.2446509,
      "lng": 85.8386342
    },
    "totalScore": 4.8,
    "permanentlyClosed": false,
    "temporarilyClosed": false,
    "placeId": "ChIJ7avLu1_CoGIR5fx5CCp43Jg",
    "categories": [
      "Car rental agency"
    ],
    "reviewsCount": 192,
    "imagesCount": 485,
    "openingHours": [
      {
        "day": "Monday",
        "hours": "Open 24 hours"
      },
      {
        "day": "Tuesday",
        "hours": "Open 24 hours"
      },
      {
        "day": "Wednesday",
        "hours": "Open 24 hours"
      },
      {
        "day": "Thursday",
        "hours": "Open 24 hours"
      },
      {
        "day": "Friday",
        "hours": "Open 24 hours"
      },
      {
        "day": "Saturday",
        "hours": "Open 24 hours"
      },
      {
        "day": "Sunday",
        "hours": "Open 24 hours"
      }
    ],
    "imageUrl": "https://media.indianluxurycars.com/google/7b4739d72b9155c0ad70f78385ed858b9bb38ceed4d0905b765537ef6be53e0d.jpg",
    "url": "https://www.google.com/maps/search/?api=1&query=Book%20N%20Drive%20-%20Self%20Drive%20Car%20Rental&query_place_id=ChIJ7avLu1_CoGIR5fx5CCp43Jg"
  },
  {
    "title": "Capital Cars",
    "categoryName": "Used car dealer",
    "address": "Plot No: 2445, 8608 Badagada, Cuttack - Puri Bypass Rd, near SR Valley, Bhubaneswar, Odisha 751002, India",
    "street": "Plot No: 2445, 8608 Badagada, Cuttack - Puri Bypass Rd, near SR Valley",
    "city": "Bhubaneswar",
    "postalCode": "751002",
    "state": "Odisha",
    "countryCode": "IN",
    "phone": "+917608988988",
    "phoneUnformatted": "+917608988988",
    "location": {
      "lat": 20.2551069,
      "lng": 85.8653872
    },
    "totalScore": 5,
    "permanentlyClosed": false,
    "temporarilyClosed": false,
    "placeId": "ChIJlcbhBdChGToROsrfQPmxkYw",
    "categories": [
      "Used car dealer"
    ],
    "reviewsCount": 20,
    "imagesCount": 48,
    "openingHours": [
      {
        "day": "Monday",
        "hours": "9‚ÄØAM to 7‚ÄØPM"
      },
      {
        "day": "Tuesday",
        "hours": "9‚ÄØAM to 7‚ÄØPM"
      },
      {
        "day": "Wednesday",
        "hours": "9‚ÄØAM to 7‚ÄØPM"
      },
      {
        "day": "Thursday",
        "hours": "9‚ÄØAM to 7‚ÄØPM"
      },
      {
        "day": "Friday",
        "hours": "9‚ÄØAM to 7‚ÄØPM"
      },
      {
        "day": "Saturday",
        "hours": "9‚ÄØAM to 7‚ÄØPM"
      },
      {
        "day": "Sunday",
        "hours": "9‚ÄØAM to 7‚ÄØPM"
      }
    ],
    "imageUrl": "https://media.indianluxurycars.com/google/bf07c3880d1bd33095adbdcd07009888ad68a9c7e2219c96cce7c9e2ec01afa7.jpg",
    "url": "https://www.google.com/maps/search/?api=1&query=Capital%20Cars&query_place_id=ChIJlcbhBdChGToROsrfQPmxkYw"
  },
  {
    "title": "Car Karizma Exclusive",
    "subTitle": "‡¨ï‡¨æ‡¨∞ ‡¨ï‡¨∞‡¨ø‡¨ú‡¨Æ‡¨æ ‡¨è‡¨ï‡≠ç‡¨∏‡¨ï‡≠ç‡¨≤‡≠Å‡¨∏‡¨ø‡¨≠",
    "categoryName": "Car stereo store",
    "address": "Ekamra Talkies Madhava Vihar Apartment, Near, Cuttack - Puri Rd, Bomikhal, Govind Vihar, Bhubaneswar, Odisha 751010, India",
    "neighborhood": "Bomikhal, Govind Vihar",
    "street": "Ekamra Talkies Madhava Vihar Apartment, Near, Cuttack - Puri Rd",
    "city": "Bhubaneswar",
    "postalCode": "751010",
    "state": "Odisha",
    "countryCode": "IN",
    "phone": "+919861231036",
    "phoneUnformatted": "+919861231036",
    "location": {
      "lat": 20.282718,
      "lng": 85.856771
    },
    "totalScore": 3.4,
    "permanentlyClosed": false,
    "temporarilyClosed": false,
    "placeId": "ChIJexVrZ6ygGToR0UoecQz--e4",
    "categories": [
      "Car stereo store",
      "Car accessories store",
      "Upholstery shop"
    ],
    "reviewsCount": 127,
    "imagesCount": 25,
    "openingHours": [
      {
        "day": "Monday",
        "hours": "10‚ÄØAM to 9‚ÄØPM"
      },
      {
        "day": "Tuesday",
        "hours": "10‚ÄØAM to 9‚ÄØPM"
      },
      {
        "day": "Wednesday",
        "hours": "10‚ÄØAM to 9‚ÄØPM"
      },
      {
        "day": "Thursday",
        "hours": "10‚ÄØAM to 9‚ÄØPM"
      },
      {
        "day": "Friday",
        "hours": "10‚ÄØAM to 9‚ÄØPM"
      },
      {
        "day": "Saturday",
        "hours": "10‚ÄØAM to 9‚ÄØPM"
      },
      {
        "day": "Sunday",
        "hours": "10‚ÄØAM to 9‚ÄØPM"
      }
    ],
    "imageUrl": "https://media.indianluxurycars.com/google/07195a2671e928947b352b135f6ff4ca83681875df42ce815fb23f88155f6358.jpg",
    "url": "https://www.google.com/maps/search/?api=1&query=Car%20Karizma%20Exclusive&query_place_id=ChIJexVrZ6ygGToR0UoecQz--e4"
  },
  {
    "title": "ùêÇùêöùê´ ùêèùêöùê•ùêöùêúùêû | Car Accessories Shop, Dealer in Bhubaneswar",
    "subTitle": "‡¨ï‡¨æ‡¨∞ ‡¨™‡≠ç‡≠ü‡¨æ‡¨≤‡≠á‡¨∏",
    "categoryName": "Car accessories store",
    "address": "Plot 784, Infront Of Khandelwal Tubes & Ispat, Cuttack - Puri Rd, Bomikhal, Bhubaneswar, Odisha 751010, India",
    "neighborhood": "Bomikhal",
    "street": "Plot 784, Infront Of Khandelwal Tubes & Ispat, Cuttack - Puri Rd",
    "city": "Bhubaneswar",
    "postalCode": "751010",
    "state": "Odisha",
    "countryCode": "IN",
    "website": "https://carpalace.co/",
    "phone": "+919439537786",
    "phoneUnformatted": "+919439537786",
    "location": {
      "lat": 20.285075,
      "lng": 85.857196
    },
    "totalScore": 4.9,
    "permanentlyClosed": false,
    "temporarilyClosed": false,
    "placeId": "ChIJo4u0TAYKGToRw8SjPxgThuU",
    "categories": [
      "Car accessories store",
      "Auto accessories wholesaler",
      "Auto parts store",
      "Car alarm supplier",
      "Car stereo store"
    ],
    "reviewsCount": 1529,
    "imagesCount": 821,
    "openingHours": [
      {
        "day": "Monday",
        "hours": "10‚ÄØAM to 9:30‚ÄØPM"
      },
      {
        "day": "Tuesday",
        "hours": "10‚ÄØAM to 9:30‚ÄØPM"
      },
      {
        "day": "Wednesday",
        "hours": "10‚ÄØAM to 9:30‚ÄØPM"
      },
      {
        "day": "Thursday",
        "hours": "10‚ÄØAM to 9:30‚ÄØPM"
      },
      {
        "day": "Friday",
        "hours": "10‚ÄØAM to 9:30‚ÄØPM"
      },
      {
        "day": "Saturday",
        "hours": "9‚ÄØAM to 9:30‚ÄØPM"
      },
      {
        "day": "Sunday",
        "hours": "9‚ÄØAM to 9:30‚ÄØPM"
      }
    ],
    "imageUrl": "https://media.indianluxurycars.com/google/2d76191e111936692a3c41dbbae4326b0c1af33317494f63b7ae4c2a8eab46d8.jpg",
    "url": "https://www.google.com/maps/search/?api=1&query=%F0%9D%90%82%F0%9D%90%9A%F0%9D%90%AB%20%F0%9D%90%8F%F0%9D%90%9A%F0%9D%90%A5%F0%9D%90%9A%F0%9D%90%9C%F0%9D%90%9E%20%7C%20Car%20Accessories%20Shop%2C%20Dealer%20in%20Bhubaneswar&query_place_id=ChIJo4u0TAYKGToRw8SjPxgThuU"
  },
  {
    "title": "Car Pavilion",
    "categoryName": "Car accessories store",
    "address": "Infront Of Idbi Bank üè¶, near Bomikhal, Durga Mandap, Bhubaneswar, Odisha 751010, India",
    "neighborhood": "Dayanandnagar, Bomikhal, Durga Mandap",
    "street": "Infront Of Idbi Bank üè¶, near Bomikhal",
    "city": "Bhubaneswar",
    "postalCode": "751010",
    "state": "Odisha",
    "countryCode": "IN",
    "website": "https://wa.me/919338799995?text=Hi+I+contacted+you+through+your+Google!Page",
    "phone": "+919338799995",
    "phoneUnformatted": "+919338799995",
    "location": {
      "lat": 20.2863092,
      "lng": 85.8577272
    },
    "totalScore": 4.8,
    "permanentlyClosed": false,
    "temporarilyClosed": false,
    "placeId": "ChIJf5Udsh8LGToR1bJ4wx2XmwI",
    "categories": [
      "Car accessories store"
    ],
    "reviewsCount": 72,
    "imagesCount": 66,
    "openingHours": [
      {
        "day": "Monday",
        "hours": "9:30‚ÄØAM to 10:30‚ÄØPM"
      },
      {
        "day": "Tuesday",
        "hours": "9:30‚ÄØAM to 10:30‚ÄØPM"
      },
      {
        "day": "Wednesday",
        "hours": "9:30‚ÄØAM to 10:30‚ÄØPM"
      },
      {
        "day": "Thursday",
        "hours": "9:30‚ÄØAM to 10:30‚ÄØPM"
      },
      {
        "day": "Friday",
        "hours": "9:30‚ÄØAM to 10:30‚ÄØPM"
      },
      {
        "day": "Saturday",
        "hours": "9:30‚ÄØAM to 10:30‚ÄØPM"
      },
      {
        "day": "Sunday",
        "hours": "9:30‚ÄØAM to 10:30‚ÄØPM"
      }
    ],
    "imageUrl": "https://media.indianluxurycars.com/google/3025ef850495ad8bb018ba7c1cf3c466fddafdf788828112453f83c68fc0d3f2.jpg",
    "url": "https://www.google.com/maps/search/?api=1&query=Car%20Pavilion&query_place_id=ChIJf5Udsh8LGToR1bJ4wx2XmwI"
  },
  {
    "title": "Car plazza",
    "categoryName": "Car accessories store",
    "address": "Cuttack Rd, near imfa, Dayanandnagar, Bomikhal, Rasulgarh, Bhubaneswar, Odisha 751010, India",
    "neighborhood": "Dayanandnagar, Bomikhal, Rasulgarh",
    "street": "Cuttack Rd, near imfa",
    "city": "Bhubaneswar",
    "postalCode": "751010",
    "state": "Odisha",
    "countryCode": "IN",
    "phone": "+917008772825",
    "phoneUnformatted": "+917008772825",
    "location": {
      "lat": 20.2876252,
      "lng": 85.8577511
    },
    "totalScore": 5,
    "permanentlyClosed": false,
    "temporarilyClosed": false,
    "placeId": "ChIJ4zpiwW4LGToRAL_OGdfsBGg",
    "categories": [
      "Car accessories store"
    ],
    "reviewsCount": 74,
    "imagesCount": 30,
    "openingHours": [
      {
        "day": "Monday",
        "hours": "9‚ÄØAM to 10‚ÄØPM"
      },
      {
        "day": "Tuesday",
        "hours": "9‚ÄØAM to 10‚ÄØPM"
      },
      {
        "day": "Wednesday",
        "hours": "9‚ÄØAM to 10‚ÄØPM"
      },
      {
        "day": "Thursday",
        "hours": "9‚ÄØAM to 10‚ÄØPM"
      },
      {
        "day": "Friday",
        "hours": "9‚ÄØAM to 10‚ÄØPM"
      },
      {
        "day": "Saturday",
        "hours": "9‚ÄØAM to 10‚ÄØPM"
      },
      {
        "day": "Sunday",
        "hours": "9‚ÄØAM to 10‚ÄØPM"
      }
    ],
    "imageUrl": "https://media.indianluxurycars.com/google/5efd9f38a9bf334864e0a222db8eb9355a2e3f037828c963d47ffbfa4584ff30.jpg",
    "url": "https://www.google.com/maps/search/?api=1&query=Car%20plazza&query_place_id=ChIJ4zpiwW4LGToRAL_OGdfsBGg"
  },
  {
    "title": "Car Rental Odisha",
    "subTitle": "‡¨ï‡¨æ‡¨∞ ‡¨∞‡≠á‡¨£‡≠ç‡¨ü‡¨æ‡¨≤ ‡¨ì‡¨°‡¨º‡¨ø‡¨∂‡¨æ",
    "categoryName": "Car rental agency",
    "address": "M-5 / 06, NH 16, Acharya Vihar, Bhubaneswar, Odisha 751013, India",
    "neighborhood": "Acharya Vihar",
    "street": "M-5 / 06, NH 16",
    "city": "Bhubaneswar",
    "postalCode": "751013",
    "state": "Odisha",
    "countryCode": "IN",
    "phone": "+919937027574",
    "phoneUnformatted": "+919937027574",
    "location": {
      "lat": 20.29633,
      "lng": 85.828347
    },
    "totalScore": 4.1,
    "permanentlyClosed": false,
    "temporarilyClosed": false,
    "placeId": "ChIJKSzF1OkJGToRq6beUB0UUzM",
    "categories": [
      "Car rental agency",
      "Car leasing service",
      "Transportation service"
    ],
    "reviewsCount": 31,
    "imagesCount": 8,
    "openingHours": [
      {
        "day": "Monday",
        "hours": "Open 24 hours"
      },
      {
        "day": "Tuesday",
        "hours": "Open 24 hours"
      },
      {
        "day": "Wednesday",
        "hours": "Open 24 hours"
      },
      {
        "day": "Thursday",
        "hours": "Open 24 hours"
      },
      {
        "day": "Friday",
        "hours": "Open 24 hours"
      },
      {
        "day": "Saturday",
        "hours": "Open 24 hours"
      },
      {
        "day": "Sunday",
        "hours": "Open 24 hours"
      }
    ],
    "imageUrl": "https://media.indianluxurycars.com/google/f776f6a85b2526dc1327d0feb846e94222854402606c15fa1c4df06016fb10a2.jpg",
    "url": "https://www.google.com/maps/search/?api=1&query=Car%20Rental%20Odisha&query_place_id=ChIJKSzF1OkJGToRq6beUB0UUzM"
  },
  {
    "title": "City Motors Pvt Ltd",
    "subTitle": "‡¨∏‡¨ø‡¨ü‡¨ø ‡¨Æ‡≠ã‡¨ü‡¨∞‡≠ç‡¨∏ ‡¨™‡≠ç‡¨∞‡¨æ‡¨á‡¨≠‡≠á‡¨ü ‡¨≤‡¨ø‡¨É",
    "categoryName": "Motor vehicle dealer",
    "address": "9, Sachivalaya Marg, UNIT- 9, Bhubaneswar, Odisha 751022, India",
    "neighborhood": "UNIT- 9",
    "street": "9, Sachivalaya Marg",
    "city": "Bhubaneswar",
    "postalCode": "751022",
    "state": "Odisha",
    "countryCode": "IN",
    "location": {
      "lat": 20.2846051,
      "lng": 85.8352146
    },
    "totalScore": 3.3,
    "permanentlyClosed": false,
    "temporarilyClosed": false,
    "placeId": "ChIJ2dEl1e4JGToR9QuTHwsVc7Q",
    "categories": [
      "Motor vehicle dealer"
    ],
    "reviewsCount": 3,
    "imagesCount": 2,
    "openingHours": [
      {
        "day": "Monday",
        "hours": "9:30‚ÄØAM to 7‚ÄØPM"
      },
      {
        "day": "Tuesday",
        "hours": "9:30‚ÄØAM to 7‚ÄØPM"
      },
      {
        "day": "Wednesday",
        "hours": "9:30‚ÄØAM to 7‚ÄØPM"
      },
      {
        "day": "Thursday",
        "hours": "9:30‚ÄØAM to 7‚ÄØPM"
      },
      {
        "day": "Friday",
        "hours": "9:30‚ÄØAM to 7‚ÄØPM"
      },
      {
        "day": "Saturday",
        "hours": "9:30‚ÄØAM to 7‚ÄØPM"
      },
      {
        "day": "Sunday",
        "hours": "10‚ÄØAM to 2‚ÄØPM"
      }
    ],
    "imageUrl": "https://media.indianluxurycars.com/google/cbd053e88bd703e8284d263aeb1d41a2a9bf6fe67797d0b09e5bef0cab1d6cab.jpg",
    "url": "https://www.google.com/maps/search/?api=1&query=City%20Motors%20Pvt%20Ltd&query_place_id=ChIJ2dEl1e4JGToR9QuTHwsVc7Q"
  },
  {
    "title": "Drigo self drive car rental in bhubaneswar",
    "categoryName": "Car rental agency",
    "address": "unit-3, Plot no. A/69, Railway Yard and Washing Line, Kharvela Nagar, Bhubaneswar, Odisha 751001, India",
    "neighborhood": "Railway Yard and Washing Line, Kharvela Nagar",
    "street": "unit-3, Plot no. A/69",
    "city": "Bhubaneswar",
    "postalCode": "751001",
    "state": "Odisha",
    "countryCode": "IN",
    "phone": "+917209853321",
    "phoneUnformatted": "+917209853321",
    "location": {
      "lat": 20.2728995,
      "lng": 85.8471609
    },
    "totalScore": 4.9,
    "permanentlyClosed": false,
    "temporarilyClosed": false,
    "placeId": "ChIJsxN99YynGToRyZxmNuW8p5s",
    "categories": [
      "Car rental agency",
      "Car leasing service"
    ],
    "reviewsCount": 32,
    "imagesCount": 13,
    "openingHours": [
      {
        "day": "Monday",
        "hours": "Open 24 hours"
      },
      {
        "day": "Tuesday",
        "hours": "Open 24 hours"
      },
      {
        "day": "Wednesday",
        "hours": "Open 24 hours"
      },
      {
        "day": "Thursday",
        "hours": "Open 24 hours"
      },
      {
        "day": "Friday",
        "hours": "Open 24 hours"
      },
      {
        "day": "Saturday",
        "hours": "Open 24 hours"
      },
      {
        "day": "Sunday",
        "hours": "Open 24 hours"
      }
    ],
    "imageUrl": "https://media.indianluxurycars.com/google/213ff708d812a89860437b39f583021c4fe8304e02d21bdfc23f3ac9587dae5a.jpg",
    "url": "https://www.google.com/maps/search/?api=1&query=Drigo%20self%20drive%20car%20rental%20in%20bhubaneswar&query_place_id=ChIJsxN99YynGToRyZxmNuW8p5s"
  },
  {
    "title": "First Picop Tour And Travels",
    "categoryName": "Car rental agency",
    "address": "Park St 1, Buddha Nagar, Laxmisagar, Bhubaneswar, Odisha 751009, India",
    "neighborhood": "Buddha Nagar, Laxmisagar",
    "street": "Park St 1",
    "city": "Bhubaneswar",
    "postalCode": "751009",
    "state": "Odisha",
    "countryCode": "IN",
    "website": "http://firstpicoptourandtravels.in/",
    "phone": "+919853031900",
    "phoneUnformatted": "+919853031900",
    "location": {
      "lat": 20.2597221,
      "lng": 85.8408266
    },
    "totalScore": 4.9,
    "permanentlyClosed": false,
    "temporarilyClosed": false,
    "placeId": "ChIJdQ6dOYNyDQgRWd5F7WnUFMw",
    "categories": [
      "Car rental agency",
      "Tour operator",
      "Sightseeing tour agency",
      "Tour agency",
      "Travel agency"
    ],
    "reviewsCount": 39,
    "imagesCount": 12,
    "openingHours": [
      {
        "day": "Monday",
        "hours": "Open 24 hours"
      },
      {
        "day": "Tuesday",
        "hours": "Open 24 hours"
      },
      {
        "day": "Wednesday",
        "hours": "Open 24 hours"
      },
      {
        "day": "Thursday",
        "hours": "Open 24 hours"
      },
      {
        "day": "Friday",
        "hours": "Open 24 hours"
      },
      {
        "day": "Saturday",
        "hours": "Open 24 hours"
      },
      {
        "day": "Sunday",
        "hours": "Open 24 hours"
      }
    ],
    "imageUrl": "https://media.indianluxurycars.com/google/1dcb967318b6fafc9ea63f9a7e14ee7229201438dba29c017879d44d0ac13bcd.png",
    "url": "https://www.google.com/maps/search/?api=1&query=First%20Picop%20Tour%20And%20Travels&query_place_id=ChIJdQ6dOYNyDQgRWd5F7WnUFMw"
  },
  {
    "title": "GoSpeed self drive car",
    "categoryName": "Car leasing service",
    "address": "Oppsite pantaloons, Cuttack Rd, Jharapada, Bhubaneswar, Odisha 751006, India",
    "neighborhood": "Jharapada",
    "street": "Oppsite pantaloons, Cuttack Rd",
    "city": "Bhubaneswar",
    "postalCode": "751006",
    "state": "Odisha",
    "countryCode": "IN",
    "website": "https://www.gospeed.in/",
    "phone": "+919124627601",
    "phoneUnformatted": "+919124627601",
    "location": {
      "lat": 20.2765511,
      "lng": 85.8531902
    },
    "totalScore": 5,
    "permanentlyClosed": false,
    "temporarilyClosed": false,
    "placeId": "ChIJe8C5126hGToRqILN68pdqc4",
    "categories": [
      "Car leasing service"
    ],
    "reviewsCount": 52,
    "imagesCount": 12,
    "openingHours": [
      {
        "day": "Monday",
        "hours": "Open 24 hours"
      },
      {
        "day": "Tuesday",
        "hours": "Open 24 hours"
      },
      {
        "day": "Wednesday",
        "hours": "Open 24 hours"
      },
      {
        "day": "Thursday",
        "hours": "Open 24 hours"
      },
      {
        "day": "Friday",
        "hours": "Open 24 hours"
      },
      {
        "day": "Saturday",
        "hours": "Open 24 hours"
      },
      {
        "day": "Sunday",
        "hours": "Open 24 hours"
      }
    ],
    "imageUrl": "https://media.indianluxurycars.com/google/c524213ae31bf18527a68acfe61557216a01604dfebf1fd955d74cafaeb84a90.png",
    "url": "https://www.google.com/maps/search/?api=1&query=GoSpeed%20self%20drive%20car&query_place_id=ChIJe8C5126hGToRqILN68pdqc4"
  },
  {
    "title": "Laxmi Associates",
    "subTitle": "‡¨≤‡¨ï‡≠ç‡¨∑‡≠ç‡¨Æ‡≠Ä ‡¨Ü‡¨∏‡≠ã‡¨∏‡¨ø‡¨è‡¨ü‡≠ç‡¨∏",
    "categoryName": "Used car dealer",
    "address": "Jayadev Vihar, Bhubaneswar, Odisha 751013, India",
    "neighborhood": "Jayadev Vihar",
    "city": "Bhubaneswar",
    "postalCode": "751013",
    "state": "Odisha",
    "countryCode": "IN",
    "phone": "+919861026700",
    "phoneUnformatted": "+919861026700",
    "location": {
      "lat": 20.2978805,
      "lng": 85.8230676
    },
    "totalScore": 4,
    "permanentlyClosed": false,
    "temporarilyClosed": false,
    "placeId": "ChIJ17KZ9cMJGToRyihjsOoOkp8",
    "categories": [
      "Used car dealer"
    ],
    "reviewsCount": 66,
    "imagesCount": 123,
    "openingHours": [
      {
        "day": "Monday",
        "hours": "9:30‚ÄØAM to 5‚ÄØPM"
      },
      {
        "day": "Tuesday",
        "hours": "9:30‚ÄØAM to 5‚ÄØPM"
      },
      {
        "day": "Wednesday",
        "hours": "9:30‚ÄØAM to 5‚ÄØPM"
      },
      {
        "day": "Thursday",
        "hours": "9:30‚ÄØAM to 5‚ÄØPM"
      },
      {
        "day": "Friday",
        "hours": "9:30‚ÄØAM to 5‚ÄØPM"
      },
      {
        "day": "Saturday",
        "hours": "9:30‚ÄØAM to 5‚ÄØPM"
      },
      {
        "day": "Sunday",
        "hours": "9:30‚ÄØAM to 4‚ÄØPM"
      }
    ],
    "imageUrl": "https://media.indianluxurycars.com/google/3bfea2662f27642b4604b20733edb31ec0d58aee4acae09eac74f5617cb33e1b.jpg",
    "url": "https://www.google.com/maps/search/?api=1&query=Laxmi%20Associates&query_place_id=ChIJ17KZ9cMJGToRyihjsOoOkp8"
  },
  {
    "title": "Lets my trip",
    "categoryName": "Car rental agency",
    "address": "EB-372,4th Floor, Badagada BRIT Colony Rd, Badagada Brit Colony, Pandav Nagar, Bhubaneswar, Odisha 751018, India",
    "neighborhood": "Badagada Brit Colony, Pandav Nagar",
    "street": "EB-372,4th Floor, Badagada BRIT Colony Rd",
    "city": "Bhubaneswar",
    "postalCode": "751018",
    "state": "Odisha",
    "countryCode": "IN",
    "website": "https://letsmytrip.com/",
    "phone": "+919090900414",
    "phoneUnformatted": "+919090900414",
    "location": {
      "lat": 20.2481819,
      "lng": 85.8528681
    },
    "totalScore": 4,
    "permanentlyClosed": false,
    "temporarilyClosed": false,
    "placeId": "ChIJETa65C6hGToRaW5GM6o4-0s",
    "categories": [
      "Car rental agency",
      "Car leasing service",
      "Travel agency",
      "Money transfer service",
      "Passport agent",
      "Sightseeing tour agency",
      "Tour agency",
      "Tour operator",
      "Wedding planner"
    ],
    "reviewsCount": 96,
    "imagesCount": 242,
    "openingHours": [
      {
        "day": "Monday",
        "hours": "Open 24 hours"
      },
      {
        "day": "Tuesday",
        "hours": "Open 24 hours"
      },
      {
        "day": "Wednesday",
        "hours": "Open 24 hours"
      },
      {
        "day": "Thursday",
        "hours": "Open 24 hours"
      },
      {
        "day": "Friday",
        "hours": "Open 24 hours"
      },
      {
        "day": "Saturday",
        "hours": "Open 24 hours"
      },
      {
        "day": "Sunday",
        "hours": "Open 24 hours"
      }
    ],
    "imageUrl": "https://media.indianluxurycars.com/google/8fd36e53212cc7ed366fef2104d92ee85cfff38ecfc5dc954225ea846a59e1a5.jpg",
    "url": "https://www.google.com/maps/search/?api=1&query=Lets%20my%20trip&query_place_id=ChIJETa65C6hGToRaW5GM6o4-0s"
  },
  {
    "title": "Local luxury car rental",
    "categoryName": "Car leasing service",
    "address": "Beherasahi, Nuasahi, Nayapalli, Bhubaneswar, Odisha 751012, India",
    "neighborhood": "Beherasahi, Nuasahi, Nayapalli",
    "city": "Bhubaneswar",
    "postalCode": "751012",
    "state": "Odisha",
    "countryCode": "IN",
    "phone": "+919337782540",
    "phoneUnformatted": "+919337782540",
    "location": {
      "lat": 20.2905678,
      "lng": 85.8198397
    },
    "totalScore": 4.9,
    "permanentlyClosed": false,
    "temporarilyClosed": false,
    "placeId": "ChIJm_Y1LTMJGToR4cgJnAUgJlc",
    "categories": [
      "Car leasing service"
    ],
    "reviewsCount": 17,
    "imagesCount": 71,
    "openingHours": [
      {
        "day": "Monday",
        "hours": "Open 24 hours"
      },
      {
        "day": "Tuesday",
        "hours": "Open 24 hours"
      },
      {
        "day": "Wednesday",
        "hours": "Open 24 hours"
      },
      {
        "day": "Thursday",
        "hours": "Open 24 hours"
      },
      {
        "day": "Friday",
        "hours": "Open 24 hours"
      },
      {
        "day": "Saturday",
        "hours": "Open 24 hours"
      },
      {
        "day": "Sunday",
        "hours": "Open 24 hours"
      }
    ],
    "imageUrl": "https://media.indianluxurycars.com/google/fbc69f4e2c2037edb4238d9c24097d03237bc052192278e5ee4365cda5491b39.jpg",
    "url": "https://www.google.com/maps/search/?api=1&query=Local%20luxury%20car%20rental&query_place_id=ChIJm_Y1LTMJGToR4cgJnAUgJlc"
  },
  {
    "title": "Luxury wedding cars",
    "categoryName": "Car rental agency",
    "address": "Laxmisagar, Bhubaneswar, Odisha 751006, India",
    "neighborhood": "Laxmisagar",
    "city": "Bhubaneswar",
    "postalCode": "751006",
    "state": "Odisha",
    "countryCode": "IN",
    "location": {
      "lat": 20.2723207,
      "lng": 85.8581231
    },
    "permanentlyClosed": false,
    "temporarilyClosed": false,
    "placeId": "ChIJUdxfBOChGToRFN70pZw_i00",
    "categories": [
      "Car rental agency"
    ],
    "imagesCount": 2,
    "openingHours": [
      {
        "day": "Monday",
        "hours": "Open 24 hours"
      },
      {
        "day": "Tuesday",
        "hours": "Open 24 hours"
      },
      {
        "day": "Wednesday",
        "hours": "Open 24 hours"
      },
      {
        "day": "Thursday",
        "hours": "Open 24 hours"
      },
      {
        "day": "Friday",
        "hours": "Open 24 hours"
      },
      {
        "day": "Saturday",
        "hours": "Open 24 hours"
      },
      {
        "day": "Sunday",
        "hours": "Open 24 hours"
      }
    ],
    "imageUrl": "https://media.indianluxurycars.com/google/2af884446404484d2c811f31f9e1948f10f1995dd980b3bc746fbc4614a789db.jpg",
    "url": "https://www.google.com/maps/search/?api=1&query=Luxury%20wedding%20cars&query_place_id=ChIJUdxfBOChGToRFN70pZw_i00"
  },
  {
    "title": "MADWHEELZ",
    "categoryName": "Used car dealer",
    "address": "PLOT NO, Ln 3, Oscar City, Laxmisagar, Bhubaneswar, Odisha 751006, India",
    "neighborhood": "Oscar City, Laxmisagar",
    "street": "PLOT NO, Ln 3",
    "city": "Bhubaneswar",
    "postalCode": "751006",
    "state": "Odisha",
    "countryCode": "IN",
    "location": {
      "lat": 20.2628018,
      "lng": 85.8561707
    },
    "totalScore": 4.8,
    "permanentlyClosed": false,
    "temporarilyClosed": false,
    "placeId": "ChIJmYTPvcihGToRl7nV1hzSXz0",
    "categories": [
      "Used car dealer"
    ],
    "reviewsCount": 36,
    "imagesCount": 170,
    "openingHours": [
      {
        "day": "Monday",
        "hours": "10:30‚ÄØAM to 6:30‚ÄØPM"
      },
      {
        "day": "Tuesday",
        "hours": "10:30‚ÄØAM to 6:30‚ÄØPM"
      },
      {
        "day": "Wednesday",
        "hours": "10:30‚ÄØAM to 6:30‚ÄØPM"
      },
      {
        "day": "Thursday",
        "hours": "10:30‚ÄØAM to 6:30‚ÄØPM"
      },
      {
        "day": "Friday",
        "hours": "10:30‚ÄØAM to 6:30‚ÄØPM"
      },
      {
        "day": "Saturday",
        "hours": "10:30‚ÄØAM to 6:30‚ÄØPM"
      },
      {
        "day": "Sunday",
        "hours": "10:30‚ÄØAM to 6:30‚ÄØPM"
      }
    ],
    "imageUrl": "https://media.indianluxurycars.com/google/3080e1e68d5d5aba50a0aed67193db5fd58659e395c15c2da9a3e47ec1cd8730.jpg",
    "url": "https://www.google.com/maps/search/?api=1&query=MADWHEELZ&query_place_id=ChIJmYTPvcihGToRl7nV1hzSXz0"
  },
  {
    "title": "Mahindra Utkal Automobiles - SUV & Commercial Vehicle Showroom",
    "categoryName": "Car dealer",
    "address": "S-3/61, near Mancheswar Police Station, Sector A, Mancheswar Industrial Estate, Bhubaneswar, Odisha 751010, India",
    "neighborhood": "Sector A, Mancheswar Industrial Estate",
    "street": "S-3/61, near Mancheswar Police Station",
    "city": "Bhubaneswar",
    "postalCode": "751010",
    "state": "Odisha",
    "countryCode": "IN",
    "website": "https://dealers-auto.mahindra.com/mahindra-utkal-automobiles-suv-and-commercial-showroom-utk01u010091-cuttack",
    "phone": "+918929207515",
    "phoneUnformatted": "+918929207515",
    "location": {
      "lat": 20.3006778,
      "lng": 85.8576714
    },
    "totalScore": 4.5,
    "permanentlyClosed": false,
    "temporarilyClosed": false,
    "placeId": "ChIJ_dpMCg0LGToRc08IZQ-vRJc",
    "categories": [
      "Car dealer"
    ],
    "reviewsCount": 1334,
    "imagesCount": 290,
    "openingHours": [
      {
        "day": "Monday",
        "hours": "9:30‚ÄØAM to 6:30‚ÄØPM"
      },
      {
        "day": "Tuesday",
        "hours": "9:30‚ÄØAM to 6:30‚ÄØPM"
      },
      {
        "day": "Wednesday",
        "hours": "9:30‚ÄØAM to 6:30‚ÄØPM"
      },
      {
        "day": "Thursday",
        "hours": "9:30‚ÄØAM to 6:30‚ÄØPM"
      },
      {
        "day": "Friday",
        "hours": "9:30‚ÄØAM to 6:30‚ÄØPM"
      },
      {
        "day": "Saturday",
        "hours": "9:30‚ÄØAM to 6:30‚ÄØPM"
      },
      {
        "day": "Sunday",
        "hours": "9:30‚ÄØAM to 6:30‚ÄØPM"
      }
    ],
    "imageUrl": "https://media.indianluxurycars.com/google/776a74f8efe26836e7b791ee936c7d5db7d88ad6453ad877af1539029c16c71a.jpg",
    "url": "https://www.google.com/maps/search/?api=1&query=Mahindra%20Utkal%20Automobiles%20-%20SUV%20%26%20Commercial%20Vehicle%20Showroom&query_place_id=ChIJ_dpMCg0LGToRc08IZQ-vRJc"
  },
  {
    "title": "Marriage Car Bhubaneswar",
    "subTitle": "‡¨Æ‡≠á‡¨∞‡¨ø‡¨Ü‡¨ó‡≠á ‡¨ï‡¨æ‡¨∞ ‡¨≠‡≠Å‡¨¨‡¨®‡≠á‡¨∂‡≠ç‡¨µ‡¨∞",
    "categoryName": "Car leasing service",
    "address": "883/1441, Canal Rd, Chandimata Colony, Nigamananda Nagar, Rasulgarh, Bhubaneswar, Odisha 751010, India",
    "neighborhood": "Chandimata Colony, Nigamananda Nagar, Rasulgarh",
    "street": "883/1441, Canal Rd",
    "city": "Bhubaneswar",
    "postalCode": "751010",
    "state": "Odisha",
    "countryCode": "IN",
    "website": "https://weddingcarbhubaneswar.wordpress.com/",
    "phone": "+918510052225",
    "phoneUnformatted": "+918510052225",
    "location": {
      "lat": 20.2916343,
      "lng": 85.8610084
    },
    "totalScore": 4.2,
    "permanentlyClosed": false,
    "temporarilyClosed": false,
    "placeId": "ChIJDZ1I10OnGToRRaiYJxIc1cM",
    "categories": [
      "Car leasing service"
    ],
    "reviewsCount": 9,
    "imagesCount": 13,
    "openingHours": [
      {
        "day": "Monday",
        "hours": "9‚ÄØAM to 8‚ÄØPM"
      },
      {
        "day": "Tuesday",
        "hours": "9‚ÄØAM to 8‚ÄØPM"
      },
      {
        "day": "Wednesday",
        "hours": "9‚ÄØAM to 8‚ÄØPM"
      },
      {
        "day": "Thursday",
        "hours": "9‚ÄØAM to 8‚ÄØPM"
      },
      {
        "day": "Friday",
        "hours": "9‚ÄØAM to 8‚ÄØPM"
      },
      {
        "day": "Saturday",
        "hours": "9‚ÄØAM to 8‚ÄØPM"
      },
      {
        "day": "Sunday",
        "hours": "9‚ÄØAM to 8‚ÄØPM"
      }
    ],
    "imageUrl": "https://media.indianluxurycars.com/google/42910dadaa77d24e85c11d0d6381f35f22ca80e76b23039932a7c40e7c72908c.jpg",
    "url": "https://www.google.com/maps/search/?api=1&query=Marriage%20Car%20Bhubaneswar&query_place_id=ChIJDZ1I10OnGToRRaiYJxIc1cM"
  },
  {
    "title": "Mr. Wheelz Cars",
    "categoryName": "Used car dealer",
    "address": "Plot No- 1311/1825/2453, Cuttack - Puri Bypass Rd, near Odisri Bharat, Kesura Square, Bhubaneswar, Odisha 751002, India",
    "neighborhood": "Kesura Square",
    "street": "Plot No- 1311/1825/2453, Cuttack - Puri Bypass Rd, near Odisri Bharat",
    "city": "Bhubaneswar",
    "postalCode": "751002",
    "state": "Odisha",
    "countryCode": "IN",
    "website": "https://www.mrwheezcars.com/",
    "phone": "+917326008845",
    "phoneUnformatted": "+917326008845",
    "location": {
      "lat": 20.2648976,
      "lng": 85.8695466
    },
    "totalScore": 4.9,
    "permanentlyClosed": false,
    "temporarilyClosed": false,
    "placeId": "ChIJ3cHIEbuhGToRYwk4DQEO6xQ",
    "categories": [
      "Used car dealer"
    ],
    "reviewsCount": 22,
    "imagesCount": 39,
    "openingHours": [
      {
        "day": "Monday",
        "hours": "9‚ÄØAM to 7‚ÄØPM"
      },
      {
        "day": "Tuesday",
        "hours": "9‚ÄØAM to 7‚ÄØPM"
      },
      {
        "day": "Wednesday",
        "hours": "9‚ÄØAM to 7‚ÄØPM"
      },
      {
        "day": "Thursday",
        "hours": "9‚ÄØAM to 7‚ÄØPM"
      },
      {
        "day": "Friday",
        "hours": "9‚ÄØAM to 7‚ÄØPM"
      },
      {
        "day": "Saturday",
        "hours": "9‚ÄØAM to 7‚ÄØPM"
      },
      {
        "day": "Sunday",
        "hours": "9‚ÄØAM to 7‚ÄØPM"
      }
    ],
    "imageUrl": "https://media.indianluxurycars.com/google/4f442e0b99353a1ace2cb28ab8cc363910efef0859ad4c377fc1dd9eb8501082.png",
    "url": "https://www.google.com/maps/search/?api=1&query=Mr.%20Wheelz%20Cars&query_place_id=ChIJ3cHIEbuhGToRYwk4DQEO6xQ"
  },
  {
    "title": "Naijen Automotive Pvt Ltd. - Best Used Car Dealers/Sell Buy Car in Bhubaneswar",
    "categoryName": "Used car dealer",
    "address": "Jayadev Vihar, Plot no. 88/6, near TTD Kalayan Mandap, Acharya Vihar, Bhubaneswar, Odisha 751013, India",
    "neighborhood": "Acharya Vihar",
    "street": "Jayadev Vihar, Plot no. 88/6, near TTD Kalayan Mandap",
    "city": "Bhubaneswar",
    "postalCode": "751013",
    "state": "Odisha",
    "countryCode": "IN",
    "phone": "+919776080658",
    "phoneUnformatted": "+919776080658",
    "location": {
      "lat": 20.294868,
      "lng": 85.8259306
    },
    "totalScore": 4.8,
    "permanentlyClosed": false,
    "temporarilyClosed": false,
    "placeId": "ChIJE-goceUJGToRhbXDPdyDEzE",
    "categories": [
      "Used car dealer"
    ],
    "reviewsCount": 23,
    "imagesCount": 34,
    "openingHours": [
      {
        "day": "Monday",
        "hours": "9‚ÄØAM to 8:30‚ÄØPM"
      },
      {
        "day": "Tuesday",
        "hours": "9‚ÄØAM to 8:30‚ÄØPM"
      },
      {
        "day": "Wednesday",
        "hours": "9‚ÄØAM to 8:30‚ÄØPM"
      },
      {
        "day": "Thursday",
        "hours": "9‚ÄØAM to 8:30‚ÄØPM"
      },
      {
        "day": "Friday",
        "hours": "9‚ÄØAM to 8:30‚ÄØPM"
      },
      {
        "day": "Saturday",
        "hours": "9‚ÄØAM to 8:30‚ÄØPM"
      },
      {
        "day": "Sunday",
        "hours": "Closed"
      }
    ],
    "imageUrl": "https://media.indianluxurycars.com/google/f58e66a300391b2e8accaed31b3036e3ab85e829cec494c850262074c8f2097a.jpg",
    "url": "https://www.google.com/maps/search/?api=1&query=Naijen%20Automotive%20Pvt%20Ltd.%20-%20Best%20Used%20Car%20Dealers%2FSell%20Buy%20Car%20in%20Bhubaneswar&query_place_id=ChIJE-goceUJGToRhbXDPdyDEzE"
  },
  {
    "title": "NEXA (Narayani Motors, Bhubaneswar, Rajbhavan Road)",
    "subTitle": "‡¨®‡≠á‡¨ï‡≠ç‡¨∏‡¨æ",
    "categoryName": "Car dealer",
    "address": "116 B, opposite Governor House, Unit 7, Surya Nagar, Bhubaneswar, Odisha 751003, India",
    "neighborhood": "Unit 7, Surya Nagar",
    "street": "116 B, opposite Governor House",
    "city": "Bhubaneswar",
    "postalCode": "751003",
    "state": "Odisha",
    "countryCode": "IN",
    "website": "https://www.nexaofrajbhavanroad.com/?utm_source=gmb&utm_medium=google",
    "phone": "+918062510883",
    "phoneUnformatted": "+918062510883",
    "location": {
      "lat": 20.2688379,
      "lng": 85.8179018
    },
    "totalScore": 4.7,
    "permanentlyClosed": false,
    "temporarilyClosed": false,
    "placeId": "ChIJcSTJkkinGToRMyVc8W7TRD4",
    "categories": [
      "Car dealer"
    ],
    "reviewsCount": 1517,
    "imagesCount": 669,
    "openingHours": [
      {
        "day": "Monday",
        "hours": "9‚ÄØAM to 6‚ÄØPM"
      },
      {
        "day": "Tuesday",
        "hours": "9‚ÄØAM to 6‚ÄØPM"
      },
      {
        "day": "Wednesday",
        "hours": "9‚ÄØAM to 6‚ÄØPM"
      },
      {
        "day": "Thursday",
        "hours": "9‚ÄØAM to 6‚ÄØPM"
      },
      {
        "day": "Friday",
        "hours": "9‚ÄØAM to 6‚ÄØPM"
      },
      {
        "day": "Saturday",
        "hours": "9‚ÄØAM to 6‚ÄØPM"
      },
      {
        "day": "Sunday",
        "hours": "9‚ÄØAM to 6‚ÄØPM"
      }
    ],
    "imageUrl": "https://media.indianluxurycars.com/google/52bd8d3c97000b994590c9252bbd61844a88724067ab8af9a009baed11ff2121.jpg",
    "url": "https://www.google.com/maps/search/?api=1&query=NEXA%20(Narayani%20Motors%2C%20Bhubaneswar%2C%20Rajbhavan%20Road)&query_place_id=ChIJcSTJkkinGToRMyVc8W7TRD4"
  },
  {
    "title": "ODCar",
    "categoryName": "Car rental agency",
    "address": "3rd Floor, Hotel Rajdhani Puri - Cuttack Road, Old Station Bazaar, Buddha Nagar, Laxmisagar, Bhubaneswar, Odisha 751006, India",
    "neighborhood": "Buddha Nagar, Laxmisagar",
    "street": "3rd Floor, Hotel Rajdhani Puri - Cuttack Road, Old Station Bazaar",
    "city": "Bhubaneswar",
    "postalCode": "751006",
    "state": "Odisha",
    "countryCode": "IN",
    "website": "https://www.odcar.in/",
    "phone": "+918260055345",
    "phoneUnformatted": "+918260055345",
    "location": {
      "lat": 20.2624792,
      "lng": 85.8441965
    },
    "totalScore": 4.6,
    "permanentlyClosed": false,
    "temporarilyClosed": false,
    "placeId": "ChIJIX86162nGToRP4bj1B6XK1I",
    "categories": [
      "Car rental agency",
      "Car leasing service",
      "Taxi service",
      "Chauffeur service",
      "Minibus taxi service",
      "Transportation service"
    ],
    "reviewsCount": 455,
    "imagesCount": 210,
    "openingHours": [],
    "imageUrl": "https://media.indianluxurycars.com/google/1e3a96777b840bb77084677d756bc08b453b8b9a96bf7629faa09e79fd9d3fdc.jpg",
    "url": "https://www.google.com/maps/search/?api=1&query=ODCar&query_place_id=ChIJIX86162nGToRP4bj1B6XK1I"
  },
  {
    "title": "Omm Sai Tours and Travels Bhubaneswar - taxi and cab travel service",
    "categoryName": "Car rental agency",
    "address": "Plot No- 438, Block - A, Nuasahi, Nayapalli, Bhubaneswar, Odisha 751012, India",
    "neighborhood": "Block - A, Nuasahi, Nayapalli",
    "street": "Plot No- 438",
    "city": "Bhubaneswar",
    "postalCode": "751012",
    "state": "Odisha",
    "countryCode": "IN",
    "website": "https://ommsaitoursandtravel.com/",
    "phone": "+919938706828",
    "phoneUnformatted": "+919938706828",
    "location": {
      "lat": 20.2822414,
      "lng": 85.8197266
    },
    "totalScore": 4.9,
    "permanentlyClosed": false,
    "temporarilyClosed": false,
    "placeId": "ChIJE76M1h0JGToRGmbjk-Gqb1w",
    "categories": [
      "Car rental agency",
      "Airport shuttle service",
      "Car leasing service",
      "Taxi service",
      "Chauffeur service",
      "Limousine service",
      "Rental car return location",
      "Sightseeing tour agency",
      "Travel agency",
      "Van rental agency"
    ],
    "reviewsCount": 491,
    "imagesCount": 117,
    "openingHours": [],
    "imageUrl": "https://media.indianluxurycars.com/google/0b89bcc05b423dc90111fb1b635936457c04efbac2b68c9af72ca517e2428dd9.jpg",
    "url": "https://www.google.com/maps/search/?api=1&query=Omm%20Sai%20Tours%20and%20Travels%20Bhubaneswar%20-%20taxi%20and%20cab%20travel%20service&query_place_id=ChIJE76M1h0JGToRGmbjk-Gqb1w"
  },
  {
    "title": "Patra Tours And Travels",
    "subTitle": "‡¨™‡¨æ‡¨§‡≠ç‡¨∞ ‡¨ü‡¨∞‡≠ç‡¨∏ ‡¨Ü‡¨£‡≠ç‡¨° ‡¨ü‡≠ç‡¨∞‡¨æ‡¨≠‡≠á‡¨≤‡≠ç‡¨∏",
    "categoryName": "Car rental agency",
    "address": "1st Floor, Royal Palace Campus, Plot No. 1151, Tankapani Rd, adjacent to Radhika Tower, near Ravi Talkies Road, Bishnu Nagar, Ratnakar Bagh, Brahmeswarpatna, Bhubaneswar, Odisha 751018, India",
    "neighborhood": "Bishnu Nagar, Ratnakar Bagh, Brahmeswarpatna",
    "street": "1st Floor, Royal Palace Campus, Plot No. 1151, Tankapani Rd, adjacent to Radhika Tower, near Ravi Talkies Road",
    "city": "Bhubaneswar",
    "postalCode": "751018",
    "state": "Odisha",
    "countryCode": "IN",
    "website": "https://www.patratravels.com/",
    "phone": "+918337911111",
    "phoneUnformatted": "+918337911111",
    "location": {
      "lat": 20.2442692,
      "lng": 85.8482013
    },
    "totalScore": 4.5,
    "permanentlyClosed": false,
    "temporarilyClosed": false,
    "placeId": "ChIJw3Xvf0inGToRUOP6uZXrJwA",
    "categories": [
      "Car rental agency",
      "Bus company",
      "Car leasing service",
      "Travel agency",
      "Taxi service",
      "Tour agency",
      "Tour operator",
      "Visa consulting service"
    ],
    "reviewsCount": 1565,
    "imagesCount": 1514,
    "openingHours": [
      {
        "day": "Monday",
        "hours": "Open 24 hours"
      },
      {
        "day": "Tuesday",
        "hours": "Open 24 hours"
      },
      {
        "day": "Wednesday",
        "hours": "Open 24 hours"
      },
      {
        "day": "Thursday",
        "hours": "Open 24 hours"
      },
      {
        "day": "Friday",
        "hours": "Open 24 hours"
      },
      {
        "day": "Saturday",
        "hours": "Open 24 hours"
      },
      {
        "day": "Sunday",
        "hours": "Open 24 hours"
      }
    ],
    "imageUrl": "https://media.indianluxurycars.com/google/4419acee7e5b9d69bcdfa85855a0b96548ae87d0eb1f31fd9e1deaa50f8a80bd.jpg",
    "url": "https://www.google.com/maps/search/?api=1&query=Patra%20Tours%20And%20Travels&query_place_id=ChIJw3Xvf0inGToRUOP6uZXrJwA"
  },
  {
    "title": "Rideus Mobilty Solutions Private Limited Opc",
    "categoryName": "Car leasing service",
    "address": "2nd Floor , Plot No - 362, Infront of BMC, 385/5687, Gautam Nagar, Bhubaneswar, Odisha 751009, India",
    "neighborhood": "Gautam Nagar",
    "street": "2nd Floor , Plot No - 362, Infront of BMC, 385/5687",
    "city": "Bhubaneswar",
    "postalCode": "751009",
    "state": "Odisha",
    "countryCode": "IN",
    "website": "https://rideus.in/",
    "phone": "+918093125700",
    "phoneUnformatted": "+918093125700",
    "location": {
      "lat": 20.2557111,
      "lng": 85.8390324
    },
    "totalScore": 4.6,
    "permanentlyClosed": false,
    "temporarilyClosed": false,
    "placeId": "ChIJ982PhcynGToR63M2X3o-aag",
    "categories": [
      "Car leasing service",
      "Airport shuttle service",
      "Car dealer",
      "Car rental agency",
      "Car sharing location",
      "Rental car return location",
      "Rideshare pickup location"
    ],
    "reviewsCount": 801,
    "imagesCount": 1309,
    "openingHours": [
      {
        "day": "Monday",
        "hours": "Open 24 hours"
      },
      {
        "day": "Tuesday",
        "hours": "Open 24 hours"
      },
      {
        "day": "Wednesday",
        "hours": "Open 24 hours"
      },
      {
        "day": "Thursday",
        "hours": "Open 24 hours"
      },
      {
        "day": "Friday",
        "hours": "Open 24 hours"
      },
      {
        "day": "Saturday",
        "hours": "Open 24 hours"
      },
      {
        "day": "Sunday",
        "hours": "Open 24 hours"
      }
    ],
    "imageUrl": "https://media.indianluxurycars.com/google/9a12a55b69cf4a26be7b5e99b234a2995587179813764092808fc3929ce32147.jpg",
    "url": "https://www.google.com/maps/search/?api=1&query=Rideus%20Mobilty%20Solutions%20Private%20Limited%20Opc&query_place_id=ChIJ982PhcynGToR63M2X3o-aag"
  },
  {
    "title": "SenCarRENTAL",
    "categoryName": "Car rental agency",
    "address": "near Ram Mandir, Ekamra Vihar, UNIT- 9, Bhubaneswar, Odisha 751001, India",
    "neighborhood": "Ekamra Vihar, UNIT- 9",
    "street": "near Ram Mandir",
    "city": "Bhubaneswar",
    "postalCode": "751001",
    "state": "Odisha",
    "countryCode": "IN",
    "website": "http://sencarrental.com/",
    "phone": "+919692847322",
    "phoneUnformatted": "+919692847322",
    "location": {
      "lat": 20.2770162,
      "lng": 85.8423061
    },
    "totalScore": 4.7,
    "permanentlyClosed": false,
    "temporarilyClosed": false,
    "placeId": "ChIJPeNuSOynGToR8BHvmnGi2Dk",
    "categories": [
      "Car rental agency"
    ],
    "reviewsCount": 3,
    "imagesCount": 3,
    "openingHours": [
      {
        "day": "Monday",
        "hours": "6‚ÄØAM to 11‚ÄØPM"
      },
      {
        "day": "Tuesday",
        "hours": "6‚ÄØAM to 11‚ÄØPM"
      },
      {
        "day": "Wednesday",
        "hours": "6‚ÄØAM to 11‚ÄØPM"
      },
      {
        "day": "Thursday",
        "hours": "6‚ÄØAM to 11‚ÄØPM"
      },
      {
        "day": "Friday",
        "hours": "6‚ÄØAM to 11‚ÄØPM"
      },
      {
        "day": "Saturday",
        "hours": "6‚ÄØAM to 11‚ÄØPM"
      },
      {
        "day": "Sunday",
        "hours": "6‚ÄØAM to 11‚ÄØPM"
      }
    ],
    "imageUrl": "https://media.indianluxurycars.com/google/4a8af6273d503eb96866f4b13e4886c3229a8754628408f6c47f842ce994f40a.jpg",
    "url": "https://www.google.com/maps/search/?api=1&query=SenCarRENTAL&query_place_id=ChIJPeNuSOynGToR8BHvmnGi2Dk"
  },
  {
    "title": "SR Drives",
    "categoryName": "Car leasing service",
    "address": "Address::N, 5, Block N5, IRC Village, Jayadev Vihar, Bhubaneswar, Odisha 751015, India",
    "neighborhood": "Block N5, IRC Village, Jayadev Vihar",
    "street": "Address::N, 5",
    "city": "Bhubaneswar",
    "postalCode": "751015",
    "state": "Odisha",
    "countryCode": "IN",
    "website": "https://srdrives.in/",
    "phone": "+919337921712",
    "phoneUnformatted": "+919337921712",
    "location": {
      "lat": 20.2956142,
      "lng": 85.8152431
    },
    "totalScore": 5,
    "permanentlyClosed": false,
    "temporarilyClosed": false,
    "placeId": "ChIJic9ZoQgJGToR-zreHAAgvjE",
    "categories": [
      "Car leasing service"
    ],
    "reviewsCount": 4,
    "imagesCount": 5,
    "openingHours": [],
    "imageUrl": "https://media.indianluxurycars.com/google/7c617026d640c871f94ebcf6d6d09c889ea3b74f9643f65a70cc3aa3428a92a2.jpg",
    "url": "https://www.google.com/maps/search/?api=1&query=SR%20Drives&query_place_id=ChIJic9ZoQgJGToR-zreHAAgvjE"
  },
  {
    "title": "Surebuy Cars",
    "categoryName": "Used car dealer",
    "address": "Plot No-117, Cuttack - Puri Bypass Rd, near Aditya Granite, Bhubaneswar, Odisha 751025, India",
    "street": "Plot No-117, Cuttack - Puri Bypass Rd, near Aditya Granite",
    "city": "Bhubaneswar",
    "postalCode": "751025",
    "state": "Odisha",
    "countryCode": "IN",
    "website": "https://surebuycars.com/",
    "phone": "+917656838313",
    "phoneUnformatted": "+917656838313",
    "location": {
      "lat": 20.2864545,
      "lng": 85.873188
    },
    "totalScore": 4.7,
    "permanentlyClosed": false,
    "temporarilyClosed": false,
    "placeId": "ChIJ9bUMEoULGToR5elfrbj9-g0",
    "categories": [
      "Used car dealer",
      "Car dealer",
      "Second hand store",
      "Showroom"
    ],
    "reviewsCount": 577,
    "imagesCount": 743,
    "openingHours": [
      {
        "day": "Monday",
        "hours": "9‚ÄØAM to 8‚ÄØPM"
      },
      {
        "day": "Tuesday",
        "hours": "9‚ÄØAM to 8‚ÄØPM"
      },
      {
        "day": "Wednesday",
        "hours": "9‚ÄØAM to 8‚ÄØPM"
      },
      {
        "day": "Thursday",
        "hours": "9‚ÄØAM to 8‚ÄØPM"
      },
      {
        "day": "Friday",
        "hours": "9‚ÄØAM to 8‚ÄØPM"
      },
      {
        "day": "Saturday",
        "hours": "9‚ÄØAM to 8‚ÄØPM"
      },
      {
        "day": "Sunday",
        "hours": "9‚ÄØAM to 8‚ÄØPM"
      }
    ],
    "imageUrl": "https://media.indianluxurycars.com/google/3a87cf8590475d838b2d87ec72592c7c5981ab7afc1740d82709efc5fa48c65d.jpg",
    "url": "https://www.google.com/maps/search/?api=1&query=Surebuy%20Cars&query_place_id=ChIJ9bUMEoULGToR5elfrbj9-g0"
  },
  {
    "title": "Swosti travels and luxury Car rent marriage purpose Audi a6 / Jaguar Xf",
    "categoryName": "Car rental agency",
    "address": "Old Town, Bhubaneswar, Odisha 751002, India",
    "neighborhood": "Old Town",
    "city": "Bhubaneswar",
    "postalCode": "751002",
    "state": "Odisha",
    "countryCode": "IN",
    "website": "https://www.facebook.com/swostisundar.mohapatra.71?mibextid=LQQJ4d",
    "phone": "+917846819517",
    "phoneUnformatted": "+917846819517",
    "location": {
      "lat": 20.2430858,
      "lng": 85.8292184
    },
    "totalScore": 5,
    "permanentlyClosed": false,
    "temporarilyClosed": false,
    "placeId": "ChIJ-1UTav6nGToRtAl4fuGQ4-M",
    "categories": [
      "Car rental agency"
    ],
    "reviewsCount": 10,
    "imagesCount": 524,
    "openingHours": [
      {
        "day": "Monday",
        "hours": "Open 24 hours"
      },
      {
        "day": "Tuesday",
        "hours": "Open 24 hours"
      },
      {
        "day": "Wednesday",
        "hours": "Open 24 hours"
      },
      {
        "day": "Thursday",
        "hours": "Open 24 hours"
      },
      {
        "day": "Friday",
        "hours": "Open 24 hours"
      },
      {
        "day": "Saturday",
        "hours": "Open 24 hours"
      },
      {
        "day": "Sunday",
        "hours": "Open 24 hours"
      }
    ],
    "imageUrl": "https://media.indianluxurycars.com/google/d172cfedf08c5b21010109fe452af8b4195a13abcfc0f859424e9881b3097e39.jpg",
    "url": "https://www.google.com/maps/search/?api=1&query=Swosti%20travels%20and%20luxury%20Car%20rent%20marriage%20purpose%20Audi%20a6%20%2F%20Jaguar%20Xf&query_place_id=ChIJ-1UTav6nGToRtAl4fuGQ4-M"
  },
  {
    "title": "Tropical Vacations Odisha",
    "subTitle": "‡¨ü‡≠ç‡¨∞‡¨™‡¨ø‡¨ï‡¨æ‡¨≤ ‡¨≠‡≠á‡¨ï‡≠á‡¨∏‡¨® ‡¨ì‡¨°‡¨º‡¨ø‡¨∂‡¨æ",
    "categoryName": "Car rental agency",
    "address": "4th Floor, House No-20, BMC Panchdeep Mall, Unit 4 Market, Unit 4, Bhouma Nagar, Bhubaneswar, Odisha 751001, India",
    "neighborhood": "Unit 4, Bhouma Nagar",
    "street": "4th Floor, House No-20, BMC Panchdeep Mall, Unit 4 Market",
    "city": "Bhubaneswar",
    "postalCode": "751001",
    "state": "Odisha",
    "countryCode": "IN",
    "website": "https://www.tropicalvacations.in/",
    "phone": "+919937344156",
    "phoneUnformatted": "+919937344156",
    "location": {
      "lat": 20.2773856,
      "lng": 85.831026
    },
    "totalScore": 4.2,
    "permanentlyClosed": false,
    "temporarilyClosed": false,
    "placeId": "ChIJ1ZtwMJYJGToR1QlFpvlqs6A",
    "categories": [
      "Car rental agency",
      "Tour operator",
      "Tour agency",
      "Travel agency"
    ],
    "reviewsCount": 28,
    "imagesCount": 132,
    "openingHours": [
      {
        "day": "Monday",
        "hours": "10‚ÄØAM to 8‚ÄØPM"
      },
      {
        "day": "Tuesday",
        "hours": "10‚ÄØAM to 8‚ÄØPM"
      },
      {
        "day": "Wednesday",
        "hours": "10‚ÄØAM to 8‚ÄØPM"
      },
      {
        "day": "Thursday",
        "hours": "10‚ÄØAM to 8‚ÄØPM"
      },
      {
        "day": "Friday",
        "hours": "10‚ÄØAM to 8‚ÄØPM"
      },
      {
        "day": "Saturday",
        "hours": "10‚ÄØAM to 8‚ÄØPM"
      },
      {
        "day": "Sunday",
        "hours": "Closed"
      }
    ],
    "imageUrl": "https://media.indianluxurycars.com/google/6ed9c9e58908da42246510f7024a0add757b7753f4c7a5b1d1223fb5cb43ade4.png",
    "url": "https://www.google.com/maps/search/?api=1&query=Tropical%20Vacations%20Odisha&query_place_id=ChIJ1ZtwMJYJGToR1QlFpvlqs6A"
  },
  {
    "title": "Utkal Hyundai Rasulgarh (Sales)",
    "subTitle": "‡¨â‡¨§‡≠ç‡¨ï‡¨≥ ‡¨π‡≠ç‡≠ü‡≠Å‡¨£‡≠ç‡¨°‡¨æ‡¨á",
    "categoryName": "Car dealer",
    "address": "Plot No 164/4, Puri Road, Square, opp. Maa Kochilei Hata, Rasulgarh, Bhubaneswar, Odisha 751010, India",
    "neighborhood": "Rasulgarh",
    "street": "Plot No 164/4, Puri Road, Square, opp. Maa Kochilei Hata",
    "city": "Bhubaneswar",
    "postalCode": "751010",
    "state": "Odisha",
    "countryCode": "IN",
    "website": "https://utkal-hyundai-rasulgarh.com/",
    "phone": "+917971266461",
    "phoneUnformatted": "+917971266461",
    "location": {
      "lat": 20.2933564,
      "lng": 85.8574422
    },
    "totalScore": 4.5,
    "permanentlyClosed": false,
    "temporarilyClosed": false,
    "placeId": "ChIJ6THbpmwKGToRMD0gyu3AoeQ",
    "categories": [
      "Car dealer",
      "Hyundai dealer"
    ],
    "reviewsCount": 1333,
    "imagesCount": 512,
    "openingHours": [
      {
        "day": "Monday",
        "hours": "9‚ÄØAM to 7‚ÄØPM"
      },
      {
        "day": "Tuesday",
        "hours": "9‚ÄØAM to 7‚ÄØPM"
      },
      {
        "day": "Wednesday",
        "hours": "9‚ÄØAM to 7‚ÄØPM"
      },
      {
        "day": "Thursday",
        "hours": "9‚ÄØAM to 7‚ÄØPM"
      },
      {
        "day": "Friday",
        "hours": "9‚ÄØAM to 7‚ÄØPM"
      },
      {
        "day": "Saturday",
        "hours": "9‚ÄØAM to 7‚ÄØPM"
      },
      {
        "day": "Sunday",
        "hours": "Closed"
      }
    ],
    "imageUrl": "https://media.indianluxurycars.com/google/a568997e6e5375a0a2689aaf49f77d63ebc660de5796c2ad02f6625ff0444d10.jpg",
    "url": "https://www.google.com/maps/search/?api=1&query=Utkal%20Hyundai%20Rasulgarh%20(Sales)&query_place_id=ChIJ6THbpmwKGToRMD0gyu3AoeQ"
  },
  {
    "title": "Wedding Car Rental",
    "categoryName": "Car leasing service",
    "address": "7R6M+8JR, 2RA-10, Lane 4, Unit 1, Bapuji Nagar, Bhubaneswar, Odisha 751009, India",
    "neighborhood": "Unit 1, Bapuji Nagar",
    "street": "7R6M+8JR, 2RA-10, Lane 4",
    "city": "Bhubaneswar",
    "postalCode": "751009",
    "state": "Odisha",
    "countryCode": "IN",
    "website": "https://www.facebook.com/devweddingcar",
    "phone": "+917008811292",
    "phoneUnformatted": "+917008811292",
    "location": {
      "lat": 20.2608125,
      "lng": 85.8340625
    },
    "totalScore": 5,
    "permanentlyClosed": false,
    "temporarilyClosed": false,
    "placeId": "ChIJJwhXZsWnGToR5yPBHTMBSb8",
    "categories": [
      "Car leasing service"
    ],
    "reviewsCount": 10,
    "imagesCount": 39,
    "openingHours": [
      {
        "day": "Monday",
        "hours": "Open 24 hours"
      },
      {
        "day": "Tuesday",
        "hours": "Open 24 hours"
      },
      {
        "day": "Wednesday",
        "hours": "Open 24 hours"
      },
      {
        "day": "Thursday",
        "hours": "Open 24 hours"
      },
      {
        "day": "Friday",
        "hours": "Open 24 hours"
      },
      {
        "day": "Saturday",
        "hours": "Open 24 hours"
      },
      {
        "day": "Sunday",
        "hours": "Open 24 hours"
      }
    ],
    "imageUrl": "https://media.indianluxurycars.com/google/c5c15dbdd7a1379c6d3bbb3c510693bbb63bebe71820806a9e2c1bfcb688e003.jpg",
    "url": "https://www.google.com/maps/search/?api=1&query=Wedding%20Car%20Rental&query_place_id=ChIJJwhXZsWnGToR5yPBHTMBSb8"
  }
]
