[
  {
    "title": "Agarwal Travels",
    "categoryName": "Car leasing service",
    "address": "9, Brakathambal St, behind Taj Coromandel, Tirumurthy Nagar, Nungambakkam, Chennai, Tamil Nadu 600034, India",
    "neighborhood": "Tirumurthy Nagar, Nungambakkam",
    "street": "9, Brakathambal St, behind Taj Coromandel",
    "city": "Chennai",
    "postalCode": "600034",
    "state": "Tamil Nadu",
    "countryCode": "IN",
    "website": "https://agarwaltravelschennai.in/",
    "phone": "+919840077650",
    "phoneUnformatted": "+919840077650",
    "location": {
      "lat": 13.0585105,
      "lng": 80.2465652
    },
    "totalScore": 4.7,
    "permanentlyClosed": false,
    "temporarilyClosed": false,
    "placeId": "ChIJybxqxeRnUjoRaAh46AlRI6A",
    "categories": [
      "Car leasing service",
      "Taxi service"
    ],
    "reviewsCount": 133,
    "imagesCount": 49,
    "openingHours": [],
    "imageUrl": "https://media.indianluxurycars.com/google/7c9c5da20052e24fa62bbabf1642e6e73780af2ce6413b150f4c25ba004caedc.png",
    "url": "https://www.google.com/maps/search/?api=1&query=Agarwal%20Travels&query_place_id=ChIJybxqxeRnUjoRaAh46AlRI6A"
  },
  {
    "title": "AVR Cars",
    "subTitle": "அவர் கார்ஸ்",
    "categoryName": "Car dealer",
    "address": "old: 93, New: 46, 1, Ponnusamy St, Royapettah, Chennai, Tamil Nadu 600014, India",
    "neighborhood": "Ganapathy Colony, Royapettah",
    "street": "old: 93, New: 46, 1, Ponnusamy St",
    "city": "Chennai",
    "postalCode": "600014",
    "state": "Tamil Nadu",
    "countryCode": "IN",
    "phone": "+919962685000",
    "phoneUnformatted": "+919962685000",
    "location": {
      "lat": 13.0521491,
      "lng": 80.2610325
    },
    "totalScore": 5,
    "permanentlyClosed": false,
    "temporarilyClosed": false,
    "placeId": "ChIJM0G-2jtmUjoRPDw3QPTQHqw",
    "categories": [
      "Car dealer"
    ],
    "reviewsCount": 1,
    "imagesCount": 1,
    "openingHours": [
      {
        "day": "Monday",
        "hours": "9:30 AM to 9 PM"
      },
      {
        "day": "Tuesday",
        "hours": "9:30 AM to 9 PM"
      },
      {
        "day": "Wednesday",
        "hours": "9:30 AM to 8:30 PM"
      },
      {
        "day": "Thursday",
        "hours": "9:30 AM to 9 PM"
      },
      {
        "day": "Friday",
        "hours": "9:30 AM to 9 PM"
      },
      {
        "day": "Saturday",
        "hours": "9:30 AM to 9 PM"
      },
      {
        "day": "Sunday",
        "hours": "9 AM to 1 PM"
      }
    ],
    "imageUrl": "https://media.indianluxurycars.com/google/bcbc9bc2dee1bcba8131ab8820b3741113ec2cae41443aa6663cf43d50c86770.jpg",
    "url": "https://www.google.com/maps/search/?api=1&query=AVR%20Cars&query_place_id=ChIJM0G-2jtmUjoRPDw3QPTQHqw"
  },
  {
    "title": "Bala Tourist Service",
    "subTitle": "பாலா டூரிஸ்ட் சர்வீஸ்",
    "categoryName": "Car rental agency",
    "address": "88, MGR Salai, Kodambakkam High Rd, Nungambakkam, Chennai, Tamil Nadu 600034, India",
    "neighborhood": "Tirumurthy Nagar, Nungambakkam",
    "street": "88, MGR Salai, Kodambakkam High Rd",
    "city": "Chennai",
    "postalCode": "600034",
    "state": "Tamil Nadu",
    "countryCode": "IN",
    "website": "http://www.bala.co.in/",
    "phone": "+914442135555",
    "phoneUnformatted": "+914442135555",
    "location": {
      "lat": 13.0529478,
      "lng": 80.2424851
    },
    "totalScore": 4.5,
    "permanentlyClosed": false,
    "temporarilyClosed": false,
    "placeId": "ChIJvzsCh11mUjoRWThfvc_MVrs",
    "categories": [
      "Car rental agency"
    ],
    "reviewsCount": 245,
    "imagesCount": 103,
    "openingHours": [
      {
        "day": "Monday",
        "hours": "Open 24 hours"
      },
      {
        "day": "Tuesday",
        "hours": "Open 24 hours"
      },
      {
        "day": "Wednesday",
        "hours": "Open 24 hours"
      },
      {
        "day": "Thursday",
        "hours": "Open 24 hours"
      },
      {
        "day": "Friday",
        "hours": "Open 24 hours"
      },
      {
        "day": "Saturday",
        "hours": "Open 24 hours"
      },
      {
        "day": "Sunday",
        "hours": "Open 24 hours"
      }
    ],
    "imageUrl": "https://media.indianluxurycars.com/google/a92a3ffa42e5d5c5b8895b8cee26ddb23aef80f7c54a36ff11959e9b8b653e22.jpg",
    "url": "https://www.google.com/maps/search/?api=1&query=Bala%20Tourist%20Service&query_place_id=ChIJvzsCh11mUjoRWThfvc_MVrs"
  },
  {
    "title": "Boom Cars",
    "categoryName": "Used car dealer",
    "address": "7, Pattullos Rd, Anna Salai, Royapettah, Chennai, Tamil Nadu 600002, India",
    "neighborhood": "Anna Salai, Royapettah",
    "street": "7, Pattullos Rd",
    "city": "Chennai",
    "postalCode": "600002",
    "state": "Tamil Nadu",
    "countryCode": "IN",
    "website": "https://boomcars.in/",
    "phone": "+919941000003",
    "phoneUnformatted": "+919941000003",
    "location": {
      "lat": 13.0610732,
      "lng": 80.2626591
    },
    "totalScore": 4.3,
    "permanentlyClosed": false,
    "temporarilyClosed": false,
    "placeId": "ChIJH2SL9P9nUjoRxkjC4fs_Gto",
    "categories": [
      "Used car dealer"
    ],
    "reviewsCount": 80,
    "imagesCount": 220,
    "openingHours": [
      {
        "day": "Monday",
        "hours": "10:30 AM to 8 PM"
      },
      {
        "day": "Tuesday",
        "hours": "10:30 AM to 8 PM"
      },
      {
        "day": "Wednesday",
        "hours": "10:30 AM to 8 PM"
      },
      {
        "day": "Thursday",
        "hours": "10:30 AM to 8 PM"
      },
      {
        "day": "Friday",
        "hours": "10:30 AM to 8 PM"
      },
      {
        "day": "Saturday",
        "hours": "10:30 AM to 8 PM"
      },
      {
        "day": "Sunday",
        "hours": "Closed"
      }
    ],
    "imageUrl": "https://media.indianluxurycars.com/google/ecf45df154d1d67eeb212bd983a720f16bff4656a18d956c6df35e3de9a8dd40.jpg",
    "url": "https://www.google.com/maps/search/?api=1&query=Boom%20Cars&query_place_id=ChIJH2SL9P9nUjoRxkjC4fs_Gto"
  },
  {
    "title": "Brits cars",
    "categoryName": "Car dealer",
    "address": "340, Sri Kumaran Complex, Paper Mills Road, Bunder Garden, Perambur, Chennai, Tamil Nadu 600011, India",
    "neighborhood": "Bunder Garden, Perambur",
    "street": "340, Sri Kumaran Complex, Paper Mills Road",
    "city": "Chennai",
    "postalCode": "600011",
    "state": "Tamil Nadu",
    "countryCode": "IN",
    "phone": "+919080509858",
    "phoneUnformatted": "+919080509858",
    "location": {
      "lat": 13.1090838,
      "lng": 80.2420247
    },
    "totalScore": 3,
    "permanentlyClosed": false,
    "temporarilyClosed": false,
    "placeId": "ChIJhbeRghdlUjoRSjiLEtJ3mKo",
    "categories": [
      "Car dealer"
    ],
    "reviewsCount": 4,
    "imagesCount": 2,
    "openingHours": [
      {
        "day": "Monday",
        "hours": "Open 24 hours"
      },
      {
        "day": "Tuesday",
        "hours": "Open 24 hours"
      },
      {
        "day": "Wednesday",
        "hours": "Open 24 hours"
      },
      {
        "day": "Thursday",
        "hours": "Open 24 hours"
      },
      {
        "day": "Friday",
        "hours": "Open 24 hours"
      },
      {
        "day": "Saturday",
        "hours": "Open 24 hours"
      },
      {
        "day": "Sunday",
        "hours": "Open 24 hours"
      }
    ],
    "imageUrl": "https://media.indianluxurycars.com/google/7d9938f56bb69fc5fedacf34690ec8b060d8595bf0471142942021d010a19e82.jpg",
    "url": "https://www.google.com/maps/search/?api=1&query=Brits%20cars&query_place_id=ChIJhbeRghdlUjoRSjiLEtJ3mKo"
  },
  {
    "title": "CAR GAALERY",
    "subTitle": "கார் காலெரி",
    "categoryName": "Used car dealer",
    "address": "Sho no.G4, No.116, P.H Road,, Sastri Nagar, Egmore, Opposite to hotel Abu Sarovar Portico, next to SBI bank, Chennai, Tamil Nadu 600084, India",
    "neighborhood": "Egmore",
    "street": "Sho no.G4, No.116, P.H Road,, Sastri Nagar, Egmore, Opposite to hotel Abu Sarovar Portico, next to SBI bank",
    "city": "Chennai",
    "postalCode": "600084",
    "state": "Tamil Nadu",
    "countryCode": "IN",
    "phone": "+914428365500",
    "phoneUnformatted": "+914428365500",
    "location": {
      "lat": 13.0785769,
      "lng": 80.2521781
    },
    "totalScore": 4.7,
    "permanentlyClosed": false,
    "temporarilyClosed": false,
    "placeId": "ChIJmZ_cAXVmUjoRm0rNQWtfP6A",
    "categories": [
      "Used car dealer"
    ],
    "reviewsCount": 21,
    "imagesCount": 40,
    "openingHours": [
      {
        "day": "Monday",
        "hours": "10 AM to 7:30 PM"
      },
      {
        "day": "Tuesday",
        "hours": "10 AM to 7:30 PM"
      },
      {
        "day": "Wednesday",
        "hours": "10 AM to 7:30 PM"
      },
      {
        "day": "Thursday",
        "hours": "10 AM to 7:30 PM"
      },
      {
        "day": "Friday",
        "hours": "10 AM to 7:30 PM"
      },
      {
        "day": "Saturday",
        "hours": "10 AM to 7:30 PM"
      },
      {
        "day": "Sunday",
        "hours": "10 AM to 3 PM"
      }
    ],
    "imageUrl": "https://media.indianluxurycars.com/google/36d15b77720e6bb1340260f27362e7b04e4403fac20f51066d39da0b767956ba.jpg",
    "url": "https://www.google.com/maps/search/?api=1&query=CAR%20GAALERY&query_place_id=ChIJmZ_cAXVmUjoRm0rNQWtfP6A"
  },
  {
    "title": "Car Rental|Luxury Car Rental",
    "subTitle": "கார் ரெண்டல்|லுக்சுரி கார் ரெண்டல்",
    "categoryName": "Car rental agency",
    "address": "No:5/2, E Spur Tank Rd, Mukta Gardens, Chetpet, Chennai, Tamil Nadu 600031, India",
    "neighborhood": "Mukta Gardens, Chetpet",
    "street": "No:5/2, E Spur Tank Rd",
    "city": "Chennai",
    "postalCode": "600031",
    "state": "Tamil Nadu",
    "countryCode": "IN",
    "location": {
      "lat": 13.0735753,
      "lng": 80.2526502
    },
    "totalScore": 4.8,
    "permanentlyClosed": false,
    "temporarilyClosed": false,
    "placeId": "ChIJlxBnXXhnUjoRGo8Sbf-araU",
    "categories": [
      "Car rental agency",
      "Car dealer",
      "Car leasing service",
      "Chauffeur service",
      "Race car dealer",
      "Travel agency",
      "Wedding planner",
      "Wedding service"
    ],
    "reviewsCount": 23,
    "imagesCount": 3,
    "openingHours": [
      {
        "day": "Monday",
        "hours": "Open 24 hours"
      },
      {
        "day": "Tuesday",
        "hours": "Open 24 hours"
      },
      {
        "day": "Wednesday",
        "hours": "Open 24 hours"
      },
      {
        "day": "Thursday",
        "hours": "Open 24 hours"
      },
      {
        "day": "Friday",
        "hours": "Open 24 hours"
      },
      {
        "day": "Saturday",
        "hours": "Open 24 hours"
      },
      {
        "day": "Sunday",
        "hours": "Open 24 hours"
      }
    ],
    "imageUrl": "https://media.indianluxurycars.com/google/65474353142aba056e67503f7e2b7a9f7ee5cc383fc2d0702a1e47802e04da5e.jpg",
    "url": "https://www.google.com/maps/search/?api=1&query=Car%20Rental%7CLuxury%20Car%20Rental&query_place_id=ChIJlxBnXXhnUjoRGo8Sbf-araU"
  },
  {
    "title": "Carriage Care",
    "categoryName": "Car wash",
    "address": "148, Brick Kiln Rd, TNHB Colony, Purasaiwakkam, Chennai, Tamil Nadu 600012, India",
    "neighborhood": "TNHB Colony, Purasaiwakkam",
    "street": "148, Brick Kiln Rd",
    "city": "Chennai",
    "postalCode": "600012",
    "state": "Tamil Nadu",
    "countryCode": "IN",
    "website": "https://carriagecare.in/",
    "phone": "+917550001056",
    "phoneUnformatted": "+917550001056",
    "location": {
      "lat": 13.0946425,
      "lng": 80.2509598
    },
    "totalScore": 4.6,
    "permanentlyClosed": false,
    "temporarilyClosed": false,
    "placeId": "ChIJbdEOyzllUjoRJZeJpntWjI4",
    "categories": [
      "Car wash",
      "Auto painting",
      "Auto repair shop",
      "Car detailing service",
      "Window tinting service"
    ],
    "reviewsCount": 112,
    "imagesCount": 147,
    "openingHours": [
      {
        "day": "Monday",
        "hours": "9 AM to 10:30 PM"
      },
      {
        "day": "Tuesday",
        "hours": "9 AM to 10 PM"
      },
      {
        "day": "Wednesday",
        "hours": "9 AM to 10 PM"
      },
      {
        "day": "Thursday",
        "hours": "9 AM to 10 PM"
      },
      {
        "day": "Friday",
        "hours": "9 AM to 10 PM"
      },
      {
        "day": "Saturday",
        "hours": "9 AM to 10 PM"
      },
      {
        "day": "Sunday",
        "hours": "9 AM to 10 PM"
      }
    ],
    "imageUrl": "https://media.indianluxurycars.com/google/7b6bcc038f63de567a03131ac90923d24a9ebfb43dad3b68f515b1299fd8bad4.jpg",
    "url": "https://www.google.com/maps/search/?api=1&query=Carriage%20Care&query_place_id=ChIJbdEOyzllUjoRJZeJpntWjI4"
  },
  {
    "title": "Cars Bucks",
    "categoryName": "Car rental agency",
    "address": "22, Baba Nagar, Venkatesapuram Colony, Kolathur, Chennai, Tamil Nadu 600023, India",
    "neighborhood": "Baba Nagar, Venkatesapuram Colony, Kolathur",
    "street": "22",
    "city": "Chennai",
    "postalCode": "600023",
    "state": "Tamil Nadu",
    "countryCode": "IN",
    "website": "http://www.carsbucks.in/",
    "phone": "+919710887348",
    "phoneUnformatted": "+919710887348",
    "location": {
      "lat": 13.0966959,
      "lng": 80.2401019
    },
    "totalScore": 5,
    "permanentlyClosed": false,
    "temporarilyClosed": false,
    "placeId": "ChIJq6qqOmVkUjoRh8W3XbmamM0",
    "categories": [
      "Car rental agency",
      "Bus charter",
      "Bus tour agency",
      "Car leasing service"
    ],
    "reviewsCount": 14,
    "imagesCount": 38,
    "openingHours": [
      {
        "day": "Monday",
        "hours": "8 AM to 10 PM"
      },
      {
        "day": "Tuesday",
        "hours": "8 AM to 10 PM"
      },
      {
        "day": "Wednesday",
        "hours": "8 AM to 10 PM"
      },
      {
        "day": "Thursday",
        "hours": "8 AM to 10 PM"
      },
      {
        "day": "Friday",
        "hours": "8 AM to 10 PM"
      },
      {
        "day": "Saturday",
        "hours": "8 AM to 10 PM"
      },
      {
        "day": "Sunday",
        "hours": "8 AM to 10 PM"
      }
    ],
    "imageUrl": "https://media.indianluxurycars.com/google/19b2a628deb194559fac6705aaf437d40f692eef715c9dd790a98936b36a732e.jpg",
    "url": "https://www.google.com/maps/search/?api=1&query=Cars%20Bucks&query_place_id=ChIJq6qqOmVkUjoRh8W3XbmamM0"
  },
  {
    "title": "Carzpro",
    "subTitle": "கார்ஸ்ப்ரோ",
    "categoryName": "Car wash",
    "address": "14, Whannels Rd, Egmore, Chennai, Tamil Nadu 600008, India",
    "neighborhood": "Egmore",
    "street": "14, Whannels Rd",
    "city": "Chennai",
    "postalCode": "600008",
    "state": "Tamil Nadu",
    "countryCode": "IN",
    "website": "https://carzprocarwash.lyzoo.co.in/",
    "phone": "+919176177771",
    "phoneUnformatted": "+919176177771",
    "location": {
      "lat": 13.077765,
      "lng": 80.2635296
    },
    "totalScore": 4.9,
    "permanentlyClosed": false,
    "temporarilyClosed": false,
    "placeId": "ChIJ--wPzrxnUjoRmGw93YcHc4g",
    "categories": [
      "Car wash",
      "Auto restoration service",
      "Car dealer"
    ],
    "reviewsCount": 304,
    "imagesCount": 77,
    "openingHours": [
      {
        "day": "Monday",
        "hours": "9 AM to 5 PM"
      },
      {
        "day": "Tuesday",
        "hours": "9 AM to 8 PM"
      },
      {
        "day": "Wednesday",
        "hours": "9 AM to 8 PM"
      },
      {
        "day": "Thursday",
        "hours": "9 AM to 5 PM"
      },
      {
        "day": "Friday",
        "hours": "6 AM to 7 PM"
      },
      {
        "day": "Saturday",
        "hours": "9:30 AM to 8 PM"
      },
      {
        "day": "Sunday",
        "hours": "9 AM to 5 PM"
      }
    ],
    "imageUrl": "https://media.indianluxurycars.com/google/bcc9b77e7651786fc6d535d7a3293d1665f8fde7a6693d57c0977ec3eaa18bc7.jpg",
    "url": "https://www.google.com/maps/search/?api=1&query=Carzpro&query_place_id=ChIJ--wPzrxnUjoRmGw93YcHc4g"
  },
  {
    "title": "CETUS Automotives",
    "categoryName": "Car accessories store",
    "address": "Old No. 43, 34, Vaidyanathan St, opp. to Valluvar Kottam, Tirumurthy Nagar, Nungambakkam, Chennai, Tamil Nadu 600034, India",
    "neighborhood": "Tirumurthy Nagar, Nungambakkam",
    "street": "Old No. 43, 34, Vaidyanathan St, opp. to Valluvar Kottam",
    "city": "Chennai",
    "postalCode": "600034",
    "state": "Tamil Nadu",
    "countryCode": "IN",
    "website": "http://cetusautomotives.com/",
    "phone": "+918148758138",
    "phoneUnformatted": "+918148758138",
    "location": {
      "lat": 13.0546165,
      "lng": 80.2438572
    },
    "totalScore": 5,
    "permanentlyClosed": false,
    "temporarilyClosed": false,
    "placeId": "ChIJQZw3y49nUjoRROMgKHtYTcc",
    "categories": [
      "Car accessories store"
    ],
    "reviewsCount": 192,
    "imagesCount": 234,
    "openingHours": [
      {
        "day": "Monday",
        "hours": "11 AM to 7:30 PM"
      },
      {
        "day": "Tuesday",
        "hours": "11 AM to 7:30 PM"
      },
      {
        "day": "Wednesday",
        "hours": "11 AM to 7:30 PM"
      },
      {
        "day": "Thursday",
        "hours": "11 AM to 7:30 PM"
      },
      {
        "day": "Friday",
        "hours": "11 AM to 7:30 PM"
      },
      {
        "day": "Saturday",
        "hours": "11 AM to 7:30 PM"
      },
      {
        "day": "Sunday",
        "hours": "11 AM to 3 PM"
      }
    ],
    "imageUrl": "https://media.indianluxurycars.com/google/a8b580d31b7140d335f87a443ae84fcda9ca27e432810e4db780c43e4b854991.jpg",
    "url": "https://www.google.com/maps/search/?api=1&query=CETUS%20Automotives&query_place_id=ChIJQZw3y49nUjoRROMgKHtYTcc"
  },
  {
    "title": "Chennai Used Cars",
    "categoryName": "Used car dealer",
    "address": "No 6 Second Beach Lane, Parrys Corner, Parrys, Chennai, 600104, India",
    "neighborhood": "Parrys, George Town",
    "street": "No 6 Second Beach Lane, Parrys Corner",
    "city": "Chennai",
    "postalCode": "600104",
    "state": "Tamil Nadu",
    "countryCode": "IN",
    "location": {
      "lat": 13.0870924,
      "lng": 80.2875634
    },
    "permanentlyClosed": false,
    "temporarilyClosed": false,
    "placeId": "ChIJo_9QC1JvUjoRdir2LmOihjc",
    "categories": [
      "Used car dealer"
    ],
    "openingHours": [],
    "url": "https://www.google.com/maps/search/?api=1&query=Chennai%20Used%20Cars&query_place_id=ChIJo_9QC1JvUjoRdir2LmOihjc"
  },
  {
    "title": "Colourful Self Drive Cars",
    "categoryName": "Car leasing service",
    "address": "86/202, Solaiappan St, Sanjeevarayanpet, Washermanpet, Chennai, Tamil Nadu 600021, India",
    "neighborhood": "Sanjeevarayanpet, Washermanpet",
    "street": "86/202, Solaiappan St",
    "city": "Chennai",
    "postalCode": "600021",
    "state": "Tamil Nadu",
    "countryCode": "IN",
    "website": "https://colourfulcars.com/",
    "phone": "+919500000743",
    "phoneUnformatted": "+919500000743",
    "location": {
      "lat": 13.1188033,
      "lng": 80.2872326
    },
    "totalScore": 4.6,
    "permanentlyClosed": false,
    "temporarilyClosed": false,
    "placeId": "ChIJz0zWEdNvUjoRZRGklAZb03U",
    "categories": [
      "Car leasing service"
    ],
    "reviewsCount": 144,
    "imagesCount": 41,
    "openingHours": [
      {
        "day": "Monday",
        "hours": "Open 24 hours"
      },
      {
        "day": "Tuesday",
        "hours": "Open 24 hours"
      },
      {
        "day": "Wednesday",
        "hours": "Open 24 hours"
      },
      {
        "day": "Thursday",
        "hours": "Open 24 hours"
      },
      {
        "day": "Friday",
        "hours": "Open 24 hours"
      },
      {
        "day": "Saturday",
        "hours": "Open 24 hours"
      },
      {
        "day": "Sunday",
        "hours": "Open 24 hours"
      }
    ],
    "imageUrl": "https://media.indianluxurycars.com/google/e50a181dd0f138336b01bd1b685097d6492298da207491fb4c8145944fc7fa93.jpg",
    "url": "https://www.google.com/maps/search/?api=1&query=Colourful%20Self%20Drive%20Cars&query_place_id=ChIJz0zWEdNvUjoRZRGklAZb03U"
  },
  {
    "title": "DG Luxury Premium Cars",
    "categoryName": "Used car dealer",
    "address": "NO:576, Anna Salai, Teynampet, Thiru Vi Ka Kudiyiruppu, Teynampet, Chennai, Tamil Nadu 600006, India",
    "neighborhood": "Teynampet, Thiru Vi Ka Kudiyiruppu, Teynampet",
    "street": "NO:576, Anna Salai",
    "city": "Chennai",
    "postalCode": "600006",
    "state": "Tamil Nadu",
    "countryCode": "IN",
    "website": "https://dgluxurycars.com/",
    "phone": "+917550045550",
    "phoneUnformatted": "+917550045550",
    "location": {
      "lat": 13.0493205,
      "lng": 80.2496388
    },
    "totalScore": 4.2,
    "permanentlyClosed": false,
    "temporarilyClosed": false,
    "placeId": "ChIJH2EHcQhnUjoRKBB5jptR4mA",
    "categories": [
      "Used car dealer"
    ],
    "reviewsCount": 69,
    "imagesCount": 78,
    "openingHours": [
      {
        "day": "Monday",
        "hours": "10 AM to 8 PM"
      },
      {
        "day": "Tuesday",
        "hours": "10 AM to 8 PM"
      },
      {
        "day": "Wednesday",
        "hours": "10 AM to 8 PM"
      },
      {
        "day": "Thursday",
        "hours": "10 AM to 8 PM"
      },
      {
        "day": "Friday",
        "hours": "10 AM to 8 PM"
      },
      {
        "day": "Saturday",
        "hours": "10 AM to 8 PM"
      },
      {
        "day": "Sunday",
        "hours": "10 AM to 8 PM"
      }
    ],
    "imageUrl": "https://media.indianluxurycars.com/google/6eab8efab63ddcf206b53e20c92ce7125d0a7ac694b0703ba15adb7db91fcba2.jpg",
    "url": "https://www.google.com/maps/search/?api=1&query=DG%20Luxury%20Premium%20Cars&query_place_id=ChIJH2EHcQhnUjoRKBB5jptR4mA"
  },
  {
    "title": "Elite Cars",
    "categoryName": "Used car dealer",
    "address": "37 b, Kumarappa St, Tirumurthy Nagar, Nungambakkam, Chennai, Tamil Nadu 600034, India",
    "neighborhood": "Tirumurthy Nagar, Nungambakkam",
    "street": "37 b, Kumarappa St",
    "city": "Chennai",
    "postalCode": "600034",
    "state": "Tamil Nadu",
    "countryCode": "IN",
    "phone": "+917200123355",
    "phoneUnformatted": "+917200123355",
    "location": {
      "lat": 13.0579502,
      "lng": 80.2445417
    },
    "totalScore": 2.6,
    "permanentlyClosed": false,
    "temporarilyClosed": false,
    "placeId": "ChIJzThsG15mUjoRPhgLrMiZScs",
    "categories": [
      "Used car dealer",
      "Exporter"
    ],
    "reviewsCount": 9,
    "imagesCount": 4,
    "openingHours": [
      {
        "day": "Monday",
        "hours": "10 AM to 7 PM"
      },
      {
        "day": "Tuesday",
        "hours": "10 AM to 7 PM"
      },
      {
        "day": "Wednesday",
        "hours": "10 AM to 7 PM"
      },
      {
        "day": "Thursday",
        "hours": "10 AM to 7 PM"
      },
      {
        "day": "Friday",
        "hours": "10 AM to 7 PM"
      },
      {
        "day": "Saturday",
        "hours": "10 AM to 7 PM"
      },
      {
        "day": "Sunday",
        "hours": "10 AM to 1:30 PM"
      }
    ],
    "imageUrl": "https://media.indianluxurycars.com/google/7c70de2d6824e85a2e15321308cafd742cfe22336cc450167e2f9ab14954fba7.jpg",
    "url": "https://www.google.com/maps/search/?api=1&query=Elite%20Cars&query_place_id=ChIJzThsG15mUjoRPhgLrMiZScs"
  },
  {
    "title": "Evershine Luxury Car Rentals",
    "categoryName": "Car rental agency",
    "address": "Dno; 128, Mubarak Plaza, Angappa Naicken St, near Canara Bank, Parrys, George Town, Chennai, Tamil Nadu 600001, India",
    "neighborhood": "Parrys, George Town",
    "street": "Dno; 128, Mubarak Plaza, Angappa Naicken St, near Canara Bank",
    "city": "Chennai",
    "postalCode": "600001",
    "state": "Tamil Nadu",
    "countryCode": "IN",
    "location": {
      "lat": 13.0899677,
      "lng": 80.2895303
    },
    "permanentlyClosed": false,
    "temporarilyClosed": false,
    "placeId": "ChIJzcR0ak5vUjoRto4Mspja2CU",
    "categories": [
      "Car rental agency"
    ],
    "imagesCount": 1,
    "openingHours": [],
    "imageUrl": "https://media.indianluxurycars.com/google/8f8403b9bef3ab475cdcd0ca35a727256f18f6d10966c08d3fb672ac74e9b931.jpg",
    "url": "https://www.google.com/maps/search/?api=1&query=Evershine%20Luxury%20Car%20Rentals&query_place_id=ChIJzcR0ak5vUjoRto4Mspja2CU"
  },
  {
    "title": "Express Travel Corporate Services Pvt Ltd",
    "categoryName": "Car rental agency",
    "address": "No.21, New, Old 12, New Tank Street, Nungambakkam, Chennai, Tamil Nadu 600034, India",
    "neighborhood": "Tirumurthy Nagar, Nungambakkam",
    "street": "No.21, New, Old 12, New Tank Street",
    "city": "Chennai",
    "postalCode": "600034",
    "state": "Tamil Nadu",
    "countryCode": "IN",
    "website": "http://etconline.in/",
    "phone": "+919791111275",
    "phoneUnformatted": "+919791111275",
    "location": {
      "lat": 13.0533228,
      "lng": 80.2440168
    },
    "totalScore": 4.5,
    "permanentlyClosed": false,
    "temporarilyClosed": false,
    "placeId": "ChIJmXEw1UJmUjoRHDW1Ci-hkQg",
    "categories": [
      "Car rental agency",
      "Car leasing service",
      "Sightseeing tour agency",
      "Tour agency",
      "Tour operator",
      "Travel agency"
    ],
    "reviewsCount": 116,
    "imagesCount": 89,
    "openingHours": [
      {
        "day": "Monday",
        "hours": "Open 24 hours"
      },
      {
        "day": "Tuesday",
        "hours": "Open 24 hours"
      },
      {
        "day": "Wednesday",
        "hours": "Open 24 hours"
      },
      {
        "day": "Thursday",
        "hours": "Open 24 hours"
      },
      {
        "day": "Friday",
        "hours": "Open 24 hours"
      },
      {
        "day": "Saturday",
        "hours": "Open 24 hours"
      },
      {
        "day": "Sunday",
        "hours": "Open 24 hours"
      }
    ],
    "imageUrl": "https://media.indianluxurycars.com/google/b11d4d7f50e9051eeffd6f0b65b4c0ab9cb2c7eed4230911fd99f9e5af61ea15.jpg",
    "url": "https://www.google.com/maps/search/?api=1&query=Express%20Travel%20Corporate%20Services%20Pvt%20Ltd&query_place_id=ChIJmXEw1UJmUjoRHDW1Ci-hkQg"
  },
  {
    "title": "Fida Carz",
    "subTitle": "பிடா கார்ஸ்",
    "categoryName": "Car rental agency",
    "address": "51, Raja Muthiah Rd, Periamet, Park Town, Chennai, Tamil Nadu 600003, India",
    "neighborhood": "Periamet, Park Town",
    "street": "51, Raja Muthiah Rd",
    "city": "Chennai",
    "postalCode": "600003",
    "state": "Tamil Nadu",
    "countryCode": "IN",
    "phone": "+919003271724",
    "phoneUnformatted": "+919003271724",
    "location": {
      "lat": 13.0831151,
      "lng": 80.2703873
    },
    "totalScore": 5,
    "permanentlyClosed": false,
    "temporarilyClosed": false,
    "placeId": "ChIJD2Vs7_1lUjoRzLIlpFnI2y8",
    "categories": [
      "Car rental agency",
      "Auto repair shop"
    ],
    "reviewsCount": 6,
    "imagesCount": 8,
    "openingHours": [
      {
        "day": "Monday",
        "hours": "Open 24 hours"
      },
      {
        "day": "Tuesday",
        "hours": "Open 24 hours"
      },
      {
        "day": "Wednesday",
        "hours": "Open 24 hours"
      },
      {
        "day": "Thursday",
        "hours": "Open 24 hours"
      },
      {
        "day": "Friday",
        "hours": "Open 24 hours"
      },
      {
        "day": "Saturday",
        "hours": "Open 24 hours"
      },
      {
        "day": "Sunday",
        "hours": "Open 24 hours"
      }
    ],
    "imageUrl": "https://media.indianluxurycars.com/google/0c99db829476f04440136e63ad8c2de4ce31f842d1278dc8da31da79806cbb64.jpg",
    "url": "https://www.google.com/maps/search/?api=1&query=Fida%20Carz&query_place_id=ChIJD2Vs7_1lUjoRzLIlpFnI2y8"
  },
  {
    "title": "Fly self driven cars",
    "categoryName": "Car rental agency",
    "address": "Spencer Plaza Mall, F 96, Phase 2, 1st floor, Anna Salai, Chennai, Tamil Nadu 600002, India",
    "neighborhood": "Anna Salai",
    "street": "Spencer Plaza Mall, F 96, Phase 2, 1st floor",
    "city": "Chennai",
    "postalCode": "600002",
    "state": "Tamil Nadu",
    "countryCode": "IN",
    "website": "http://flyselfdrive.com/",
    "phone": "+919331429331",
    "phoneUnformatted": "+919331429331",
    "location": {
      "lat": 13.0613,
      "lng": 80.2611
    },
    "totalScore": 4.7,
    "permanentlyClosed": false,
    "temporarilyClosed": false,
    "placeId": "ChIJf5VzLzBnUjoRHIeu4Eyii-A",
    "categories": [
      "Car rental agency",
      "Car leasing service",
      "Guest house",
      "Serviced apartment"
    ],
    "reviewsCount": 215,
    "imagesCount": 35,
    "openingHours": [],
    "imageUrl": "https://media.indianluxurycars.com/google/023d84570805296ca1917676d2768b2f49c2f83227fdb992687932c420258bbb.png",
    "url": "https://www.google.com/maps/search/?api=1&query=Fly%20self%20driven%20cars&query_place_id=ChIJf5VzLzBnUjoRHIeu4Eyii-A"
  },
  {
    "title": "Formula Motors",
    "subTitle": "ஃபார்முலா மோட்டார்ஸ்",
    "categoryName": "Used car dealer",
    "address": "Car House, NO: 133, V P RAMAN ROAD, Krishnapuram, Royapettah, Chennai, Tamil Nadu 600014, India",
    "neighborhood": "Krishnapuram, Royapettah",
    "street": "Car House, NO: 133, V P RAMAN ROAD",
    "city": "Chennai",
    "postalCode": "600014",
    "state": "Tamil Nadu",
    "countryCode": "IN",
    "website": "https://formulamotors.in/",
    "phone": "+919566206229",
    "phoneUnformatted": "+919566206229",
    "location": {
      "lat": 13.0477167,
      "lng": 80.2660585
    },
    "totalScore": 4.6,
    "permanentlyClosed": false,
    "temporarilyClosed": false,
    "placeId": "ChIJhTt1n0lnUjoRM1ZCf4f4U68",
    "categories": [
      "Used car dealer",
      "Auto insurance agency"
    ],
    "reviewsCount": 44,
    "imagesCount": 44,
    "openingHours": [
      {
        "day": "Monday",
        "hours": "9:30 AM to 6:30 PM"
      },
      {
        "day": "Tuesday",
        "hours": "9:30 AM to 6:30 PM"
      },
      {
        "day": "Wednesday",
        "hours": "9:30 AM to 6:30 PM"
      },
      {
        "day": "Thursday",
        "hours": "9:30 AM to 6:30 PM"
      },
      {
        "day": "Friday",
        "hours": "9:30 AM to 6:30 PM"
      },
      {
        "day": "Saturday",
        "hours": "10 AM to 6 PM"
      },
      {
        "day": "Sunday",
        "hours": "Closed"
      }
    ],
    "imageUrl": "https://media.indianluxurycars.com/google/8de1b6d1522718e967694c35638756c7ebdef39a8cbeece124029172670a2da3.jpg",
    "url": "https://www.google.com/maps/search/?api=1&query=Formula%20Motors&query_place_id=ChIJhTt1n0lnUjoRM1ZCf4f4U68"
  },
  {
    "title": "GJG FLEET",
    "categoryName": "Car rental agency",
    "address": "No 2/16, 6th lane, East, Mada Kovil street, Pudumanaikuppam, Royapuram, Chennai, Tamil Nadu 600013, India",
    "neighborhood": "Panaimarathotti, Pudumanaikuppam, Royapuram",
    "street": "No 2/16, 6th lane, East, Mada Kovil street",
    "city": "Chennai",
    "postalCode": "600013",
    "state": "Tamil Nadu",
    "countryCode": "IN",
    "phone": "+917092226644",
    "phoneUnformatted": "+917092226644",
    "location": {
      "lat": 13.1113604,
      "lng": 80.2973292
    },
    "permanentlyClosed": false,
    "temporarilyClosed": false,
    "placeId": "ChIJj8KYDVpvUjoRNhTINv4rwKI",
    "categories": [
      "Car rental agency"
    ],
    "imagesCount": 8,
    "openingHours": [
      {
        "day": "Monday",
        "hours": "Open 24 hours"
      },
      {
        "day": "Tuesday",
        "hours": "Open 24 hours"
      },
      {
        "day": "Wednesday",
        "hours": "Open 24 hours"
      },
      {
        "day": "Thursday",
        "hours": "Open 24 hours"
      },
      {
        "day": "Friday",
        "hours": "Open 24 hours"
      },
      {
        "day": "Saturday",
        "hours": "Open 24 hours"
      },
      {
        "day": "Sunday",
        "hours": "Open 24 hours"
      }
    ],
    "imageUrl": "https://media.indianluxurycars.com/google/a23296c02ca0b8da7c21d1c2e5471da3e894b60ae487d4e3e431c3271dbc6d10.png",
    "url": "https://www.google.com/maps/search/?api=1&query=GJG%20FLEET&query_place_id=ChIJj8KYDVpvUjoRNhTINv4rwKI"
  },
  {
    "title": "Hot wheels Madras",
    "categoryName": "Used car dealer",
    "address": "22, Moore St, Parry's Corner, George Town, Chennai, Tamil Nadu 600001, India",
    "neighborhood": "Parry's Corner, George Town",
    "street": "22, Moore St",
    "city": "Chennai",
    "postalCode": "600001",
    "state": "Tamil Nadu",
    "countryCode": "IN",
    "location": {
      "lat": 13.0944821,
      "lng": 80.2908899
    },
    "totalScore": 3.7,
    "permanentlyClosed": false,
    "temporarilyClosed": false,
    "placeId": "ChIJiW4RMQBvUjoRXnTXxw1htoE",
    "categories": [
      "Used car dealer"
    ],
    "reviewsCount": 3,
    "imagesCount": 3,
    "openingHours": [],
    "imageUrl": "https://media.indianluxurycars.com/google/15b305b4f09aa0075e4bc68efd1040a580f611700a299f9437491dcd1dc1cc73.jpg",
    "url": "https://www.google.com/maps/search/?api=1&query=Hot%20wheels%20Madras&query_place_id=ChIJiW4RMQBvUjoRXnTXxw1htoE"
  },
  {
    "title": "IRONZA CARS RENTAL/TRAVELS",
    "categoryName": "Car rental agency",
    "address": "noor hotel, 9/21, ananda vinayagar koil main street, Vasantha nagar, Chinna Chembarambakkam, Ayanavaram, Chennai, Tamil Nadu 600023, India",
    "neighborhood": "Vasantha nagar, Chinna Chembarambakkam, Ayanavaram",
    "street": "noor hotel, 9/21, ananda vinayagar koil main street",
    "city": "Chennai",
    "postalCode": "600023",
    "state": "Tamil Nadu",
    "countryCode": "IN",
    "website": "https://ironzacar.netlify.app/",
    "phone": "+919150424059",
    "phoneUnformatted": "+919150424059",
    "location": {
      "lat": 13.0989901,
      "lng": 80.2356577
    },
    "totalScore": 5,
    "permanentlyClosed": false,
    "temporarilyClosed": false,
    "placeId": "ChIJ3fVRNzxlUjoRR_LCpzqdq70",
    "categories": [
      "Car rental agency"
    ],
    "reviewsCount": 168,
    "imagesCount": 19,
    "openingHours": [
      {
        "day": "Monday",
        "hours": "Open 24 hours"
      },
      {
        "day": "Tuesday",
        "hours": "Open 24 hours"
      },
      {
        "day": "Wednesday",
        "hours": "Open 24 hours"
      },
      {
        "day": "Thursday",
        "hours": "Open 24 hours"
      },
      {
        "day": "Friday",
        "hours": "Open 24 hours"
      },
      {
        "day": "Saturday",
        "hours": "Open 24 hours"
      },
      {
        "day": "Sunday",
        "hours": "Open 24 hours"
      }
    ],
    "imageUrl": "https://media.indianluxurycars.com/google/75291612e2ed595a5afc6e62f301c42599703ff95903390e28d00998cc14e425.jpg",
    "url": "https://www.google.com/maps/search/?api=1&query=IRONZA%20CARS%20RENTAL%2FTRAVELS&query_place_id=ChIJ3fVRNzxlUjoRR_LCpzqdq70"
  },
  {
    "title": "Jaguar VST Grandeur",
    "subTitle": "ஜாகுவார் விஎஸ்டி கிரான்டியூர்",
    "categoryName": "Jaguar dealer",
    "address": "VST Emerald Tower, Jaguar Landrover Showroom, New, 237, Anna Salai, Thousand Lights, Chennai, Tamil Nadu 600006, India",
    "neighborhood": "Express Estate, Thousand Lights",
    "street": "VST Emerald Tower, Jaguar Landrover Showroom, New, 237, Anna Salai",
    "city": "Chennai",
    "postalCode": "600006",
    "state": "Tamil Nadu",
    "countryCode": "IN",
    "website": "https://retailers.jaguar.in/vstgrandeur-chennai",
    "phone": "+919600053000",
    "phoneUnformatted": "+919600053000",
    "location": {
      "lat": 13.0585126,
      "lng": 80.2590999
    },
    "totalScore": 4.5,
    "permanentlyClosed": false,
    "temporarilyClosed": false,
    "placeId": "ChIJBzb-dhNmUjoR1jOAbJolJDU",
    "categories": [
      "Jaguar dealer",
      "Car dealer",
      "Race car dealer",
      "Used car dealer"
    ],
    "reviewsCount": 341,
    "imagesCount": 246,
    "openingHours": [
      {
        "day": "Monday",
        "hours": "9 AM to 6 PM"
      },
      {
        "day": "Tuesday",
        "hours": "9 AM to 6 PM"
      },
      {
        "day": "Wednesday",
        "hours": "9 AM to 6 PM"
      },
      {
        "day": "Thursday",
        "hours": "9 AM to 6 PM"
      },
      {
        "day": "Friday",
        "hours": "9 AM to 6 PM"
      },
      {
        "day": "Saturday",
        "hours": "9 AM to 6 PM"
      },
      {
        "day": "Sunday",
        "hours": "9 AM to 6 PM"
      }
    ],
    "imageUrl": "https://media.indianluxurycars.com/google/0ed506014e3ed17595d7b254b239ae71921bddda02a56ea842e0cccfe5c5090c.jpg",
    "url": "https://www.google.com/maps/search/?api=1&query=Jaguar%20VST%20Grandeur&query_place_id=ChIJBzb-dhNmUjoR1jOAbJolJDU"
  },
  {
    "title": "Jee Luxury",
    "categoryName": "Car dealer",
    "address": "Whites Rd, Indira Garden, Royapettah, Chennai, Tamil Nadu 600014, India",
    "neighborhood": "Indira Garden, Royapettah",
    "street": "Whites Rd",
    "city": "Chennai",
    "postalCode": "600014",
    "state": "Tamil Nadu",
    "countryCode": "IN",
    "phone": "+919150777777",
    "phoneUnformatted": "+919150777777",
    "location": {
      "lat": 13.0576655,
      "lng": 80.2631947
    },
    "permanentlyClosed": false,
    "temporarilyClosed": true,
    "placeId": "ChIJe1IhP_RnUjoR9XNPh0QYFsY",
    "categories": [
      "Car dealer"
    ],
    "imagesCount": 1,
    "openingHours": [],
    "imageUrl": "https://media.indianluxurycars.com/google/1dab0a5ee34baa9019e09fd348c5e4ef27b368cbab46ed9e66ec32c2809c53e4.jpg",
    "url": "https://www.google.com/maps/search/?api=1&query=Jee%20Luxury&query_place_id=ChIJe1IhP_RnUjoR9XNPh0QYFsY"
  },
  {
    "title": "KE MOTORS - Used & Second Hand Car Dealer in Chennai",
    "categoryName": "Used car dealer",
    "address": "61/1, MPM STREET, Kakkanji Colony, PERAMBUR, Vyasarpadi, Chennai, Tamil Nadu 600011, India",
    "neighborhood": "Kakkanji Colony, PERAMBUR, Vyasarpadi",
    "street": "61/1, MPM STREET",
    "city": "Chennai",
    "postalCode": "600011",
    "state": "Tamil Nadu",
    "countryCode": "IN",
    "website": "https://kemotors.in/",
    "phone": "+919500064654",
    "phoneUnformatted": "+919500064654",
    "location": {
      "lat": 13.1152465,
      "lng": 80.2478672
    },
    "totalScore": 5,
    "permanentlyClosed": false,
    "temporarilyClosed": false,
    "placeId": "ChIJqXV4xrtlUjoRNLK4d2Yz4Qs",
    "categories": [
      "Used car dealer"
    ],
    "reviewsCount": 26,
    "imagesCount": 23,
    "openingHours": [
      {
        "day": "Monday",
        "hours": "9 AM to 10 PM"
      },
      {
        "day": "Tuesday",
        "hours": "9 AM to 10 PM"
      },
      {
        "day": "Wednesday",
        "hours": "9 AM to 10 PM"
      },
      {
        "day": "Thursday",
        "hours": "9 AM to 10 PM"
      },
      {
        "day": "Friday",
        "hours": "9 AM to 10 PM"
      },
      {
        "day": "Saturday",
        "hours": "9 AM to 10 PM"
      },
      {
        "day": "Sunday",
        "hours": "9 AM to 10 PM"
      }
    ],
    "imageUrl": "https://media.indianluxurycars.com/google/8dfcc73804524494321531f90a51816dcf2910ec965faf774459d1b567cd2eda.jpg",
    "url": "https://www.google.com/maps/search/?api=1&query=KE%20MOTORS%20-%20Used%20%26%20Second%20Hand%20Car%20Dealer%20in%20Chennai&query_place_id=ChIJqXV4xrtlUjoRNLK4d2Yz4Qs"
  },
  {
    "title": "Kothari Cars - Self drive car Rentals in Chennai | Vintage Rolls-Royce for Events | Monthly Rental Cars | Airport Pick & Drop",
    "categoryName": "Car rental agency",
    "address": "4, Reliance Rice Mill St, Sowcarpet, Peddanaickenpet, George Town, Chennai, Tamil Nadu 600001, India",
    "neighborhood": "Sowcarpet, Peddanaickenpet, George Town",
    "street": "4, Reliance Rice Mill St",
    "city": "Chennai",
    "postalCode": "600001",
    "state": "Tamil Nadu",
    "countryCode": "IN",
    "website": "https://kotharicars.com/",
    "phone": "+919444331981",
    "phoneUnformatted": "+919444331981",
    "location": {
      "lat": 13.1001953,
      "lng": 80.2752671
    },
    "totalScore": 4.5,
    "permanentlyClosed": false,
    "temporarilyClosed": false,
    "placeId": "ChIJI9uSwvVlUjoRVtCD-SjycyE",
    "categories": [
      "Car rental agency",
      "Car leasing service"
    ],
    "reviewsCount": 31,
    "imagesCount": 3,
    "openingHours": [
      {
        "day": "Monday",
        "hours": "10 AM to 6:30 PM"
      },
      {
        "day": "Tuesday",
        "hours": "10 AM to 6:30 PM"
      },
      {
        "day": "Wednesday",
        "hours": "10 AM to 6:30 PM"
      },
      {
        "day": "Thursday",
        "hours": "10 AM to 6:30 PM"
      },
      {
        "day": "Friday",
        "hours": "10 AM to 6:30 PM"
      },
      {
        "day": "Saturday",
        "hours": "10 AM to 6:30 PM"
      },
      {
        "day": "Sunday",
        "hours": "10 AM to 6:30 PM"
      }
    ],
    "imageUrl": "https://media.indianluxurycars.com/google/65b1cb57c35ade7802fef37f5a5b1c5c72d8344b0540bbd9f9c7a273b4a5d042.jpg",
    "url": "https://www.google.com/maps/search/?api=1&query=Kothari%20Cars%20-%20Self%20drive%20car%20Rentals%20in%20Chennai%20%7C%20Vintage%20Rolls-Royce%20for%20Events%20%7C%20Monthly%20Rental%20Cars%20%7C%20Airport%20Pick%20%26%20Drop&query_place_id=ChIJI9uSwvVlUjoRVtCD-SjycyE"
  },
  {
    "title": "La Maison Citroen Nungambakkam (VTK Automobiles Pvt Ltd)",
    "categoryName": "Car dealer",
    "address": "OLD NO 179, NEW NO 8, Kodambakkam High Rd, Tirumurthy Nagar, Nungambakkam, Chennai, Tamil Nadu 600034, India",
    "neighborhood": "Tirumurthy Nagar, Nungambakkam",
    "street": "OLD NO 179, NEW NO 8, Kodambakkam High Rd",
    "city": "Chennai",
    "postalCode": "600034",
    "state": "Tamil Nadu",
    "countryCode": "IN",
    "website": "https://vtk-chennai.citroen.in/",
    "phone": "+919500022916",
    "phoneUnformatted": "+919500022916",
    "location": {
      "lat": 13.0536856,
      "lng": 80.2484959
    },
    "totalScore": 4.5,
    "permanentlyClosed": false,
    "temporarilyClosed": false,
    "placeId": "ChIJP4mFx-5nUjoRNTTxDr6sAR8",
    "categories": [
      "Car dealer"
    ],
    "reviewsCount": 476,
    "imagesCount": 230,
    "openingHours": [
      {
        "day": "Monday",
        "hours": "9:30 AM to 7:30 PM"
      },
      {
        "day": "Tuesday",
        "hours": "9:30 AM to 7:30 PM"
      },
      {
        "day": "Wednesday",
        "hours": "9:30 AM to 7:30 PM"
      },
      {
        "day": "Thursday",
        "hours": "9:30 AM to 7:30 PM"
      },
      {
        "day": "Friday",
        "hours": "9:30 AM to 7:30 PM"
      },
      {
        "day": "Saturday",
        "hours": "9:30 AM to 7:30 PM"
      },
      {
        "day": "Sunday",
        "hours": "10 AM to 6 PM"
      }
    ],
    "imageUrl": "https://media.indianluxurycars.com/google/5df4d6cefe48042d768591076a86d8b5f0ef3e9e47f83f810e2008c2cc191531.jpg",
    "url": "https://www.google.com/maps/search/?api=1&query=La%20Maison%20Citroen%20Nungambakkam%20(VTK%20Automobiles%20Pvt%20Ltd)&query_place_id=ChIJP4mFx-5nUjoRNTTxDr6sAR8"
  },
  {
    "title": "Land Rover Vst Grandeur",
    "categoryName": "Land Rover dealer",
    "address": "VST Emerald Tower, Jaguar Land Rover, New, 237, Anna Salai, Chennai, Tamil Nadu 600006, India",
    "neighborhood": "Express Estate, Royapettah",
    "street": "VST Emerald Tower, Jaguar Land Rover, New, 237, Anna Salai",
    "city": "Chennai",
    "postalCode": "600006",
    "state": "Tamil Nadu",
    "countryCode": "IN",
    "website": "https://retailers.landrover.in/vstgrandeur-chennai",
    "phone": "+919600053000",
    "phoneUnformatted": "+919600053000",
    "location": {
      "lat": 13.0584599,
      "lng": 80.259146
    },
    "permanentlyClosed": false,
    "temporarilyClosed": false,
    "placeId": "ChIJxUWjAKpnUjoRqe5Icumewjc",
    "categories": [
      "Land Rover dealer",
      "Car dealer",
      "Used car dealer"
    ],
    "imagesCount": 48,
    "openingHours": [
      {
        "day": "Monday",
        "hours": "9 AM to 6 PM"
      },
      {
        "day": "Tuesday",
        "hours": "9 AM to 6 PM"
      },
      {
        "day": "Wednesday",
        "hours": "9 AM to 6 PM"
      },
      {
        "day": "Thursday",
        "hours": "9 AM to 6 PM"
      },
      {
        "day": "Friday",
        "hours": "9 AM to 6 PM"
      },
      {
        "day": "Saturday",
        "hours": "9 AM to 6 PM"
      },
      {
        "day": "Sunday",
        "hours": "9 AM to 6 PM"
      }
    ],
    "imageUrl": "https://media.indianluxurycars.com/google/cd2b9483824e739c2c19051bbd5b0e41c61ef35a6287b7a0032cb20460f36873.jpg",
    "url": "https://www.google.com/maps/search/?api=1&query=Land%20Rover%20Vst%20Grandeur&query_place_id=ChIJxUWjAKpnUjoRqe5Icumewjc"
  },
  {
    "title": "Link4uglobal",
    "subTitle": "லிங்க்4உஃலோபல்",
    "categoryName": "Car dealer",
    "address": "Link4uglobal, Sanphon, opposite to Marina Beach, Chennai, Tamil Nadu 600005, India",
    "neighborhood": "Marina Beach, Triplicane",
    "street": "Link4uglobal, Sanphon, opposite to Marina Beach",
    "city": "Chennai",
    "postalCode": "600005",
    "state": "Tamil Nadu",
    "countryCode": "IN",
    "website": "https://link4uglobal.co.in/",
    "phone": "+918547759428",
    "phoneUnformatted": "+918547759428",
    "location": {
      "lat": 13.0555796,
      "lng": 80.2836996
    },
    "totalScore": 3.9,
    "permanentlyClosed": false,
    "temporarilyClosed": false,
    "placeId": "ChIJVVVVFZloUjoRngfI_1a5AwA",
    "categories": [
      "Car dealer"
    ],
    "reviewsCount": 25,
    "imagesCount": 162,
    "openingHours": [
      {
        "day": "Monday",
        "hours": "10 AM to 7 PM"
      },
      {
        "day": "Tuesday",
        "hours": "10 AM to 7 PM"
      },
      {
        "day": "Wednesday",
        "hours": "10 AM to 7 PM"
      },
      {
        "day": "Thursday",
        "hours": "10 AM to 7 PM"
      },
      {
        "day": "Friday",
        "hours": "10 AM to 7 PM"
      },
      {
        "day": "Saturday",
        "hours": "10 AM to 7 PM"
      },
      {
        "day": "Sunday",
        "hours": "Closed"
      }
    ],
    "imageUrl": "https://media.indianluxurycars.com/google/c0cfa6a7aaaa8e830f7a535ca68f4abe9541f521d7e180c84e018ea9a1b9f7b0.jpg",
    "url": "https://www.google.com/maps/search/?api=1&query=Link4uglobal&query_place_id=ChIJVVVVFZloUjoRngfI_1a5AwA"
  },
  {
    "title": "madras car rental",
    "subTitle": "மெட்ராஸ் கார் ரெண்டல்",
    "categoryName": "Car rental agency",
    "address": "first floor, Centre,#119, 129, Gopathy Narayana Rd, Gangai Karai Puram, T. Nagar, Chennai, Tamil Nadu 600006, India",
    "neighborhood": "Gangai Karai Puram, T. Nagar",
    "street": "first floor, Centre,#119, 129, Gopathy Narayana Rd",
    "city": "Chennai",
    "postalCode": "600006",
    "state": "Tamil Nadu",
    "countryCode": "IN",
    "website": "http://madrascarrental.com/",
    "phone": "+919884833207",
    "phoneUnformatted": "+919884833207",
    "location": {
      "lat": 13.051551,
      "lng": 80.2495688
    },
    "totalScore": 4.4,
    "permanentlyClosed": false,
    "temporarilyClosed": false,
    "placeId": "ChIJWSO5iBVnUjoRu2-eg6_N4c8",
    "categories": [
      "Car rental agency",
      "Travel agency"
    ],
    "reviewsCount": 37,
    "imagesCount": 54,
    "openingHours": [
      {
        "day": "Monday",
        "hours": "Open 24 hours"
      },
      {
        "day": "Tuesday",
        "hours": "Open 24 hours"
      },
      {
        "day": "Wednesday",
        "hours": "Open 24 hours"
      },
      {
        "day": "Thursday",
        "hours": "Open 24 hours"
      },
      {
        "day": "Friday",
        "hours": "Open 24 hours"
      },
      {
        "day": "Saturday",
        "hours": "Open 24 hours"
      },
      {
        "day": "Sunday",
        "hours": "9 AM to 5 PM"
      }
    ],
    "imageUrl": "https://media.indianluxurycars.com/google/0f20ef5358b438ab75e43477b2ccda2688c392bd5c8c7c1dbb2d46d413cbabd2.jpg",
    "url": "https://www.google.com/maps/search/?api=1&query=madras%20car%20rental&query_place_id=ChIJWSO5iBVnUjoRu2-eg6_N4c8"
  },
  {
    "title": "Mercedes-Benz Titanium Motors",
    "subTitle": "டைட்டானியம் மோட்டார்ஸ்",
    "categoryName": "Mercedes-Benz dealer",
    "address": "#199, Anna Salai, Thousand Lights, Chennai, Tamil Nadu 600002, India",
    "neighborhood": "Anna Salai, Thousand Lights",
    "street": "#199, Anna Salai",
    "city": "Chennai",
    "postalCode": "600002",
    "state": "Tamil Nadu",
    "countryCode": "IN",
    "website": "https://www.titaniummotors.mercedes-benz.co.in/",
    "phone": "+918190810000",
    "phoneUnformatted": "+918190810000",
    "location": {
      "lat": 13.0626395,
      "lng": 80.2640056
    },
    "totalScore": 4.7,
    "permanentlyClosed": false,
    "temporarilyClosed": false,
    "placeId": "ChIJE6ycEhdmUjoRLlMDekT4hDY",
    "categories": [
      "Mercedes-Benz dealer",
      "Car dealer"
    ],
    "reviewsCount": 299,
    "imagesCount": 373,
    "openingHours": [
      {
        "day": "Monday",
        "hours": "10 AM to 9 PM"
      },
      {
        "day": "Tuesday",
        "hours": "10 AM to 9 PM"
      },
      {
        "day": "Wednesday",
        "hours": "10 AM to 9 PM"
      },
      {
        "day": "Thursday",
        "hours": "10 AM to 9 PM"
      },
      {
        "day": "Friday",
        "hours": "10 AM to 9 PM"
      },
      {
        "day": "Saturday",
        "hours": "10 AM to 9 PM"
      },
      {
        "day": "Sunday",
        "hours": "10 AM to 4 PM"
      }
    ],
    "imageUrl": "https://media.indianluxurycars.com/google/bfef45d59e11623e8e182aa761b87bc2710095e52c8a094fa13c5ed9a30bbc89.jpg",
    "url": "https://www.google.com/maps/search/?api=1&query=Mercedes-Benz%20Titanium%20Motors&query_place_id=ChIJE6ycEhdmUjoRLlMDekT4hDY"
  },
  {
    "title": "Modern Beauty Cars",
    "subTitle": "நவீன அழகு கார்கள்",
    "categoryName": "Car accessories store",
    "address": "Gate No, #96/197, Near Melody Theatre & Opposite Express Avenue, 8, Thiru. Vika. Rd, Royapettah, Chennai, Tamil Nadu 600002, India",
    "neighborhood": "Border Thottam, Padupakkam, Royapettah",
    "street": "Gate No, #96/197, Near Melody Theatre & Opposite Express Avenue, 8, Thiru. Vika. Rd",
    "city": "Chennai",
    "postalCode": "600002",
    "state": "Tamil Nadu",
    "countryCode": "IN",
    "phone": "+914442636315",
    "phoneUnformatted": "+914442636315",
    "location": {
      "lat": 13.05984,
      "lng": 80.2657006
    },
    "totalScore": 4.4,
    "permanentlyClosed": false,
    "temporarilyClosed": false,
    "placeId": "ChIJT55JO2pmUjoRCArErkcuqfM",
    "categories": [
      "Car accessories store",
      "Car wash"
    ],
    "reviewsCount": 67,
    "imagesCount": 38,
    "openingHours": [
      {
        "day": "Monday",
        "hours": "10 AM to 10:30 PM"
      },
      {
        "day": "Tuesday",
        "hours": "10 AM to 10:30 PM"
      },
      {
        "day": "Wednesday",
        "hours": "10 AM to 10:30 PM"
      },
      {
        "day": "Thursday",
        "hours": "10 AM to 10:30 PM"
      },
      {
        "day": "Friday",
        "hours": "10 AM to 10:30 PM"
      },
      {
        "day": "Saturday",
        "hours": "10 AM to 10:30 PM"
      },
      {
        "day": "Sunday",
        "hours": "10 AM to 10:30 PM"
      }
    ],
    "imageUrl": "https://media.indianluxurycars.com/google/9a03fe7637330bcba6e55a470043d1483fb0283edba6dda540591fced9dfb346.jpg",
    "url": "https://www.google.com/maps/search/?api=1&query=Modern%20Beauty%20Cars&query_place_id=ChIJT55JO2pmUjoRCArErkcuqfM"
  },
  {
    "title": "MRV Car Jewels",
    "subTitle": "மர்வ் கார் ஜூவல்ஸ்",
    "categoryName": "Car accessories store",
    "address": "1,State Bank Street, Thiru. Vika. Rd, Anna Salai, Chennai, Tamil Nadu 600002, India",
    "neighborhood": "Anna Salai",
    "street": "1,State Bank Street, Thiru. Vika. Rd",
    "city": "Chennai",
    "postalCode": "600002",
    "state": "Tamil Nadu",
    "countryCode": "IN",
    "phone": "+917397432871",
    "phoneUnformatted": "+917397432871",
    "location": {
      "lat": 13.062499,
      "lng": 80.266726
    },
    "totalScore": 4,
    "permanentlyClosed": false,
    "temporarilyClosed": false,
    "placeId": "ChIJBQXmzBlmUjoRZ17ps6ZBaU0",
    "categories": [
      "Car accessories store"
    ],
    "reviewsCount": 74,
    "imagesCount": 94,
    "openingHours": [
      {
        "day": "Monday",
        "hours": "10 AM to 9 PM"
      },
      {
        "day": "Tuesday",
        "hours": "10 AM to 9 PM"
      },
      {
        "day": "Wednesday",
        "hours": "10 AM to 9 PM"
      },
      {
        "day": "Thursday",
        "hours": "10 AM to 9 PM"
      },
      {
        "day": "Friday",
        "hours": "10 AM to 9 PM"
      },
      {
        "day": "Saturday",
        "hours": "10 AM to 9 PM"
      },
      {
        "day": "Sunday",
        "hours": "10 AM to 2 PM"
      }
    ],
    "imageUrl": "https://media.indianluxurycars.com/google/a7598da58d19e07693bcf6b26e958f71a93dbd66e58cf02697b14f4ae1ca5cd7.jpg",
    "url": "https://www.google.com/maps/search/?api=1&query=MRV%20Car%20Jewels&query_place_id=ChIJBQXmzBlmUjoRZ17ps6ZBaU0"
  },
  {
    "title": "New Premium Cars",
    "categoryName": "Used car dealer",
    "address": "backside of, ETHIRAJ COLLEGE FOR WOMEN, 12 C, Kasturi Mansion, Dr.Victoria Crescent, P.V Cheriyan Rd, s College, Egmore, Chennai, Tamil Nadu 600008, India",
    "neighborhood": "s College, Egmore",
    "street": "backside of, ETHIRAJ COLLEGE FOR WOMEN, 12 C, Kasturi Mansion, Dr.Victoria Crescent, P.V Cheriyan Rd",
    "city": "Chennai",
    "postalCode": "600008",
    "state": "Tamil Nadu",
    "countryCode": "IN",
    "location": {
      "lat": 13.063381,
      "lng": 80.2568781
    },
    "totalScore": 5,
    "permanentlyClosed": false,
    "temporarilyClosed": false,
    "placeId": "ChIJE71ZyFBnUjoRtkq0lmQGmOc",
    "categories": [
      "Used car dealer"
    ],
    "reviewsCount": 6,
    "imagesCount": 3,
    "openingHours": [
      {
        "day": "Monday",
        "hours": "10 AM to 7 PM"
      },
      {
        "day": "Tuesday",
        "hours": "10 AM to 7 PM"
      },
      {
        "day": "Wednesday",
        "hours": "10 AM to 7 PM"
      },
      {
        "day": "Thursday",
        "hours": "10 AM to 7 PM"
      },
      {
        "day": "Friday",
        "hours": "10 AM to 7 PM"
      },
      {
        "day": "Saturday",
        "hours": "10 AM to 7 PM"
      },
      {
        "day": "Sunday",
        "hours": "10 AM to 6 PM"
      }
    ],
    "imageUrl": "https://media.indianluxurycars.com/google/d12324f53e6fe50b2768361e0e02c90250765a91a2f6d34ae7c3d4cea5bf03b9.jpg",
    "url": "https://www.google.com/maps/search/?api=1&query=New%20Premium%20Cars&query_place_id=ChIJE71ZyFBnUjoRtkq0lmQGmOc"
  },
  {
    "title": "Ntts Mobility Solutions Pvt Ltd",
    "categoryName": "Car rental agency",
    "address": "5/2, E Spur Tank Rd, Mukta Gardens, Chetpet, Chennai, Tamil Nadu 600031, India",
    "neighborhood": "Mukta Gardens, Chetpet",
    "street": "5/2, E Spur Tank Rd",
    "city": "Chennai",
    "postalCode": "600031",
    "state": "Tamil Nadu",
    "countryCode": "IN",
    "website": "http://www.newtrackindia.com/",
    "phone": "+919543024365",
    "phoneUnformatted": "+919543024365",
    "location": {
      "lat": 13.0735753,
      "lng": 80.2526502
    },
    "totalScore": 4.9,
    "permanentlyClosed": false,
    "temporarilyClosed": false,
    "placeId": "ChIJtX4aGnNmUjoRw8GrqYEy6OA",
    "categories": [
      "Car rental agency",
      "Transportation escort service"
    ],
    "reviewsCount": 258,
    "imagesCount": 44,
    "openingHours": [
      {
        "day": "Monday",
        "hours": "Open 24 hours"
      },
      {
        "day": "Tuesday",
        "hours": "Open 24 hours"
      },
      {
        "day": "Wednesday",
        "hours": "Open 24 hours"
      },
      {
        "day": "Thursday",
        "hours": "Open 24 hours"
      },
      {
        "day": "Friday",
        "hours": "Open 24 hours"
      },
      {
        "day": "Saturday",
        "hours": "Open 24 hours"
      },
      {
        "day": "Sunday",
        "hours": "Open 24 hours"
      }
    ],
    "imageUrl": "https://media.indianluxurycars.com/google/e7f856f8c98896e6a21c7c760e6e25476056d7839d26137de0b8e3068f581186.jpg",
    "url": "https://www.google.com/maps/search/?api=1&query=Ntts%20Mobility%20Solutions%20Pvt%20Ltd&query_place_id=ChIJtX4aGnNmUjoRw8GrqYEy6OA"
  },
  {
    "title": "Peacock Travels",
    "categoryName": "Car rental agency",
    "address": "Whannels Rd, near Albert Theatre, Ansari Estate, Egmore, Chennai, Tamil Nadu 600008, India",
    "neighborhood": "Ansari Estate, Egmore",
    "street": "Whannels Rd, near Albert Theatre",
    "city": "Chennai",
    "postalCode": "600008",
    "state": "Tamil Nadu",
    "countryCode": "IN",
    "website": "http://www.peacocktravels.in/",
    "phone": "+919962808223",
    "phoneUnformatted": "+919962808223",
    "location": {
      "lat": 13.0774443,
      "lng": 80.2641077
    },
    "totalScore": 4.9,
    "permanentlyClosed": false,
    "temporarilyClosed": false,
    "placeId": "ChIJ41m_GR1nUjoRwLLe6tWPsQc",
    "categories": [
      "Car rental agency",
      "Car leasing service",
      "Travel agency",
      "Van rental agency"
    ],
    "reviewsCount": 67,
    "imagesCount": 40,
    "openingHours": [
      {
        "day": "Monday",
        "hours": "Open 24 hours"
      },
      {
        "day": "Tuesday",
        "hours": "Open 24 hours"
      },
      {
        "day": "Wednesday",
        "hours": "Open 24 hours"
      },
      {
        "day": "Thursday",
        "hours": "Open 24 hours"
      },
      {
        "day": "Friday",
        "hours": "Open 24 hours"
      },
      {
        "day": "Saturday",
        "hours": "Open 24 hours"
      },
      {
        "day": "Sunday",
        "hours": "Open 24 hours"
      }
    ],
    "imageUrl": "https://media.indianluxurycars.com/google/414d68518f83061b076351470f8797a7716dcaf1096f49940fbdf0bb9a3131e3.jpg",
    "url": "https://www.google.com/maps/search/?api=1&query=Peacock%20Travels&query_place_id=ChIJ41m_GR1nUjoRwLLe6tWPsQc"
  },
  {
    "title": "RentAnyCar.in",
    "subTitle": "எப்போதும் மீன்",
    "categoryName": "Car rental agency",
    "address": "No 21, Purasaivakkam High Rd, Pennagaram, Purasaiwakkam, Chennai, Tamil Nadu 600084, India",
    "neighborhood": "Pennagaram, Purasaiwakkam",
    "street": "No 21, Purasaivakkam High Rd",
    "city": "Chennai",
    "postalCode": "600084",
    "state": "Tamil Nadu",
    "countryCode": "IN",
    "phone": "+917823922922",
    "phoneUnformatted": "+917823922922",
    "location": {
      "lat": 13.0861725,
      "lng": 80.2562268
    },
    "permanentlyClosed": false,
    "temporarilyClosed": true,
    "placeId": "ChIJraUfX3VmUjoRXzfdg0ToYPE",
    "categories": [
      "Car rental agency",
      "Car leasing service"
    ],
    "imagesCount": 1,
    "openingHours": [],
    "imageUrl": "https://media.indianluxurycars.com/google/a26641e6a01369812030eee8fc26084f6e5b4bb1f489ff9a26b1f0df525338bc.jpg",
    "url": "https://www.google.com/maps/search/?api=1&query=RentAnyCar.in&query_place_id=ChIJraUfX3VmUjoRXzfdg0ToYPE"
  },
  {
    "title": "Route66 Cars - Luxury Pre Owned Used Premium Car Dealership",
    "categoryName": "Car dealer",
    "address": "769, Anna Salai, next to Spencer plaza Exit gate, opposite to Axis Bank, Anna Salai, Chennai, Tamil Nadu 600002, India",
    "neighborhood": "Anna Salai",
    "street": "769, Anna Salai, next to Spencer plaza Exit gate, opposite to Axis Bank",
    "city": "Chennai",
    "postalCode": "600002",
    "state": "Tamil Nadu",
    "countryCode": "IN",
    "phone": "+917419166666",
    "phoneUnformatted": "+917419166666",
    "location": {
      "lat": 13.0606097,
      "lng": 80.2609989
    },
    "totalScore": 4.7,
    "permanentlyClosed": false,
    "temporarilyClosed": false,
    "placeId": "ChIJMQZ_xYFnUjoRzYKceqNVJKM",
    "categories": [
      "Car dealer"
    ],
    "reviewsCount": 374,
    "imagesCount": 282,
    "openingHours": [
      {
        "day": "Monday",
        "hours": "10:30 AM to 7 PM"
      },
      {
        "day": "Tuesday",
        "hours": "10:30 AM to 7 PM"
      },
      {
        "day": "Wednesday",
        "hours": "10:30 AM to 7 PM"
      },
      {
        "day": "Thursday",
        "hours": "10:30 AM to 7 PM"
      },
      {
        "day": "Friday",
        "hours": "10:30 AM to 7 PM"
      },
      {
        "day": "Saturday",
        "hours": "10:30 AM to 7 PM"
      },
      {
        "day": "Sunday",
        "hours": "10:30 AM to 1:30 PM"
      }
    ],
    "imageUrl": "https://media.indianluxurycars.com/google/f1d97733af3244691f35c5eb1ae5a838fd6e9454b6d3f9a9b89d8ae040474fa4.jpg",
    "url": "https://www.google.com/maps/search/?api=1&query=Route66%20Cars%20-%20Luxury%20Pre%20Owned%20Used%20Premium%20Car%20Dealership&query_place_id=ChIJMQZ_xYFnUjoRzYKceqNVJKM"
  },
  {
    "title": "SMS Luxe Carz",
    "categoryName": "Car leasing service",
    "address": "18/24, Nattal Garden 2nd St, Lakshmipuram, Chinnaiyan Colony, Perambur, Chennai, Tamil Nadu 600011, India",
    "neighborhood": "Lakshmipuram, Chinnaiyan Colony, Perambur",
    "street": "18/24, Nattal Garden 2nd St",
    "city": "Chennai",
    "postalCode": "600011",
    "state": "Tamil Nadu",
    "countryCode": "IN",
    "phone": "+919176718005",
    "phoneUnformatted": "+919176718005",
    "location": {
      "lat": 13.114726,
      "lng": 80.245207
    },
    "totalScore": 5,
    "permanentlyClosed": false,
    "temporarilyClosed": false,
    "placeId": "ChIJr528oqtlUjoRm-RCWWeBJhI",
    "categories": [
      "Car leasing service"
    ],
    "reviewsCount": 15,
    "imagesCount": 90,
    "openingHours": [
      {
        "day": "Monday",
        "hours": "6 AM to 10 PM"
      },
      {
        "day": "Tuesday",
        "hours": "6 AM to 10 PM"
      },
      {
        "day": "Wednesday",
        "hours": "6 AM to 10 PM"
      },
      {
        "day": "Thursday",
        "hours": "6 AM to 10 PM"
      },
      {
        "day": "Friday",
        "hours": "6 AM to 10 PM"
      },
      {
        "day": "Saturday",
        "hours": "6 AM to 10 PM"
      },
      {
        "day": "Sunday",
        "hours": "6 AM to 10 PM"
      }
    ],
    "imageUrl": "https://media.indianluxurycars.com/google/c955f99d782611b69e10e57aed95664a4af73df9ee14a2b5f30364b77a5bd7e8.jpg",
    "url": "https://www.google.com/maps/search/?api=1&query=SMS%20Luxe%20Carz&query_place_id=ChIJr528oqtlUjoRm-RCWWeBJhI"
  },
  {
    "title": "SPR TRAVELL S PVT LTD",
    "categoryName": "Car rental agency",
    "address": "3, Paper Mills Road, Jagannathan Colony, Perambur, Chennai, Tamil Nadu 600011, India",
    "neighborhood": "Jagannathan Colony, Perambur",
    "street": "3, Paper Mills Road",
    "city": "Chennai",
    "postalCode": "600011",
    "state": "Tamil Nadu",
    "countryCode": "IN",
    "website": "https://mikivcard.com/spr-travels",
    "phone": "+919047208374",
    "phoneUnformatted": "+919047208374",
    "location": {
      "lat": 13.1087732,
      "lng": 80.2417392
    },
    "totalScore": 5,
    "permanentlyClosed": false,
    "temporarilyClosed": false,
    "placeId": "ChIJjy2cLQxlUjoRRWhy9x3KdAk",
    "categories": [
      "Car rental agency",
      "Car leasing service",
      "Travel agency",
      "Car wash",
      "Driver's license office",
      "Learner driver training area",
      "Outdoor activity organiser",
      "Sightseeing tour agency",
      "Taxi service"
    ],
    "reviewsCount": 35,
    "imagesCount": 45,
    "openingHours": [
      {
        "day": "Monday",
        "hours": "Open 24 hours"
      },
      {
        "day": "Tuesday",
        "hours": "Open 24 hours"
      },
      {
        "day": "Wednesday",
        "hours": "Open 24 hours"
      },
      {
        "day": "Thursday",
        "hours": "Open 24 hours"
      },
      {
        "day": "Friday",
        "hours": "Open 24 hours"
      },
      {
        "day": "Saturday",
        "hours": "Open 24 hours"
      },
      {
        "day": "Sunday",
        "hours": "Open 24 hours"
      }
    ],
    "imageUrl": "https://media.indianluxurycars.com/google/4f17c78d04f8834e005f5cc96d515ec360ca1600550cc2c374a77b734738972f.jpg",
    "url": "https://www.google.com/maps/search/?api=1&query=SPR%20TRAVELL%20S%20PVT%20LTD&query_place_id=ChIJjy2cLQxlUjoRRWhy9x3KdAk"
  },
  {
    "title": "Sri Meenakshi Travels Chennai",
    "categoryName": "Car rental agency",
    "address": "No:19, 18th West Cross St, MKB Nagar, Mahakavi Bharathiyar Nagar West, Mahakavi Bharathi Nagar, Vyasarpadi, Chennai, Tamil Nadu 600039, India",
    "neighborhood": "MKB Nagar, Mahakavi Bharathiyar Nagar West, Mahakavi Bharathi Nagar, Vyasarpadi",
    "street": "No:19, 18th West Cross St",
    "city": "Chennai",
    "postalCode": "600039",
    "state": "Tamil Nadu",
    "countryCode": "IN",
    "website": "https://www.srimeenakshitravels.in/",
    "phone": "+918939752522",
    "phoneUnformatted": "+918939752522",
    "location": {
      "lat": 13.1255584,
      "lng": 80.2582177
    },
    "totalScore": 5,
    "permanentlyClosed": false,
    "temporarilyClosed": false,
    "placeId": "ChIJiS4-CaxlUjoR7nzBCLfc7qY",
    "categories": [
      "Car rental agency"
    ],
    "reviewsCount": 48,
    "imagesCount": 333,
    "openingHours": [
      {
        "day": "Monday",
        "hours": "Open 24 hours"
      },
      {
        "day": "Tuesday",
        "hours": "Open 24 hours"
      },
      {
        "day": "Wednesday",
        "hours": "Open 24 hours"
      },
      {
        "day": "Thursday",
        "hours": "Open 24 hours"
      },
      {
        "day": "Friday",
        "hours": "Open 24 hours"
      },
      {
        "day": "Saturday",
        "hours": "Open 24 hours"
      },
      {
        "day": "Sunday",
        "hours": "Open 24 hours"
      }
    ],
    "imageUrl": "https://media.indianluxurycars.com/google/2724c5feac96c36e34571f73e3f10198e42ae2d93af59afecf858277e8935da7.png",
    "url": "https://www.google.com/maps/search/?api=1&query=Sri%20Meenakshi%20Travels%20Chennai&query_place_id=ChIJiS4-CaxlUjoR7nzBCLfc7qY"
  },
  {
    "title": "Star Car Accessories",
    "subTitle": "ஸ்டார் கார் அக்சஸ்ஸோரிஸ்",
    "categoryName": "Car accessories store",
    "address": "G.P ROAD, 189/P5L, Royapettah High Rd, opp. to E Residency, Border Thottam, Padupakkam, Triplicane, Chennai, Tamil Nadu 600002, India",
    "neighborhood": "Border Thottam, Padupakkam, Triplicane",
    "street": "G.P ROAD, 189/P5L, Royapettah High Rd, opp. to E Residency",
    "city": "Chennai",
    "postalCode": "600002",
    "state": "Tamil Nadu",
    "countryCode": "IN",
    "phone": "+919884061182",
    "phoneUnformatted": "+919884061182",
    "location": {
      "lat": 13.0601118,
      "lng": 80.2660877
    },
    "totalScore": 4.6,
    "permanentlyClosed": false,
    "temporarilyClosed": false,
    "placeId": "ChIJ4YcGXIlnUjoR8YUEvbw9Z9E",
    "categories": [
      "Car accessories store",
      "Auto accessories wholesaler",
      "Auto market"
    ],
    "reviewsCount": 63,
    "imagesCount": 49,
    "openingHours": [
      {
        "day": "Monday",
        "hours": "9 AM to 9 PM"
      },
      {
        "day": "Tuesday",
        "hours": "9 AM to 9 PM"
      },
      {
        "day": "Wednesday",
        "hours": "9 AM to 9 PM"
      },
      {
        "day": "Thursday",
        "hours": "9 AM to 9 PM"
      },
      {
        "day": "Friday",
        "hours": "9 AM to 9 PM"
      },
      {
        "day": "Saturday",
        "hours": "9 AM to 9 PM"
      },
      {
        "day": "Sunday",
        "hours": "9 AM to 9 PM"
      }
    ],
    "imageUrl": "https://media.indianluxurycars.com/google/92bab3c54c6825e5b8a4db5f7068126bf0b7967d40981fb0aced16a77281c694.jpg",
    "url": "https://www.google.com/maps/search/?api=1&query=Star%20Car%20Accessories&query_place_id=ChIJ4YcGXIlnUjoR8YUEvbw9Z9E"
  },
  {
    "title": "T S Mahalingam and Sons",
    "subTitle": "டி.எஸ் மகாலிங்கம் அண்ட் சன்ஸ்",
    "categoryName": "Used car dealer",
    "address": "Old# 240, 130, Royapettah High Rd, Royapettah, Chennai, Tamil Nadu 600014, India",
    "neighborhood": "Azad Nagar, Royapettah",
    "street": "Old# 240, 130, Royapettah High Rd",
    "city": "Chennai",
    "postalCode": "600014",
    "state": "Tamil Nadu",
    "countryCode": "IN",
    "website": "http://tsmcars.com/",
    "phone": "+914428133333",
    "phoneUnformatted": "+914428133333",
    "location": {
      "lat": 13.0489302,
      "lng": 80.2647588
    },
    "totalScore": 4.6,
    "permanentlyClosed": false,
    "temporarilyClosed": false,
    "placeId": "ChIJFVFmYTtmUjoRGQV5hOkMCx4",
    "categories": [
      "Used car dealer"
    ],
    "reviewsCount": 734,
    "imagesCount": 83,
    "openingHours": [
      {
        "day": "Monday",
        "hours": "10 AM to 7 PM"
      },
      {
        "day": "Tuesday",
        "hours": "10 AM to 7 PM"
      },
      {
        "day": "Wednesday",
        "hours": "10 AM to 7 PM"
      },
      {
        "day": "Thursday",
        "hours": "10 AM to 7 PM"
      },
      {
        "day": "Friday",
        "hours": "10 AM to 7 PM"
      },
      {
        "day": "Saturday",
        "hours": "10 AM to 7 PM"
      },
      {
        "day": "Sunday",
        "hours": "10 AM to 2 PM"
      }
    ],
    "imageUrl": "https://media.indianluxurycars.com/google/e284643961adf44e292f3f9627a5a26d3ad831b1e56e26981b6edf3d8a76a431.jpg",
    "url": "https://www.google.com/maps/search/?api=1&query=T%20S%20Mahalingam%20and%20Sons&query_place_id=ChIJFVFmYTtmUjoRGQV5hOkMCx4"
  },
  {
    "title": "Tata Motors Cars Showroom - Tafe Access, Anna Salai",
    "categoryName": "Car dealer",
    "address": "No 803, Addisons Building, opposite LIC Building, Anna Salai, Chennai, Tamil Nadu 600002, India",
    "neighborhood": "Anna Salai",
    "street": "No 803, Addisons Building, opposite LIC Building",
    "city": "Chennai",
    "postalCode": "600002",
    "state": "Tamil Nadu",
    "countryCode": "IN",
    "website": "https://dealer-locator.cars.tatamotors.com/tata-motors-cars-showroom-tafe-access-anna-salai-car-dealer-anna-salai-chennai-77074/Home?utm_source=locator&utm_medium=googleplaces",
    "phone": "+917045214937",
    "phoneUnformatted": "+917045214937",
    "location": {
      "lat": 13.0642152,
      "lng": 80.2660636
    },
    "totalScore": 4,
    "permanentlyClosed": false,
    "temporarilyClosed": false,
    "placeId": "ChIJkXw-ExtmUjoRL-l1wa2NOMo",
    "categories": [
      "Car dealer"
    ],
    "reviewsCount": 1225,
    "imagesCount": 395,
    "openingHours": [
      {
        "day": "Monday",
        "hours": "9 AM to 8 PM"
      },
      {
        "day": "Tuesday",
        "hours": "9 AM to 8 PM"
      },
      {
        "day": "Wednesday",
        "hours": "9 AM to 8 PM"
      },
      {
        "day": "Thursday",
        "hours": "9 AM to 8 PM"
      },
      {
        "day": "Friday",
        "hours": "9 AM to 8 PM"
      },
      {
        "day": "Saturday",
        "hours": "9 AM to 8 PM"
      },
      {
        "day": "Sunday",
        "hours": "9 AM to 8 PM"
      }
    ],
    "imageUrl": "https://media.indianluxurycars.com/google/5c51b533debde3d7691dc9bf83955652bcafe6aab02db4b2972f855c3fc98aa7.jpg",
    "url": "https://www.google.com/maps/search/?api=1&query=Tata%20Motors%20Cars%20Showroom%20-%20Tafe%20Access%2C%20Anna%20Salai&query_place_id=ChIJkXw-ExtmUjoRL-l1wa2NOMo"
  },
  {
    "title": "Tempo Traveller Rental in Chennai - All Travels",
    "categoryName": "Car leasing service",
    "address": "Trichy china Samy St, Periyar Nagar, Gopal Colony, Perambur, Chennai, Tamil Nadu 600011, India",
    "neighborhood": "Periyar Nagar, Gopal Colony, Perambur",
    "street": "Trichy china Samy St",
    "city": "Chennai",
    "postalCode": "600011",
    "state": "Tamil Nadu",
    "countryCode": "IN",
    "website": "https://gunatravelschennai.in/",
    "phone": "+919176197693",
    "phoneUnformatted": "+919176197693",
    "location": {
      "lat": 13.1122713,
      "lng": 80.2378842
    },
    "totalScore": 4.9,
    "permanentlyClosed": false,
    "temporarilyClosed": false,
    "placeId": "ChIJW3MS4EZlUjoRmVDR184Xpu0",
    "categories": [
      "Car leasing service"
    ],
    "reviewsCount": 73,
    "imagesCount": 135,
    "openingHours": [
      {
        "day": "Monday",
        "hours": "Open 24 hours"
      },
      {
        "day": "Tuesday",
        "hours": "Open 24 hours"
      },
      {
        "day": "Wednesday",
        "hours": "Open 24 hours"
      },
      {
        "day": "Thursday",
        "hours": "Open 24 hours"
      },
      {
        "day": "Friday",
        "hours": "Open 24 hours"
      },
      {
        "day": "Saturday",
        "hours": "Open 24 hours"
      },
      {
        "day": "Sunday",
        "hours": "Open 24 hours"
      }
    ],
    "imageUrl": "https://media.indianluxurycars.com/google/87d2dbb5f3e367514f2ffaf8b9c18494389f2a7cb7f01ef38be5775f7fa7a493.jpg",
    "url": "https://www.google.com/maps/search/?api=1&query=Tempo%20Traveller%20Rental%20in%20Chennai%20-%20All%20Travels&query_place_id=ChIJW3MS4EZlUjoRmVDR184Xpu0"
  },
  {
    "title": "The Torque",
    "subTitle": "தி டார்க்",
    "categoryName": "Car dealer",
    "address": "861, Poonamallee High Rd, Kilpauk, Chennai, Tamil Nadu 600010, India",
    "neighborhood": "Kilpauk",
    "street": "861, Poonamallee High Rd",
    "city": "Chennai",
    "postalCode": "600010",
    "state": "Tamil Nadu",
    "countryCode": "IN",
    "website": "https://www.thetorque.in/",
    "phone": "+919940419999",
    "phoneUnformatted": "+919940419999",
    "location": {
      "lat": 13.0785953,
      "lng": 80.2479666
    },
    "totalScore": 4.1,
    "permanentlyClosed": false,
    "temporarilyClosed": false,
    "placeId": "ChIJz-GpCClkUjoRZIF7kjeoITg",
    "categories": [
      "Car dealer",
      "Auto repair shop"
    ],
    "reviewsCount": 164,
    "imagesCount": 91,
    "openingHours": [
      {
        "day": "Monday",
        "hours": "10 AM to 7 PM"
      },
      {
        "day": "Tuesday",
        "hours": "10 AM to 7 PM"
      },
      {
        "day": "Wednesday",
        "hours": "10 AM to 7 PM"
      },
      {
        "day": "Thursday",
        "hours": "10 AM to 7 PM"
      },
      {
        "day": "Friday",
        "hours": "10 AM to 7 PM"
      },
      {
        "day": "Saturday",
        "hours": "10 AM to 7 PM"
      },
      {
        "day": "Sunday",
        "hours": "Closed"
      }
    ],
    "imageUrl": "https://media.indianluxurycars.com/google/c4bd66cef5baf286fdeedeebafadab2eca6c76961b58b4e4c390c711974e746b.jpg",
    "url": "https://www.google.com/maps/search/?api=1&query=The%20Torque&query_place_id=ChIJz-GpCClkUjoRZIF7kjeoITg"
  },
  {
    "title": "THROTTLE BOX",
    "categoryName": "Car finance and loan company",
    "address": "4th Floor, Sire Mansion, #621, Anna Salai, Thousand Lights West, Thousand Lights, Chennai, Tamil Nadu 600006, India",
    "neighborhood": "Thousand Lights West, Thousand Lights",
    "street": "4th Floor, Sire Mansion, #621, Anna Salai",
    "city": "Chennai",
    "postalCode": "600006",
    "state": "Tamil Nadu",
    "countryCode": "IN",
    "website": "https://throttleboxindia.com/",
    "phone": "+919444423608",
    "phoneUnformatted": "+919444423608",
    "location": {
      "lat": 13.0546257,
      "lng": 80.2525386
    },
    "totalScore": 4.8,
    "permanentlyClosed": false,
    "temporarilyClosed": false,
    "placeId": "ChIJR3ZK_8dnUjoRxb_n83ZpDys",
    "categories": [
      "Car finance and loan company"
    ],
    "reviewsCount": 59,
    "imagesCount": 21,
    "openingHours": [
      {
        "day": "Monday",
        "hours": "10 AM to 6 PM"
      },
      {
        "day": "Tuesday",
        "hours": "10 AM to 6 PM"
      },
      {
        "day": "Wednesday",
        "hours": "10 AM to 6 PM"
      },
      {
        "day": "Thursday",
        "hours": "10 AM to 6 PM"
      },
      {
        "day": "Friday",
        "hours": "10 AM to 6 PM"
      },
      {
        "day": "Saturday",
        "hours": "10 AM to 6 PM"
      },
      {
        "day": "Sunday",
        "hours": "Closed"
      }
    ],
    "imageUrl": "https://media.indianluxurycars.com/google/3e1a65c4213d35b3f4b633250603590862c888cf27e9e60f84ae450e0466d4e8.jpg",
    "url": "https://www.google.com/maps/search/?api=1&query=THROTTLE%20BOX&query_place_id=ChIJR3ZK_8dnUjoRxb_n83ZpDys"
  },
  {
    "title": "Z CARS WORLD",
    "categoryName": "Used car dealer",
    "address": "66/137, Dr Natesan Rd, Sudandira Nagar, Triplicane, Chennai, Tamil Nadu 600005, India",
    "neighborhood": "Sudandira Nagar, Triplicane",
    "street": "66/137, Dr Natesan Rd",
    "city": "Chennai",
    "postalCode": "600005",
    "state": "Tamil Nadu",
    "countryCode": "IN",
    "location": {
      "lat": 13.0494883,
      "lng": 80.274518
    },
    "totalScore": 5,
    "permanentlyClosed": false,
    "temporarilyClosed": false,
    "placeId": "ChIJ_SC2ZuBnUjoRTY1noo_A09s",
    "categories": [
      "Used car dealer"
    ],
    "reviewsCount": 1,
    "imagesCount": 14,
    "openingHours": [
      {
        "day": "Monday",
        "hours": "10 AM to 8 PM"
      },
      {
        "day": "Tuesday",
        "hours": "10 AM to 8 PM"
      },
      {
        "day": "Wednesday",
        "hours": "10 AM to 8 PM"
      },
      {
        "day": "Thursday",
        "hours": "10 AM to 8 PM"
      },
      {
        "day": "Friday",
        "hours": "10 AM to 8 PM"
      },
      {
        "day": "Saturday",
        "hours": "10 AM to 8 PM"
      },
      {
        "day": "Sunday",
        "hours": "10 AM to 8 PM"
      }
    ],
    "imageUrl": "https://media.indianluxurycars.com/google/dd05c73ccd43639b3bd51960b672e6a455bb7fad2c457fee26f49eb0940c496f.jpg",
    "url": "https://www.google.com/maps/search/?api=1&query=Z%20CARS%20WORLD&query_place_id=ChIJ_SC2ZuBnUjoRTY1noo_A09s"
  }
]
