[
  {
    "title": "Ajanta Ellora Tours",
    "categoryName": "Car leasing service",
    "address": "Flat no: S -4, Yusuf Plaza, S.T. Colony, near Office Of District collector, Aurangabad, Chhatrapati Sambhajinagar, Maharashtra 431001, India",
    "neighborhood": "Labar Colony, Shah Bazar",
    "street": "Flat no: S -4, Yusuf Plaza, S.T. Colony, near Office Of District collector, Aurangabad",
    "city": "Chhatrapati Sambhajinagar",
    "postalCode": "431001",
    "state": "Maharashtra",
    "countryCode": "IN",
    "website": "http://www.ajantaelloratours.com/",
    "phone": "+919272002020",
    "phoneUnformatted": "+919272002020",
    "location": {
      "lat": 19.8917622,
      "lng": 75.3387762
    },
    "totalScore": 4.2,
    "permanentlyClosed": false,
    "temporarilyClosed": false,
    "placeId": "ChIJUfWvRqei2zsRpf5BWfqOmQA",
    "categories": [
      "Car leasing service",
      "Tour operator",
      "Hotel",
      "Student housing center",
      "Van rental agency"
    ],
    "reviewsCount": 423,
    "imagesCount": 338,
    "openingHours": [],
    "imageUrl": "https://media.indianluxurycars.com/google/9e17873ebfb13f84f8e4027d3cc3c9ff42e5405733b7f0d8be9641c1aee2d956.jpg",
    "url": "https://www.google.com/maps/search/?api=1&query=Ajanta%20Ellora%20Tours&query_place_id=ChIJUfWvRqei2zsRpf5BWfqOmQA"
  },
  {
    "title": "Alfa India Tours And Travels Pvt Ltd",
    "subTitle": "अल्फा कार",
    "categoryName": "Car rental agency",
    "address": "Office No 55, Seven Hill, Jalna Rd, Sector P-1, Town Center, Cidco, Chhatrapati Sambhajinagar, Maharashtra 431009, India",
    "neighborhood": "Sector P-1, Town Center, Cidco",
    "street": "Office No 55, Seven Hill, Jalna Rd",
    "city": "Chhatrapati Sambhajinagar",
    "postalCode": "431009",
    "state": "Maharashtra",
    "countryCode": "IN",
    "website": "https://www.alfatoursandtravels.com/",
    "phone": "+919730097300",
    "phoneUnformatted": "+919730097300",
    "location": {
      "lat": 19.8751897,
      "lng": 75.3549729
    },
    "totalScore": 4.5,
    "permanentlyClosed": false,
    "temporarilyClosed": false,
    "placeId": "ChIJicGdT5Ci2zsRLbG6SJS7sWI",
    "categories": [
      "Car rental agency",
      "Car leasing service",
      "Chauffeur service",
      "Leasing service",
      "Sightseeing tour agency",
      "Taxi service",
      "Tour operator",
      "Transportation service",
      "Travel agency"
    ],
    "reviewsCount": 94,
    "imagesCount": 21,
    "openingHours": [
      {
        "day": "Monday",
        "hours": "Open 24 hours"
      },
      {
        "day": "Tuesday",
        "hours": "Open 24 hours"
      },
      {
        "day": "Wednesday",
        "hours": "Open 24 hours"
      },
      {
        "day": "Thursday",
        "hours": "Open 24 hours"
      },
      {
        "day": "Friday",
        "hours": "Open 24 hours"
      },
      {
        "day": "Saturday",
        "hours": "Open 24 hours"
      },
      {
        "day": "Sunday",
        "hours": "Open 24 hours"
      }
    ],
    "imageUrl": "https://media.indianluxurycars.com/google/a65ac05dc599db2d7ee2f23897b804d47341aca02b311ab98b0b634789d73664.jpg",
    "url": "https://www.google.com/maps/search/?api=1&query=Alfa%20India%20Tours%20And%20Travels%20Pvt%20Ltd&query_place_id=ChIJicGdT5Ci2zsRLbG6SJS7sWI"
  },
  {
    "title": "Aroshi Tours And Travels",
    "subTitle": "आरुषि टूर्स एंड ट्रैवल्स",
    "categoryName": "Car rental agency",
    "address": "Gut No. 134, Bharat Mata Colony Naik Nagar, Plot No. 329, Beed Bypass Rd, near Venkatesh Public School, Parisar, Deolai, Chhatrapati Sambhajinagar, Maharashtra 431010, India",
    "neighborhood": "Parisar, Deolai",
    "street": "Gut No. 134, Bharat Mata Colony Naik Nagar, Plot No. 329, Beed Bypass Rd, near Venkatesh Public School",
    "city": "Chhatrapati Sambhajinagar",
    "postalCode": "431010",
    "state": "Maharashtra",
    "countryCode": "IN",
    "website": "https://aroshitoursandtravels.com/",
    "phone": "+919595650504",
    "phoneUnformatted": "+919595650504",
    "location": {
      "lat": 19.8420362,
      "lng": 75.3621011
    },
    "totalScore": 4.9,
    "permanentlyClosed": false,
    "temporarilyClosed": false,
    "placeId": "ChIJa1Q8nsyj2zsR7bL8ybIccjE",
    "categories": [
      "Car rental agency",
      "Car leasing service",
      "Rental car return location",
      "Sightseeing tour agency",
      "Taxi service",
      "Tour agency",
      "Tour operator",
      "Travel agency"
    ],
    "reviewsCount": 145,
    "imagesCount": 98,
    "openingHours": [
      {
        "day": "Monday",
        "hours": "Open 24 hours"
      },
      {
        "day": "Tuesday",
        "hours": "Open 24 hours"
      },
      {
        "day": "Wednesday",
        "hours": "Open 24 hours"
      },
      {
        "day": "Thursday",
        "hours": "Open 24 hours"
      },
      {
        "day": "Friday",
        "hours": "Open 24 hours"
      },
      {
        "day": "Saturday",
        "hours": "Open 24 hours"
      },
      {
        "day": "Sunday",
        "hours": "Open 24 hours"
      }
    ],
    "imageUrl": "https://media.indianluxurycars.com/google/02a47505da8d4152bd27086dd34a0d1d1628908258a335238cf26e682a859f08.jpg",
    "url": "https://www.google.com/maps/search/?api=1&query=Aroshi%20Tours%20And%20Travels&query_place_id=ChIJa1Q8nsyj2zsR7bL8ybIccjE"
  },
  {
    "title": "Aurangabad Airport Taxi & Ac Tempo traveler, AC Mini bus",
    "subTitle": "औरंगाबाद विमानतळ टॅक्सी",
    "categoryName": "Car leasing service",
    "address": "Office No 2 Lokshahi Colony, N 2, Cidco, Chhatrapati Sambhajinagar, Maharashtra 431006, India",
    "neighborhood": "HPCL Housing Colony, N 2, Cidco",
    "street": "Office No 2 Lokshahi Colony",
    "city": "Chhatrapati Sambhajinagar",
    "postalCode": "431006",
    "state": "Maharashtra",
    "countryCode": "IN",
    "website": "https://aurangabadairporttaxi.com/",
    "phone": "+919765500900",
    "phoneUnformatted": "+919765500900",
    "location": {
      "lat": 19.865347,
      "lng": 75.3713529
    },
    "totalScore": 4.5,
    "permanentlyClosed": false,
    "temporarilyClosed": false,
    "placeId": "ChIJNd4TJfai2zsRrRT9K8gL1m4",
    "categories": [
      "Car leasing service",
      "Bus tour agency",
      "Taxi service",
      "Tour operator",
      "Travel agency"
    ],
    "reviewsCount": 214,
    "imagesCount": 71,
    "openingHours": [],
    "imageUrl": "https://media.indianluxurycars.com/google/f10cfdc40ea75cfd50412dad67df2d481dca16dc83e4a6fffcf3c406257e5c48.jpg",
    "url": "https://www.google.com/maps/search/?api=1&query=Aurangabad%20Airport%20Taxi%20%26%20Ac%20Tempo%20traveler%2C%20AC%20Mini%20bus&query_place_id=ChIJNd4TJfai2zsRrRT9K8gL1m4"
  },
  {
    "title": "Aurangabad Car Rental",
    "subTitle": "औरंगाबाद कार रेंटल",
    "categoryName": "Car rental agency",
    "address": "Shop No. 3, Central Bus Stand Rd, opp. Siddharth Garden, near Hote Kala Laxmi, Kotwalpura, Chhatrapati Sambhajinagar, Maharashtra 431001, India",
    "neighborhood": "Kotwalpura",
    "street": "Shop No. 3, Central Bus Stand Rd, opp. Siddharth Garden, near Hote Kala Laxmi",
    "city": "Chhatrapati Sambhajinagar",
    "postalCode": "431001",
    "state": "Maharashtra",
    "countryCode": "IN",
    "website": "http://www.aurangabadcarrental.com/",
    "phone": "+919890980361",
    "phoneUnformatted": "+919890980361",
    "location": {
      "lat": 19.8794073,
      "lng": 75.3175914
    },
    "totalScore": 4.9,
    "permanentlyClosed": false,
    "temporarilyClosed": false,
    "placeId": "ChIJ6_Y7i86j2zsRbhgRnqxPprU",
    "categories": [
      "Car rental agency"
    ],
    "reviewsCount": 256,
    "imagesCount": 107,
    "openingHours": [
      {
        "day": "Monday",
        "hours": "Open 24 hours"
      },
      {
        "day": "Tuesday",
        "hours": "Open 24 hours"
      },
      {
        "day": "Wednesday",
        "hours": "Open 24 hours"
      },
      {
        "day": "Thursday",
        "hours": "Open 24 hours"
      },
      {
        "day": "Friday",
        "hours": "Open 24 hours"
      },
      {
        "day": "Saturday",
        "hours": "Open 24 hours"
      },
      {
        "day": "Sunday",
        "hours": "Open 24 hours"
      }
    ],
    "imageUrl": "https://media.indianluxurycars.com/google/e83a8b0aaaf95cfb313f7ca2f3d5a3b0bb2b780372e00e8932d6d6cfc90d93da.jpg",
    "url": "https://www.google.com/maps/search/?api=1&query=Aurangabad%20Car%20Rental&query_place_id=ChIJ6_Y7i86j2zsRbhgRnqxPprU"
  },
  {
    "title": "Aurangabad Car Rental Services",
    "subTitle": "औरंगाबाद कार रेंटल सर्विसेस",
    "categoryName": "Car leasing service",
    "address": "Datta Nagar, Mondha, Chhatrapati Sambhajinagar, Maharashtra 431001, India",
    "neighborhood": "Datta Nagar, Mondha",
    "city": "Chhatrapati Sambhajinagar",
    "postalCode": "431001",
    "state": "Maharashtra",
    "countryCode": "IN",
    "phone": "+918180000062",
    "phoneUnformatted": "+918180000062",
    "location": {
      "lat": 19.8804228,
      "lng": 75.3407781
    },
    "totalScore": 5,
    "permanentlyClosed": false,
    "temporarilyClosed": false,
    "placeId": "ChIJ-8JyasmZ2zsRsZIsQfm2yAI",
    "categories": [
      "Car leasing service",
      "Airport shuttle service",
      "Taxi service"
    ],
    "reviewsCount": 5,
    "imagesCount": 13,
    "openingHours": [
      {
        "day": "Monday",
        "hours": "Open 24 hours"
      },
      {
        "day": "Tuesday",
        "hours": "Open 24 hours"
      },
      {
        "day": "Wednesday",
        "hours": "Open 24 hours"
      },
      {
        "day": "Thursday",
        "hours": "Open 24 hours"
      },
      {
        "day": "Friday",
        "hours": "Open 24 hours"
      },
      {
        "day": "Saturday",
        "hours": "Open 24 hours"
      },
      {
        "day": "Sunday",
        "hours": "Open 24 hours"
      }
    ],
    "imageUrl": "https://media.indianluxurycars.com/google/4df121f9c35b12f053ab4621d2939c4cf25b0325736b55a6c7943b72f3b9ee3b.png",
    "url": "https://www.google.com/maps/search/?api=1&query=Aurangabad%20Car%20Rental%20Services&query_place_id=ChIJ-8JyasmZ2zsRsZIsQfm2yAI"
  },
  {
    "title": "Blossom Travel Services - Cab Rental services | Car on Rent | Bus on Rent",
    "subTitle": "ब्लॉसम ट्रॅव्हल सर्विसेस",
    "categoryName": "Car leasing service",
    "address": "prozone mall, plot no.2, service industry, Town Centre, Chhatrapati Sambhajinagar, Maharashtra 431006, India",
    "neighborhood": "Sambhaji Nagar, Town Centre, N 1, Cidco",
    "street": "prozone mall, plot no.2, service industry",
    "city": "Chhatrapati Sambhajinagar",
    "postalCode": "431006",
    "state": "Maharashtra",
    "countryCode": "IN",
    "website": "http://www.blossomtravels.in/",
    "phone": "+919823323555",
    "phoneUnformatted": "+919823323555",
    "location": {
      "lat": 19.8779522,
      "lng": 75.3698384
    },
    "totalScore": 4.3,
    "permanentlyClosed": false,
    "temporarilyClosed": false,
    "placeId": "ChIJIVWZO-ui2zsRvsFr5QB6SrE",
    "categories": [
      "Car leasing service"
    ],
    "reviewsCount": 58,
    "imagesCount": 61,
    "openingHours": [
      {
        "day": "Monday",
        "hours": "Open 24 hours"
      },
      {
        "day": "Tuesday",
        "hours": "Open 24 hours"
      },
      {
        "day": "Wednesday",
        "hours": "Open 24 hours"
      },
      {
        "day": "Thursday",
        "hours": "Open 24 hours"
      },
      {
        "day": "Friday",
        "hours": "Open 24 hours"
      },
      {
        "day": "Saturday",
        "hours": "Open 24 hours"
      },
      {
        "day": "Sunday",
        "hours": "Open 24 hours"
      }
    ],
    "imageUrl": "https://media.indianluxurycars.com/google/60934ad0d5933b9527393ea94fc8d4613a7d0c97a20c2aa23a01c6153f66595f.jpg",
    "url": "https://www.google.com/maps/search/?api=1&query=Blossom%20Travel%20Services%20-%20Cab%20Rental%20services%20%7C%20Car%20on%20Rent%20%7C%20Bus%20on%20Rent&query_place_id=ChIJIVWZO-ui2zsRvsFr5QB6SrE"
  },
  {
    "title": "Car dealer",
    "subTitle": "Car dealers Aurangabad",
    "categoryName": "Used car dealer",
    "address": "Kaziwada, Naralibag, Chhatrapati Sambhajinagar, Maharashtra 431001, India",
    "neighborhood": "Kaziwada, Naralibag",
    "city": "Chhatrapati Sambhajinagar",
    "postalCode": "431001",
    "state": "Maharashtra",
    "countryCode": "IN",
    "phone": "+919860919966",
    "phoneUnformatted": "+919860919966",
    "location": {
      "lat": 19.8911849,
      "lng": 75.3213035
    },
    "totalScore": 4,
    "permanentlyClosed": false,
    "temporarilyClosed": false,
    "placeId": "ChIJ2--ymGeZ2zsR_LnaVlJAIP8",
    "categories": [
      "Used car dealer",
      "Car dealer"
    ],
    "reviewsCount": 19,
    "imagesCount": 49,
    "openingHours": [
      {
        "day": "Monday",
        "hours": "9 AM to 9 PM"
      },
      {
        "day": "Tuesday",
        "hours": "9 AM to 9 PM"
      },
      {
        "day": "Wednesday",
        "hours": "9 AM to 9 PM"
      },
      {
        "day": "Thursday",
        "hours": "9 AM to 9 PM"
      },
      {
        "day": "Friday",
        "hours": "9 AM to 9 PM"
      },
      {
        "day": "Saturday",
        "hours": "9 AM to 9 PM"
      },
      {
        "day": "Sunday",
        "hours": "9 AM to 9 PM"
      }
    ],
    "imageUrl": "https://media.indianluxurycars.com/google/5f1d612c003700e3e26ee3a24aefd62260cc8d0203c65e61bc9ac46142a8429d.jpg",
    "url": "https://www.google.com/maps/search/?api=1&query=Car%20dealer&query_place_id=ChIJ2--ymGeZ2zsR_LnaVlJAIP8"
  },
  {
    "title": "car&bike (by Mahindra First Choice) Ratnaprabha Motors - AURANGABAD",
    "subTitle": "महिंद्रा प्रथम पसंती रणधुमाळी लिमिटेड",
    "categoryName": "Used car dealer",
    "address": "Ratnaprabha Motors, E-32, Chikalthana, opp. Wokhardt Research centre, MIDC, Chhatrapati Sambhajinagar, Maharashtra 431006, India",
    "neighborhood": "Sambhaji Nagar, N 1, MIDC",
    "street": "Ratnaprabha Motors, E-32, Chikalthana, opp. Wokhardt Research centre",
    "city": "Chhatrapati Sambhajinagar",
    "postalCode": "431006",
    "state": "Maharashtra",
    "countryCode": "IN",
    "website": "https://www.carandbike.com/used/car-dealers/ratnaprabha-motors-in-aurangabad-4608/buy",
    "phone": "+917506700873",
    "phoneUnformatted": "+917506700873",
    "location": {
      "lat": 19.876972,
      "lng": 75.370706
    },
    "totalScore": 4.5,
    "permanentlyClosed": false,
    "temporarilyClosed": false,
    "placeId": "ChIJv3Csfu6i2zsRfOdhtfNyYmE",
    "categories": [
      "Used car dealer",
      "Auto broker",
      "Car dealer",
      "Motor vehicle dealer",
      "Vehicle inspection service"
    ],
    "reviewsCount": 69,
    "imagesCount": 24,
    "openingHours": [
      {
        "day": "Monday",
        "hours": "10:30 AM to 6 PM"
      },
      {
        "day": "Tuesday",
        "hours": "10 AM to 6 PM"
      },
      {
        "day": "Wednesday",
        "hours": "10 AM to 6 PM"
      },
      {
        "day": "Thursday",
        "hours": "10 AM to 6 PM"
      },
      {
        "day": "Friday",
        "hours": "10 AM to 6 PM"
      },
      {
        "day": "Saturday",
        "hours": "10 AM to 6 PM"
      },
      {
        "day": "Sunday",
        "hours": "Closed"
      }
    ],
    "imageUrl": "https://media.indianluxurycars.com/google/88042b4209e917f7c80f8b938e70d9b9fef9b0fa52eccdb7a29168e8a1d4dcea.jpg",
    "url": "https://www.google.com/maps/search/?api=1&query=car%26bike%20(by%20Mahindra%20First%20Choice)%20Ratnaprabha%20Motors%20-%20AURANGABAD&query_place_id=ChIJv3Csfu6i2zsRfOdhtfNyYmE"
  },
  {
    "title": "Cheapest car rental",
    "categoryName": "Car rental agency",
    "address": "Sabji mandi, Paithan Gate, Model kiana, Banjara Colony, Chhatrapati Sambhajinagar, Maharashtra 431001, India",
    "neighborhood": "Paithan Gate, Model kiana, Banjara Colony",
    "street": "Sabji mandi",
    "city": "Chhatrapati Sambhajinagar",
    "postalCode": "431001",
    "state": "Maharashtra",
    "countryCode": "IN",
    "website": "http://cheapestcarrental.in/",
    "phone": "+919326222278",
    "phoneUnformatted": "+919326222278",
    "location": {
      "lat": 19.8791705,
      "lng": 75.3297859
    },
    "totalScore": 4.9,
    "permanentlyClosed": false,
    "temporarilyClosed": false,
    "placeId": "ChIJ630ZrxOZ2zsRW6dgBvYhh9g",
    "categories": [
      "Car rental agency",
      "Car leasing service",
      "Taxi service",
      "Minibus taxi service",
      "Tour agency",
      "Travel agency"
    ],
    "reviewsCount": 175,
    "imagesCount": 118,
    "openingHours": [],
    "imageUrl": "https://media.indianluxurycars.com/google/aa81f2f94ff0344a6e75a1e01580ddae75914ba2f1f570698df250e87ad01220.jpg",
    "url": "https://www.google.com/maps/search/?api=1&query=Cheapest%20car%20rental&query_place_id=ChIJ630ZrxOZ2zsRW6dgBvYhh9g"
  },
  {
    "title": "Crystal Tours And Travels",
    "subTitle": "क्रिस्टल टूर्स एंड ट्रैवल्स",
    "categoryName": "Car rental agency",
    "address": "Shivajinagar, Sara Raaj Nagar, Garkheda, Chhatrapati Sambhajinagar, Maharashtra 431009, India",
    "neighborhood": "Shivajinagar, Sara Raaj Nagar, Garkheda",
    "city": "Chhatrapati Sambhajinagar",
    "postalCode": "431009",
    "state": "Maharashtra",
    "countryCode": "IN",
    "phone": "+919405101009",
    "phoneUnformatted": "+919405101009",
    "location": {
      "lat": 19.8528649,
      "lng": 75.3515829
    },
    "totalScore": 4.6,
    "permanentlyClosed": false,
    "temporarilyClosed": false,
    "placeId": "ChIJJZ5JBcSj2zsRHvbosoYwYmc",
    "categories": [
      "Car rental agency",
      "Car leasing service"
    ],
    "reviewsCount": 21,
    "imagesCount": 60,
    "openingHours": [
      {
        "day": "Monday",
        "hours": "Open 24 hours"
      },
      {
        "day": "Tuesday",
        "hours": "Open 24 hours"
      },
      {
        "day": "Wednesday",
        "hours": "Open 24 hours"
      },
      {
        "day": "Thursday",
        "hours": "Open 24 hours"
      },
      {
        "day": "Friday",
        "hours": "Open 24 hours"
      },
      {
        "day": "Saturday",
        "hours": "Open 24 hours"
      },
      {
        "day": "Sunday",
        "hours": "Open 24 hours"
      }
    ],
    "imageUrl": "https://media.indianluxurycars.com/google/975f0e2f16555bcf5a08d40fa80ce26feb2d7a61d68b35dc2ab9cdab5b01b598.jpg",
    "url": "https://www.google.com/maps/search/?api=1&query=Crystal%20Tours%20And%20Travels&query_place_id=ChIJJZ5JBcSj2zsRHvbosoYwYmc"
  },
  {
    "title": "DREAMWHEELZz preowned premium bikes and cars consultancy",
    "subTitle": "ड्रीमव्हील्ज़ प्रिओन्ड प्रीमियम बिकेस एंड कार्स कंसलटेंसी",
    "categoryName": "Car dealer",
    "address": "Shop no.2, Plot no. 1, Dreamwheelzz- Preowned Premium bike and car consultancy, Near, Jawahar Nagar Police Station Rd, opp. Sai hall, Ashok Nagar, Ulkanagari, Chhatrapati Sambhajinagar, Maharashtra 431009, India",
    "neighborhood": "Ashok Nagar, Ulkanagari",
    "street": "Shop no.2, Plot no. 1, Dreamwheelzz- Preowned Premium bike and car consultancy, Near, Jawahar Nagar Police Station Rd, opp. Sai hall",
    "city": "Chhatrapati Sambhajinagar",
    "postalCode": "431009",
    "state": "Maharashtra",
    "countryCode": "IN",
    "website": "http://www.instagram.com/dreamwheelzz",
    "phone": "+919356412347",
    "phoneUnformatted": "+919356412347",
    "location": {
      "lat": 19.8658418,
      "lng": 75.3464467
    },
    "totalScore": 4.9,
    "permanentlyClosed": false,
    "temporarilyClosed": false,
    "placeId": "ChIJGcHQyiSZ2zsRC131oL3ptuw",
    "categories": [
      "Car dealer",
      "Motorsports store",
      "Motorcycle dealer",
      "Motorcycle parts store",
      "Used car dealer"
    ],
    "reviewsCount": 35,
    "imagesCount": 1,
    "openingHours": [
      {
        "day": "Monday",
        "hours": "10 AM to 7 PM"
      },
      {
        "day": "Tuesday",
        "hours": "10 AM to 7 PM"
      },
      {
        "day": "Wednesday",
        "hours": "10 AM to 7 PM"
      },
      {
        "day": "Thursday",
        "hours": "10 AM to 7 PM"
      },
      {
        "day": "Friday",
        "hours": "10 AM to 7 PM"
      },
      {
        "day": "Saturday",
        "hours": "10 AM to 7 PM"
      },
      {
        "day": "Sunday",
        "hours": "10 AM to 7 PM"
      }
    ],
    "imageUrl": "https://media.indianluxurycars.com/google/68e3a03afc8b1be08d655fe25edb171b1fa6c273e1489fdcdea9c8483c1e3663.jpg",
    "url": "https://www.google.com/maps/search/?api=1&query=DREAMWHEELZz%20preowned%20premium%20bikes%20and%20cars%20consultancy&query_place_id=ChIJGcHQyiSZ2zsRC131oL3ptuw"
  },
  {
    "title": "Green cab service",
    "subTitle": "ग्रीन कैब सर्विस",
    "categoryName": "Car rental agency",
    "address": "Khokadpura, Banjara Colony, Chhatrapati Sambhajinagar, Maharashtra 431001, India",
    "neighborhood": "Khokadpura, Banjara Colony",
    "city": "Chhatrapati Sambhajinagar",
    "postalCode": "431001",
    "state": "Maharashtra",
    "countryCode": "IN",
    "location": {
      "lat": 19.879277,
      "lng": 75.3297857
    },
    "totalScore": 4.9,
    "permanentlyClosed": false,
    "temporarilyClosed": false,
    "placeId": "ChIJpdLCH_uZ2zsRw_5Yk3daUuU",
    "categories": [
      "Car rental agency",
      "Car leasing service",
      "Rental car return location",
      "Taxi service"
    ],
    "reviewsCount": 70,
    "imagesCount": 36,
    "openingHours": [
      {
        "day": "Monday",
        "hours": "Open 24 hours"
      },
      {
        "day": "Tuesday",
        "hours": "Open 24 hours"
      },
      {
        "day": "Wednesday",
        "hours": "Open 24 hours"
      },
      {
        "day": "Thursday",
        "hours": "Open 24 hours"
      },
      {
        "day": "Friday",
        "hours": "Open 24 hours"
      },
      {
        "day": "Saturday",
        "hours": "Open 24 hours"
      },
      {
        "day": "Sunday",
        "hours": "Open 24 hours"
      }
    ],
    "imageUrl": "https://media.indianluxurycars.com/google/0c909b95978245d7d928ff63ed667f8d8e8e70d1c01a5fb7ef9593312281b812.jpg",
    "url": "https://www.google.com/maps/search/?api=1&query=Green%20cab%20service&query_place_id=ChIJpdLCH_uZ2zsRw_5Yk3daUuU"
  },
  {
    "title": "GURU NANAK TOURS & TRAVELS",
    "subTitle": "श्री गुरुनानक ट्रॅव्हल्स",
    "categoryName": "Car rental agency",
    "address": "Hotel Vijay Residency 35 town center opp MGM Hospital, Cidco, Chhatrapati Sambhajinagar, Maharashtra 431003, India",
    "neighborhood": "Town Center, Cidco",
    "street": "Hotel Vijay Residency 35 town center opp MGM Hospital",
    "city": "Chhatrapati Sambhajinagar",
    "postalCode": "431003",
    "state": "Maharashtra",
    "countryCode": "IN",
    "website": "http://www.gurunanaktravels.com/",
    "phone": "+919049999900",
    "phoneUnformatted": "+919049999900",
    "location": {
      "lat": 19.876389,
      "lng": 75.35419
    },
    "totalScore": 4.7,
    "permanentlyClosed": false,
    "temporarilyClosed": false,
    "placeId": "ChIJAznWom-Y2zsRgfMW8-GuHAU",
    "categories": [
      "Car rental agency",
      "Bus company",
      "Bus tour agency",
      "Car leasing service",
      "Taxi service",
      "Tour operator",
      "Tourist attraction",
      "Travel agency"
    ],
    "reviewsCount": 41,
    "imagesCount": 61,
    "openingHours": [],
    "imageUrl": "https://media.indianluxurycars.com/google/2edd92384a6790d30fa50c581a64be1f5a73b922deaf309e0db8ae2eeb982382.jpg",
    "url": "https://www.google.com/maps/search/?api=1&query=GURU%20NANAK%20TOURS%20%26%20TRAVELS&query_place_id=ChIJAznWom-Y2zsRgfMW8-GuHAU"
  },
  {
    "title": "Jaingiri Travels ( Tempo Traveller on Rent in Chhatrapati Sambhaji nagar )",
    "subTitle": "जैनगिरी ट्रेवल्स",
    "categoryName": "Car rental agency",
    "address": "Hudco, Sudarshan Nagar, N 11, Cidco, Chhatrapati Sambhajinagar, Maharashtra 431003, India",
    "neighborhood": "Hudco, Sudarshan Nagar, N 11, Cidco",
    "city": "Chhatrapati Sambhajinagar",
    "postalCode": "431003",
    "state": "Maharashtra",
    "countryCode": "IN",
    "website": "https://jaingiritravels.com/",
    "phone": "+919657765669",
    "phoneUnformatted": "+919657765669",
    "location": {
      "lat": 19.9061185,
      "lng": 75.3554232
    },
    "totalScore": 4.8,
    "permanentlyClosed": false,
    "temporarilyClosed": false,
    "placeId": "ChIJYeP9aIm92zsRBTjgYgCE-n0",
    "categories": [
      "Car rental agency",
      "Car leasing service",
      "Travel agency",
      "Minibus taxi service",
      "Religious destination",
      "Taxi service",
      "Tour agency",
      "Tour operator",
      "Tourist attraction",
      "Van rental agency"
    ],
    "reviewsCount": 249,
    "imagesCount": 170,
    "openingHours": [
      {
        "day": "Monday",
        "hours": "Open 24 hours"
      },
      {
        "day": "Tuesday",
        "hours": "Open 24 hours"
      },
      {
        "day": "Wednesday",
        "hours": "Open 24 hours"
      },
      {
        "day": "Thursday",
        "hours": "Open 24 hours"
      },
      {
        "day": "Friday",
        "hours": "Open 24 hours"
      },
      {
        "day": "Saturday",
        "hours": "Open 24 hours"
      },
      {
        "day": "Sunday",
        "hours": "Open 24 hours"
      }
    ],
    "imageUrl": "https://media.indianluxurycars.com/google/77c87be74377e64ea30b94fe872e1abc579862e7d7eda72a324aecea2d29d5c0.jpg",
    "url": "https://www.google.com/maps/search/?api=1&query=Jaingiri%20Travels%20(%20Tempo%20Traveller%20on%20Rent%20in%20Chhatrapati%20Sambhaji%20nagar%20)&query_place_id=ChIJYeP9aIm92zsRBTjgYgCE-n0"
  },
  {
    "title": "Jay Cabs in Aurangabad",
    "subTitle": "जय कॉब्स इन औरंगाबाद",
    "categoryName": "Car rental agency",
    "address": "Plot No. 137, Grusneswar Colony, Harsul, Chhatrapati Sambhajinagar, Maharashtra 431008, India",
    "neighborhood": "Grusneswar Colony, Harsul",
    "street": "Plot No. 137",
    "city": "Chhatrapati Sambhajinagar",
    "postalCode": "431008",
    "state": "Maharashtra",
    "countryCode": "IN",
    "website": "http://jaycab.in/",
    "phone": "+919595444595",
    "phoneUnformatted": "+919595444595",
    "location": {
      "lat": 19.9082894,
      "lng": 75.3608748
    },
    "totalScore": 5,
    "permanentlyClosed": false,
    "temporarilyClosed": false,
    "placeId": "ChIJWfiO6lqj2zsRDKj_wOTZBYQ",
    "categories": [
      "Car rental agency"
    ],
    "reviewsCount": 2,
    "imagesCount": 8,
    "openingHours": [
      {
        "day": "Monday",
        "hours": "Open 24 hours"
      },
      {
        "day": "Tuesday",
        "hours": "Open 24 hours"
      },
      {
        "day": "Wednesday",
        "hours": "Open 24 hours"
      },
      {
        "day": "Thursday",
        "hours": "9 AM to 5 PM"
      },
      {
        "day": "Friday",
        "hours": "Open 24 hours"
      },
      {
        "day": "Saturday",
        "hours": "Open 24 hours"
      },
      {
        "day": "Sunday",
        "hours": "Open 24 hours"
      }
    ],
    "imageUrl": "https://media.indianluxurycars.com/google/5de05defd902b214d0e17a8c6fb57e43d26896d6f0351052f9153c33979a09c2.jpg",
    "url": "https://www.google.com/maps/search/?api=1&query=Jay%20Cabs%20in%20Aurangabad&query_place_id=ChIJWfiO6lqj2zsRDKj_wOTZBYQ"
  },
  {
    "title": "JB Cabs, Car Rental In Aurangabad, Innova Crysta On rent, Ajanta Ellora Taxi Booking, Grishneshwar jyotirlinga Taxi",
    "subTitle": "जेबी कैब्स, कार रेंटल इन औरंगाबाद, इनोवा क्रिस्टा ऑन रेंट, अजंता एलोरा टैक्सी बुकिंग, घृष्णेश्वर ज्योतिर्लिंग टैक्सी",
    "categoryName": "Car rental agency",
    "address": "Shop no 1 Plot 49 N 3, Cidco 7, opposite Power House, Parimal Housing Society, N 3, Up Corner, Chhatrapati Sambhajinagar, Maharashtra 431001, India",
    "neighborhood": "Parimal Housing Society, N 3, Up Corner",
    "street": "Shop no 1 Plot 49 N 3, Cidco 7, opposite Power House",
    "city": "Chhatrapati Sambhajinagar",
    "postalCode": "431001",
    "state": "Maharashtra",
    "countryCode": "IN",
    "website": "https://jbcabs.com/",
    "phone": "+918446565611",
    "phoneUnformatted": "+918446565611",
    "location": {
      "lat": 19.8711951,
      "lng": 75.3624013
    },
    "totalScore": 4.9,
    "permanentlyClosed": false,
    "temporarilyClosed": false,
    "placeId": "ChIJ9w9vZPGi2zsRoG0imFwOxQA",
    "categories": [
      "Car rental agency",
      "Bus tour agency",
      "Car leasing service",
      "Taxi service",
      "Minibus taxi service",
      "Sightseeing tour agency",
      "Sport tour agency",
      "Tour agency",
      "Tour operator",
      "Van rental agency"
    ],
    "reviewsCount": 1010,
    "imagesCount": 151,
    "openingHours": [],
    "imageUrl": "https://media.indianluxurycars.com/google/684371c41020bbb9e4777082ee5d65bdb48e9cebe5fb7321d4b7a9b09e8220c6.jpg",
    "url": "https://www.google.com/maps/search/?api=1&query=JB%20Cabs%2C%20Car%20Rental%20In%20Aurangabad%2C%20Innova%20Crysta%20On%20rent%2C%20Ajanta%20Ellora%20Taxi%20Booking%2C%20Grishneshwar%20jyotirlinga%20Taxi&query_place_id=ChIJ9w9vZPGi2zsRoG0imFwOxQA"
  },
  {
    "title": "JK Tours & Travels LLP",
    "subTitle": "जे के टूर्स & ट्रॅव्हल्स",
    "categoryName": "Car rental agency",
    "address": "1st floor, Shop, Radhika Arcade, 114, Seven Hills Flyover Rd, Town Center, M G M, Chhatrapati Sambhajinagar, Maharashtra 431001, India",
    "neighborhood": "Town Center, M G M",
    "street": "1st floor, Shop, Radhika Arcade, 114, Seven Hills Flyover Rd",
    "city": "Chhatrapati Sambhajinagar",
    "postalCode": "431001",
    "state": "Maharashtra",
    "countryCode": "IN",
    "website": "https://www.jktrips.com/",
    "phone": "+918888290008",
    "phoneUnformatted": "+918888290008",
    "location": {
      "lat": 19.8752455,
      "lng": 75.3540264
    },
    "totalScore": 4.6,
    "permanentlyClosed": false,
    "temporarilyClosed": false,
    "placeId": "ChIJQRzBGaKi2zsRh8it2dEIYws",
    "categories": [
      "Car rental agency",
      "Car leasing service",
      "Travel agency",
      "Sightseeing tour agency",
      "Tour operator"
    ],
    "reviewsCount": 212,
    "imagesCount": 44,
    "openingHours": [
      {
        "day": "Monday",
        "hours": "Open 24 hours"
      },
      {
        "day": "Tuesday",
        "hours": "Open 24 hours"
      },
      {
        "day": "Wednesday",
        "hours": "Open 24 hours"
      },
      {
        "day": "Thursday",
        "hours": "Open 24 hours"
      },
      {
        "day": "Friday",
        "hours": "Open 24 hours"
      },
      {
        "day": "Saturday",
        "hours": "Open 24 hours"
      },
      {
        "day": "Sunday",
        "hours": "Open 24 hours"
      }
    ],
    "imageUrl": "https://media.indianluxurycars.com/google/9deed91c077a31453d4193bc1dbadddf1d85efce2fc7b44e7811f57d3913b424.jpg",
    "url": "https://www.google.com/maps/search/?api=1&query=JK%20Tours%20%26%20Travels%20LLP&query_place_id=ChIJQRzBGaKi2zsRh8it2dEIYws"
  },
  {
    "title": "King Motors",
    "subTitle": "किंग मोटर्स",
    "categoryName": "Car dealer",
    "address": "Oberoi Towers, Jalna Rd, opp. Govt Milk Scheme, Ramanand Colony, Chhatrapati Sambhajinagar, Maharashtra 431001, India",
    "neighborhood": "Ramanand Colony",
    "street": "Oberoi Towers, Jalna Rd, opp. Govt Milk Scheme",
    "city": "Chhatrapati Sambhajinagar",
    "postalCode": "431001",
    "state": "Maharashtra",
    "countryCode": "IN",
    "website": "http://kingmotorsusedcars.com/",
    "phone": "+919922791617",
    "phoneUnformatted": "+919922791617",
    "location": {
      "lat": 19.8745325,
      "lng": 75.3332694
    },
    "totalScore": 3.7,
    "permanentlyClosed": false,
    "temporarilyClosed": false,
    "placeId": "ChIJSUPtyGiY2zsRk-L4mpZtHDU",
    "categories": [
      "Car dealer",
      "Motor vehicle dealer",
      "Used car dealer"
    ],
    "reviewsCount": 117,
    "imagesCount": 24,
    "openingHours": [
      {
        "day": "Monday",
        "hours": "11 AM to 9 PM"
      },
      {
        "day": "Tuesday",
        "hours": "11 AM to 9 PM"
      },
      {
        "day": "Wednesday",
        "hours": "11 AM to 9 PM"
      },
      {
        "day": "Thursday",
        "hours": "11 AM to 9 PM"
      },
      {
        "day": "Friday",
        "hours": "11 AM to 9 PM"
      },
      {
        "day": "Saturday",
        "hours": "11 AM to 9 PM"
      },
      {
        "day": "Sunday",
        "hours": "11 AM to 5 PM"
      }
    ],
    "imageUrl": "https://media.indianluxurycars.com/google/77e334a187af544cd23d965b08d4ed26bdb851717be900e8c975918d6ec954da.jpg",
    "url": "https://www.google.com/maps/search/?api=1&query=King%20Motors&query_place_id=ChIJSUPtyGiY2zsRk-L4mpZtHDU"
  },
  {
    "title": "KM Car Rental",
    "subTitle": "किमी कार भाड्याने",
    "categoryName": "Car rental agency",
    "address": "M2 Rd, opp. Life Line Hostpital, Hudco, N 9, Cidco, Chhatrapati Sambhajinagar, Maharashtra 431003, India",
    "neighborhood": "Hudco, N 9, Cidco",
    "street": "M2 Rd, opp. Life Line Hostpital",
    "city": "Chhatrapati Sambhajinagar",
    "postalCode": "431003",
    "state": "Maharashtra",
    "countryCode": "IN",
    "phone": "+919960077444",
    "phoneUnformatted": "+919960077444",
    "location": {
      "lat": 19.901793,
      "lng": 75.355508
    },
    "totalScore": 2.3,
    "permanentlyClosed": false,
    "temporarilyClosed": false,
    "placeId": "ChIJRdPng7Gi2zsRPhYjH0rAHik",
    "categories": [
      "Car rental agency"
    ],
    "reviewsCount": 3,
    "imagesCount": 6,
    "openingHours": [
      {
        "day": "Monday",
        "hours": "9 AM to 9 PM"
      },
      {
        "day": "Tuesday",
        "hours": "9 AM to 9 PM"
      },
      {
        "day": "Wednesday",
        "hours": "9 AM to 9 PM"
      },
      {
        "day": "Thursday",
        "hours": "9 AM to 9 PM"
      },
      {
        "day": "Friday",
        "hours": "9 AM to 9 PM"
      },
      {
        "day": "Saturday",
        "hours": "9 AM to 9 PM"
      },
      {
        "day": "Sunday",
        "hours": "9 AM to 9 PM"
      }
    ],
    "imageUrl": "https://media.indianluxurycars.com/google/aae15cf75608deb3e06306dabc47a3e0dcc7576120c62f854a2f81b9b93215e7.jpg",
    "url": "https://www.google.com/maps/search/?api=1&query=KM%20Car%20Rental&query_place_id=ChIJRdPng7Gi2zsRPhYjH0rAHik"
  },
  {
    "title": "KM Holidays",
    "subTitle": "किमी हॉलिडेज",
    "categoryName": "Car rental agency",
    "address": "Beside Gulab Vishwa hall, N 8, Cidco, Chhatrapati Sambhajinagar, Maharashtra 431003, India",
    "neighborhood": "N 8, Cidco",
    "street": "Beside Gulab Vishwa hall",
    "city": "Chhatrapati Sambhajinagar",
    "postalCode": "431003",
    "state": "Maharashtra",
    "countryCode": "IN",
    "website": "http://www.kmholidays.in/",
    "phone": "+919960077444",
    "phoneUnformatted": "+919960077444",
    "location": {
      "lat": 19.8942527,
      "lng": 75.3537874
    },
    "totalScore": 4.5,
    "permanentlyClosed": false,
    "temporarilyClosed": false,
    "placeId": "ChIJg-3t7bOi2zsRTSMWQxtIUCw",
    "categories": [
      "Car rental agency"
    ],
    "reviewsCount": 131,
    "imagesCount": 29,
    "openingHours": [
      {
        "day": "Monday",
        "hours": "10 AM to 9:30 PM"
      },
      {
        "day": "Tuesday",
        "hours": "10 AM to 9:30 PM"
      },
      {
        "day": "Wednesday",
        "hours": "10 AM to 9:30 PM"
      },
      {
        "day": "Thursday",
        "hours": "10 AM to 9:30 PM"
      },
      {
        "day": "Friday",
        "hours": "10 AM to 9:30 PM"
      },
      {
        "day": "Saturday",
        "hours": "10 AM to 9:30 PM"
      },
      {
        "day": "Sunday",
        "hours": "10 AM to 9:30 PM"
      }
    ],
    "imageUrl": "https://media.indianluxurycars.com/google/48f4e86de0aa7a18a6f7a31f3cde0337266399949e5d20bfe1791fa7ac06aac5.jpg",
    "url": "https://www.google.com/maps/search/?api=1&query=KM%20Holidays&query_place_id=ChIJg-3t7bOi2zsRTSMWQxtIUCw"
  },
  {
    "title": "Manali Holidays | Tour Operator In Chhatrapati Sambhajinagar Aurangabad |",
    "subTitle": "मनाली होलीडेज | टूर ऑपरेटर इन छत्रपति संभाजी नगर औरंगाबाद |",
    "categoryName": "Car leasing service",
    "address": "Flat No 3, Kalyani Garden, New SBH Colony, Jyoti Nagar, New Usmanpura, Chhatrapati Sambhajinagar, Maharashtra 431005, India",
    "neighborhood": "New SBH Colony, Jyoti Nagar, New Usmanpura",
    "street": "Flat No 3, Kalyani Garden",
    "city": "Chhatrapati Sambhajinagar",
    "postalCode": "431005",
    "state": "Maharashtra",
    "countryCode": "IN",
    "website": "http://www.manaliholidays.co.in/",
    "phone": "+919145122305",
    "phoneUnformatted": "+919145122305",
    "location": {
      "lat": 19.8619293,
      "lng": 75.3339982
    },
    "totalScore": 5,
    "permanentlyClosed": false,
    "temporarilyClosed": false,
    "placeId": "ChIJQR9uuIeZ2zsRjayTcB98Q5U",
    "categories": [
      "Car leasing service",
      "Airline ticket agency",
      "Bus ticket agency",
      "Tour operator",
      "Passport agent",
      "Taxi service",
      "Train ticket agency",
      "Travel agency",
      "Visa consulting service"
    ],
    "reviewsCount": 40,
    "imagesCount": 56,
    "openingHours": [
      {
        "day": "Monday",
        "hours": "9 AM to 8:30 PM"
      },
      {
        "day": "Tuesday",
        "hours": "9 AM to 8:30 PM"
      },
      {
        "day": "Wednesday",
        "hours": "9 AM to 8:30 PM"
      },
      {
        "day": "Thursday",
        "hours": "9 AM to 8:30 PM"
      },
      {
        "day": "Friday",
        "hours": "9 AM to 8:30 PM"
      },
      {
        "day": "Saturday",
        "hours": "9 AM to 8:30 PM"
      },
      {
        "day": "Sunday",
        "hours": "9 AM to 8:30 PM"
      }
    ],
    "imageUrl": "https://media.indianluxurycars.com/google/54565f3528847bba274ff07936498e8f93d2358992ffa5990b9d421db3c7ad81.jpg",
    "url": "https://www.google.com/maps/search/?api=1&query=Manali%20Holidays%20%7C%20Tour%20Operator%20In%20Chhatrapati%20Sambhajinagar%20Aurangabad%20%7C&query_place_id=ChIJQR9uuIeZ2zsRjayTcB98Q5U"
  },
  {
    "title": "Mauli Tours & Travels",
    "subTitle": "मौली टूर्स & ट्रैवल्स",
    "categoryName": "Car leasing service",
    "address": "Chatrapati, near Prozone Mall, Sambhaji Nagar, N 1, Cidco, Chhatrapati Sambhajinagar, Maharashtra 431006, India",
    "neighborhood": "Sambhaji Nagar, N 1, Cidco",
    "street": "Chatrapati, near Prozone Mall",
    "city": "Chhatrapati Sambhajinagar",
    "postalCode": "431006",
    "state": "Maharashtra",
    "countryCode": "IN",
    "website": "https://maulicab.com/",
    "phone": "+919270301125",
    "phoneUnformatted": "+919270301125",
    "location": {
      "lat": 19.8780999,
      "lng": 75.3710307
    },
    "totalScore": 5,
    "permanentlyClosed": false,
    "temporarilyClosed": false,
    "placeId": "ChIJk8QiLmKj2zsRyLGNT02Q9zA",
    "categories": [
      "Car leasing service",
      "Taxi service"
    ],
    "reviewsCount": 106,
    "imagesCount": 39,
    "openingHours": [],
    "imageUrl": "https://media.indianluxurycars.com/google/dee06284e582934bfeffbf02884112dec3d60d9213fd408b19ababc85486b1b2.jpg",
    "url": "https://www.google.com/maps/search/?api=1&query=Mauli%20Tours%20%26%20Travels&query_place_id=ChIJk8QiLmKj2zsRyLGNT02Q9zA"
  },
  {
    "title": "MG Motor Dhoot Motor Showroom",
    "subTitle": "एम जी मोटर इंडिया",
    "categoryName": "MG dealer",
    "address": "ABC Complex, Adalat Rd, Samadhan Colony, Chintamani Colony, Chhatrapati Sambhajinagar, Maharashtra 431005, India",
    "neighborhood": "Samadhan Colony, Chintamani Colony",
    "street": "ABC Complex, Adalat Rd",
    "city": "Chhatrapati Sambhajinagar",
    "postalCode": "431005",
    "state": "Maharashtra",
    "countryCode": "IN",
    "website": "https://dealers.mgmotor.co.in/mg-motor-dhoot-motor-showroom-car-dealer-chintamani-colony-aurangabad-371952/Home",
    "phone": "+918007778855",
    "phoneUnformatted": "+918007778855",
    "location": {
      "lat": 19.8730304,
      "lng": 75.3182688
    },
    "totalScore": 4.1,
    "permanentlyClosed": false,
    "temporarilyClosed": false,
    "placeId": "ChIJ2ynTB1eZ2zsRRPutcR_iGSw",
    "categories": [
      "MG dealer",
      "Car dealer",
      "Motor vehicle dealer"
    ],
    "reviewsCount": 101,
    "imagesCount": 77,
    "openingHours": [
      {
        "day": "Monday",
        "hours": "10 AM to 7 PM"
      },
      {
        "day": "Tuesday",
        "hours": "10 AM to 7 PM"
      },
      {
        "day": "Wednesday",
        "hours": "10 AM to 7 PM"
      },
      {
        "day": "Thursday",
        "hours": "10 AM to 7 PM"
      },
      {
        "day": "Friday",
        "hours": "10 AM to 7 PM"
      },
      {
        "day": "Saturday",
        "hours": "10 AM to 7 PM"
      },
      {
        "day": "Sunday",
        "hours": "10 AM to 12 AM"
      }
    ],
    "imageUrl": "https://media.indianluxurycars.com/google/16882a96fc65a0ad45c2f4e8180b598d6a0a1e44e82e106465337eb907c94472.jpg",
    "url": "https://www.google.com/maps/search/?api=1&query=MG%20Motor%20Dhoot%20Motor%20Showroom&query_place_id=ChIJ2ynTB1eZ2zsRRPutcR_iGSw"
  },
  {
    "title": "Mh20holidays",
    "subTitle": "एमएच20हॉलीडेज",
    "categoryName": "Rental car return location",
    "address": "Kala darwaja, Near, VIP Rd, opposite Haj House, Himayat Bagh, Chhatrapati Sambhajinagar, Maharashtra 431001, India",
    "neighborhood": "Himayat Bagh",
    "street": "Kala darwaja, Near, VIP Rd, opposite Haj House",
    "city": "Chhatrapati Sambhajinagar",
    "postalCode": "431001",
    "state": "Maharashtra",
    "countryCode": "IN",
    "phone": "+917678000149",
    "phoneUnformatted": "+917678000149",
    "location": {
      "lat": 19.8932547,
      "lng": 75.3313474
    },
    "totalScore": 5,
    "permanentlyClosed": false,
    "temporarilyClosed": false,
    "placeId": "ChIJVRVB4RGZ2zsRj1ESnmXaFB0",
    "categories": [
      "Rental car return location"
    ],
    "reviewsCount": 4,
    "imagesCount": 2,
    "openingHours": [
      {
        "day": "Monday",
        "hours": "Open 24 hours"
      },
      {
        "day": "Tuesday",
        "hours": "Open 24 hours"
      },
      {
        "day": "Wednesday",
        "hours": "Open 24 hours"
      },
      {
        "day": "Thursday",
        "hours": "Open 24 hours"
      },
      {
        "day": "Friday",
        "hours": "Open 24 hours"
      },
      {
        "day": "Saturday",
        "hours": "Open 24 hours"
      },
      {
        "day": "Sunday",
        "hours": "7 AM to 5 PM"
      }
    ],
    "imageUrl": "https://media.indianluxurycars.com/google/496e80c37339abbc11fe3e32960022041a9d18989ce737aecb0bcc2f7f5298dd.jpg",
    "url": "https://www.google.com/maps/search/?api=1&query=Mh20holidays&query_place_id=ChIJVRVB4RGZ2zsRj1ESnmXaFB0"
  },
  {
    "title": "Mohit Auto Cars",
    "subTitle": "मोहित ऑटो कार",
    "categoryName": "Used car dealer",
    "address": "Sambhaji Nagar, Town Centre, N 1, Cidco, Chhatrapati Sambhajinagar, Maharashtra 431006, India",
    "neighborhood": "Sambhaji Nagar, Town Centre, N 1, Cidco",
    "city": "Chhatrapati Sambhajinagar",
    "postalCode": "431006",
    "state": "Maharashtra",
    "countryCode": "IN",
    "website": "https://mohitautocars.com/",
    "phone": "+919766364114",
    "phoneUnformatted": "+919766364114",
    "location": {
      "lat": 19.8745253,
      "lng": 75.3687138
    },
    "totalScore": 4.4,
    "permanentlyClosed": false,
    "temporarilyClosed": false,
    "placeId": "ChIJPdcKi-2i2zsRdrOxDhOu7V8",
    "categories": [
      "Used car dealer"
    ],
    "reviewsCount": 73,
    "imagesCount": 71,
    "openingHours": [
      {
        "day": "Monday",
        "hours": "10 AM to 8 PM"
      },
      {
        "day": "Tuesday",
        "hours": "10 AM to 8 PM"
      },
      {
        "day": "Wednesday",
        "hours": "10 AM to 8 PM"
      },
      {
        "day": "Thursday",
        "hours": "10 AM to 8 PM"
      },
      {
        "day": "Friday",
        "hours": "10 AM to 8 PM"
      },
      {
        "day": "Saturday",
        "hours": "10 AM to 8 PM"
      },
      {
        "day": "Sunday",
        "hours": "10 AM to 2 PM"
      }
    ],
    "imageUrl": "https://media.indianluxurycars.com/google/34e5a2be73d0d5f04dab6e2b3f600937727b24473ea1fb3d99108c4b26b89a4c.jpg",
    "url": "https://www.google.com/maps/search/?api=1&query=Mohit%20Auto%20Cars&query_place_id=ChIJPdcKi-2i2zsRdrOxDhOu7V8"
  },
  {
    "title": "ms car rental",
    "subTitle": "एमएस कार रेंटल",
    "categoryName": "Car rental agency",
    "address": "Post Office Rd, Juna Bazar, City Chowk, Juna Bazaar, Naralibag, Chhatrapati Sambhajinagar, Maharashtra 431001, India",
    "neighborhood": "Juna Bazar, City Chowk, Juna Bazaar, Naralibag",
    "street": "Post Office Rd",
    "city": "Chhatrapati Sambhajinagar",
    "postalCode": "431001",
    "state": "Maharashtra",
    "countryCode": "IN",
    "website": "https://mscarrentals.in/",
    "phone": "+918975099913",
    "phoneUnformatted": "+918975099913",
    "location": {
      "lat": 19.8883265,
      "lng": 75.328366
    },
    "totalScore": 4.9,
    "permanentlyClosed": false,
    "temporarilyClosed": false,
    "placeId": "ChIJ_wE5RHaY2zsRsdFHGluDyk8",
    "categories": [
      "Car rental agency"
    ],
    "reviewsCount": 180,
    "imagesCount": 29,
    "openingHours": [
      {
        "day": "Monday",
        "hours": "Open 24 hours"
      },
      {
        "day": "Tuesday",
        "hours": "Open 24 hours"
      },
      {
        "day": "Wednesday",
        "hours": "Open 24 hours"
      },
      {
        "day": "Thursday",
        "hours": "Open 24 hours"
      },
      {
        "day": "Friday",
        "hours": "Open 24 hours"
      },
      {
        "day": "Saturday",
        "hours": "Open 24 hours"
      },
      {
        "day": "Sunday",
        "hours": "Open 24 hours"
      }
    ],
    "imageUrl": "https://media.indianluxurycars.com/google/8f7d268559e4dbeb21d2b7f9c097035ba80f10cd46fa70f7f8ad7792c1a4e1eb.jpg",
    "url": "https://www.google.com/maps/search/?api=1&query=ms%20car%20rental&query_place_id=ChIJ_wE5RHaY2zsRsdFHGluDyk8"
  },
  {
    "title": "NEXA (Pagariya Auto, Aurangabad, Seven Hills)",
    "subTitle": "नेक्सा (पगारिया ऑटो, औरंगाबाद, सेवन हिल्स)",
    "categoryName": "Car dealer",
    "address": "Jana Road, opp. Air India Office, Rana Nagar, Motiwala Complex, Nyay Nagar, Chhatrapati Sambhajinagar, Maharashtra 431009, India",
    "neighborhood": "Rana Nagar, Motiwala Complex, Nyay Nagar",
    "street": "Jana Road, opp. Air India Office",
    "city": "Chhatrapati Sambhajinagar",
    "postalCode": "431009",
    "state": "Maharashtra",
    "countryCode": "IN",
    "website": "http://nexaofsevenhills.com/?utm_source=gmb&utm_medium=google",
    "phone": "+918062510937",
    "phoneUnformatted": "+918062510937",
    "location": {
      "lat": 19.8746496,
      "lng": 75.3558202
    },
    "totalScore": 4.2,
    "permanentlyClosed": false,
    "temporarilyClosed": false,
    "placeId": "ChIJq7uvq5ui2zsRve9SomkmKXU",
    "categories": [
      "Car dealer"
    ],
    "reviewsCount": 599,
    "imagesCount": 253,
    "openingHours": [
      {
        "day": "Monday",
        "hours": "9 AM to 9 PM"
      },
      {
        "day": "Tuesday",
        "hours": "9 AM to 9 PM"
      },
      {
        "day": "Wednesday",
        "hours": "9 AM to 9 PM"
      },
      {
        "day": "Thursday",
        "hours": "9 AM to 9 PM"
      },
      {
        "day": "Friday",
        "hours": "9 AM to 9 PM"
      },
      {
        "day": "Saturday",
        "hours": "9 AM to 9 PM"
      },
      {
        "day": "Sunday",
        "hours": "9 AM to 9 PM"
      }
    ],
    "imageUrl": "https://media.indianluxurycars.com/google/b8b6e147bd5e09590406de67107bb682a47a82d0a7ef5aac79dd1f8a74fecc8a.jpg",
    "url": "https://www.google.com/maps/search/?api=1&query=NEXA%20(Pagariya%20Auto%2C%20Aurangabad%2C%20Seven%20Hills)&query_place_id=ChIJq7uvq5ui2zsRve9SomkmKXU"
  },
  {
    "title": "PATIL TAXI SERVICE",
    "subTitle": "पाटिल टैक्सी सर्विस",
    "categoryName": "Car rental agency",
    "address": "Ganesh Nagar, Sara Raaj Nagar, Garkheda, Chhatrapati Sambhajinagar, Maharashtra 431001, India",
    "neighborhood": "Ganesh Nagar, Sara Raaj Nagar, Garkheda",
    "city": "Chhatrapati Sambhajinagar",
    "postalCode": "431001",
    "state": "Maharashtra",
    "countryCode": "IN",
    "website": "https://sites.google.com/view/patiltravels/home?authuser=0",
    "phone": "+918668292896",
    "phoneUnformatted": "+918668292896",
    "location": {
      "lat": 19.8581598,
      "lng": 75.3633979
    },
    "totalScore": 5,
    "permanentlyClosed": false,
    "temporarilyClosed": false,
    "placeId": "ChIJGyQ4oPej2zsRXROePTIMIlE",
    "categories": [
      "Car rental agency",
      "Car leasing service",
      "Taxi service"
    ],
    "reviewsCount": 10,
    "imagesCount": 25,
    "openingHours": [],
    "imageUrl": "https://media.indianluxurycars.com/google/af9e62fdeacc86d1543e6ea5009972ec115cd8116e6b66766e284cf5eedef463.jpg",
    "url": "https://www.google.com/maps/search/?api=1&query=PATIL%20TAXI%20SERVICE&query_place_id=ChIJGyQ4oPej2zsRXROePTIMIlE"
  },
  {
    "title": "Ramble Car Rental & Holidays",
    "subTitle": "रंबल कार रेंटल & होलीडेज",
    "categoryName": "Car rental agency",
    "address": "P Damadi Mahal, Shop No 1, Ground Floor, Faiz Palace, Plot No 42, Collector Office Rd, Fazalpura, Chhatrapati Sambhajinagar, Maharashtra 431001, India",
    "neighborhood": "Fazalpura, Saint Colony, Shah Bazar",
    "street": "P Damadi Mahal, Shop No 1, Ground Floor, Faiz Palace, Plot No 42, Collector Office Rd",
    "city": "Chhatrapati Sambhajinagar",
    "postalCode": "431001",
    "state": "Maharashtra",
    "countryCode": "IN",
    "website": "https://www.ramblecarrental.in/",
    "phone": "+918432061995",
    "phoneUnformatted": "+918432061995",
    "location": {
      "lat": 19.8927171,
      "lng": 75.3400859
    },
    "totalScore": 4.7,
    "permanentlyClosed": false,
    "temporarilyClosed": false,
    "placeId": "ChIJuZ5ZqiyZ2zsRh_oEGytv5X0",
    "categories": [
      "Car rental agency",
      "Car leasing service",
      "Corporate office",
      "Sightseeing tour agency",
      "Taxi service",
      "Tour operator",
      "Tourist attraction",
      "Tourist information center",
      "Transportation service",
      "Travel agency"
    ],
    "reviewsCount": 92,
    "imagesCount": 20,
    "openingHours": [
      {
        "day": "Monday",
        "hours": "9 AM to 9 PM"
      },
      {
        "day": "Tuesday",
        "hours": "9 AM to 9 PM"
      },
      {
        "day": "Wednesday",
        "hours": "9 AM to 9 PM"
      },
      {
        "day": "Thursday",
        "hours": "9 AM to 9 PM"
      },
      {
        "day": "Friday",
        "hours": "9 AM to 9 PM"
      },
      {
        "day": "Saturday",
        "hours": "9 AM to 9 PM"
      },
      {
        "day": "Sunday",
        "hours": "9 AM to 9 PM"
      }
    ],
    "imageUrl": "https://media.indianluxurycars.com/google/8107af6841c1027ed747ecdef94c3649e3633ab170e889da44ccf6a5cf78c256.jpg",
    "url": "https://www.google.com/maps/search/?api=1&query=Ramble%20Car%20Rental%20%26%20Holidays&query_place_id=ChIJuZ5ZqiyZ2zsRh_oEGytv5X0"
  },
  {
    "title": "Riddhi Tours and Travels",
    "subTitle": "रिद्धि टूर्स एंड ट्रैवल्स",
    "categoryName": "Car rental agency",
    "address": "Office no. 3, Ajmera Towers, Plot no. 9, opp. Jawahar Nagar Road, Traffic Signal, Mehar Nagar, Garkheda, Chhatrapati Sambhajinagar, Maharashtra 431009, India",
    "neighborhood": "Traffic Signal, Mehar Nagar, Garkheda",
    "street": "Office no. 3, Ajmera Towers, Plot no. 9, opp. Jawahar Nagar Road",
    "city": "Chhatrapati Sambhajinagar",
    "postalCode": "431009",
    "state": "Maharashtra",
    "countryCode": "IN",
    "website": "https://riddhitours.com/",
    "phone": "+919689177776",
    "phoneUnformatted": "+919689177776",
    "location": {
      "lat": 19.8636462,
      "lng": 75.3485575
    },
    "totalScore": 4.8,
    "permanentlyClosed": false,
    "temporarilyClosed": false,
    "placeId": "ChIJk2AA4zxC14IRz_zlqqqturY",
    "categories": [
      "Car rental agency"
    ],
    "reviewsCount": 141,
    "imagesCount": 63,
    "openingHours": [
      {
        "day": "Monday",
        "hours": "Open 24 hours"
      },
      {
        "day": "Tuesday",
        "hours": "Open 24 hours"
      },
      {
        "day": "Wednesday",
        "hours": "Open 24 hours"
      },
      {
        "day": "Thursday",
        "hours": "Open 24 hours"
      },
      {
        "day": "Friday",
        "hours": "Open 24 hours"
      },
      {
        "day": "Saturday",
        "hours": "Open 24 hours"
      },
      {
        "day": "Sunday",
        "hours": "Open 24 hours"
      }
    ],
    "imageUrl": "https://media.indianluxurycars.com/google/99f2cc42ed268a01d584bda3410be02a22327c52087d0706f5e61e2f62342de0.jpg",
    "url": "https://www.google.com/maps/search/?api=1&query=Riddhi%20Tours%20and%20Travels&query_place_id=ChIJk2AA4zxC14IRz_zlqqqturY"
  },
  {
    "title": "Royal cars",
    "subTitle": "रॉयल कार्स",
    "categoryName": "Car dealer",
    "address": "Beed Bypass Rd, MIDC, Chhatrapati Sambhajinagar, Maharashtra 431011, India",
    "neighborhood": "MIDC",
    "street": "Beed Bypass Rd",
    "city": "Chhatrapati Sambhajinagar",
    "postalCode": "431011",
    "state": "Maharashtra",
    "countryCode": "IN",
    "phone": "+919923121000",
    "phoneUnformatted": "+919923121000",
    "location": {
      "lat": 19.8548553,
      "lng": 75.3026687
    },
    "totalScore": 5,
    "permanentlyClosed": false,
    "temporarilyClosed": false,
    "placeId": "ChIJffvFupWZ2zsRhlVbVlNQFDc",
    "categories": [
      "Car dealer"
    ],
    "reviewsCount": 1,
    "imagesCount": 10,
    "openingHours": [
      {
        "day": "Monday",
        "hours": "9 AM to 9 PM"
      },
      {
        "day": "Tuesday",
        "hours": "9 AM to 9 PM"
      },
      {
        "day": "Wednesday",
        "hours": "9 AM to 9 PM"
      },
      {
        "day": "Thursday",
        "hours": "9 AM to 9:30 PM"
      },
      {
        "day": "Friday",
        "hours": "9 AM to 9 PM"
      },
      {
        "day": "Saturday",
        "hours": "9 AM to 9 PM"
      },
      {
        "day": "Sunday",
        "hours": "9 AM to 9 PM"
      }
    ],
    "imageUrl": "https://media.indianluxurycars.com/google/24597da453ec72b3401e21ab1a29580a08a4a595c53973223e691e9de8095bef.jpg",
    "url": "https://www.google.com/maps/search/?api=1&query=Royal%20cars&query_place_id=ChIJffvFupWZ2zsRhlVbVlNQFDc"
  },
  {
    "title": "Saibaba Travels",
    "subTitle": "साईबाबा ट्रेवल्स",
    "categoryName": "Car rental agency",
    "address": "Shop No.88, Jalna Rd, Sindhi Colony, Chhatrapati Sambhajinagar, Maharashtra 431001, India",
    "neighborhood": "New Balaji Nagar, Sindhi Colony",
    "street": "Shop No.88, Jalna Rd, Sindhi Colony",
    "city": "Chhatrapati Sambhajinagar",
    "postalCode": "431001",
    "state": "Maharashtra",
    "countryCode": "IN",
    "website": "http://www.saibabatravels.com/",
    "phone": "+912402351612",
    "phoneUnformatted": "+912402351612",
    "location": {
      "lat": 19.8751892,
      "lng": 75.3373703
    },
    "totalScore": 4.4,
    "permanentlyClosed": false,
    "temporarilyClosed": false,
    "placeId": "ChIJtYnnLnaY2zsRTOsmIPdKT-A",
    "categories": [
      "Car rental agency",
      "Bus charter",
      "Bus tour agency",
      "Car leasing service",
      "Taxi service",
      "Tour agency",
      "Tour operator",
      "Tourist information center"
    ],
    "reviewsCount": 388,
    "imagesCount": 92,
    "openingHours": [],
    "imageUrl": "https://media.indianluxurycars.com/google/0ce8998b02c1e5fbec48a3b7dd16434c4f582746a2f95f2d68923866c1a01f38.jpg",
    "url": "https://www.google.com/maps/search/?api=1&query=Saibaba%20Travels&query_place_id=ChIJtYnnLnaY2zsRTOsmIPdKT-A"
  },
  {
    "title": "SAIRAJ TRAVELS",
    "subTitle": "साईराज ट्रैवल्स",
    "categoryName": "Car rental agency",
    "address": "Lan No 05, Plot No-87, New Hanuman Nagar, Sector N 4, Cidco, Chhatrapati Sambhajinagar, Maharashtra 431009, India",
    "neighborhood": "New Hanuman Nagar, Sector N 4, Cidco",
    "street": "Lan No 05, Plot No-87",
    "city": "Chhatrapati Sambhajinagar",
    "postalCode": "431009",
    "state": "Maharashtra",
    "countryCode": "IN",
    "phone": "+919890798615",
    "phoneUnformatted": "+919890798615",
    "location": {
      "lat": 19.865215,
      "lng": 75.3602905
    },
    "totalScore": 4.9,
    "permanentlyClosed": false,
    "temporarilyClosed": false,
    "placeId": "ChIJLy064RGj2zsRsg2NVg3ABAM",
    "categories": [
      "Car rental agency",
      "Travel agency"
    ],
    "reviewsCount": 30,
    "imagesCount": 29,
    "openingHours": [
      {
        "day": "Monday",
        "hours": "Open 24 hours"
      },
      {
        "day": "Tuesday",
        "hours": "Open 24 hours"
      },
      {
        "day": "Wednesday",
        "hours": "Open 24 hours"
      },
      {
        "day": "Thursday",
        "hours": "Open 24 hours"
      },
      {
        "day": "Friday",
        "hours": "Open 24 hours"
      },
      {
        "day": "Saturday",
        "hours": "Open 24 hours"
      },
      {
        "day": "Sunday",
        "hours": "Open 24 hours"
      }
    ],
    "imageUrl": "https://media.indianluxurycars.com/google/2dc178c8a8ba8a1ff38d0186ef426dfacadc79717203bd0aedbc5c5ed51f62b2.jpg",
    "url": "https://www.google.com/maps/search/?api=1&query=SAIRAJ%20TRAVELS&query_place_id=ChIJLy064RGj2zsRsg2NVg3ABAM"
  },
  {
    "title": "Sairam tours and travels",
    "subTitle": "साईराम टूर्स एंड ट्रैवल्स",
    "categoryName": "Car rental agency",
    "address": "Shop no 11, Railway Station, Bhaji Mandi Road, Rajnagar, MIDC, Chhatrapati Sambhajinagar, Maharashtra 431005, India",
    "neighborhood": "Rajnagar, MIDC",
    "street": "Shop no 11, Railway Station, Bhaji Mandi Road",
    "city": "Chhatrapati Sambhajinagar",
    "postalCode": "431005",
    "state": "Maharashtra",
    "countryCode": "IN",
    "website": "https://sairamtoursandtravels.com/",
    "phone": "+918766668286",
    "phoneUnformatted": "+918766668286",
    "location": {
      "lat": 19.8621089,
      "lng": 75.3118689
    },
    "totalScore": 5,
    "permanentlyClosed": false,
    "temporarilyClosed": false,
    "placeId": "ChIJQRYBbmeZ2zsRNIMFmRZbzjs",
    "categories": [
      "Car rental agency",
      "Bus tour agency",
      "Car leasing service",
      "Taxi service",
      "Minibus taxi service",
      "Tour agency",
      "Travel agency"
    ],
    "reviewsCount": 65,
    "imagesCount": 3,
    "openingHours": [],
    "imageUrl": "https://media.indianluxurycars.com/google/81c994e3f49a4a5a67605af72a543eef2a036676aafa41470e02c3cc6d070757.jpg",
    "url": "https://www.google.com/maps/search/?api=1&query=Sairam%20tours%20and%20travels&query_place_id=ChIJQRYBbmeZ2zsRNIMFmRZbzjs"
  },
  {
    "title": "Saivijay Tours and Travels",
    "subTitle": "साईंविजय टूर्स एंड ट्रैवल्स",
    "categoryName": "Car leasing service",
    "address": "suryadip nagar, New Usmanpura, Chhatrapati Sambhajinagar, Maharashtra 431005, India",
    "neighborhood": "suryadip nagar, New Usmanpura",
    "city": "Chhatrapati Sambhajinagar",
    "postalCode": "431005",
    "state": "Maharashtra",
    "countryCode": "IN",
    "phone": "+919595425444",
    "phoneUnformatted": "+919595425444",
    "location": {
      "lat": 19.8638992,
      "lng": 75.3325655
    },
    "totalScore": 5,
    "permanentlyClosed": false,
    "temporarilyClosed": false,
    "placeId": "ChIJNT2Rr5eZ2zsRyrHVl4PlyWA",
    "categories": [
      "Car leasing service",
      "Minibus taxi service",
      "Rental car return location",
      "Taxi service",
      "Tour agency",
      "Tour operator"
    ],
    "reviewsCount": 24,
    "imagesCount": 69,
    "openingHours": [
      {
        "day": "Monday",
        "hours": "Open 24 hours"
      },
      {
        "day": "Tuesday",
        "hours": "Open 24 hours"
      },
      {
        "day": "Wednesday",
        "hours": "Open 24 hours"
      },
      {
        "day": "Thursday",
        "hours": "Open 24 hours"
      },
      {
        "day": "Friday",
        "hours": "Open 24 hours"
      },
      {
        "day": "Saturday",
        "hours": "Open 24 hours"
      },
      {
        "day": "Sunday",
        "hours": "Open 24 hours"
      }
    ],
    "imageUrl": "https://media.indianluxurycars.com/google/d57e364e4e5b1daa52465ffc60c03aa22c04b49dffeab406882f9345aa99402f.jpg",
    "url": "https://www.google.com/maps/search/?api=1&query=Saivijay%20Tours%20and%20Travels&query_place_id=ChIJNT2Rr5eZ2zsRyrHVl4PlyWA"
  },
  {
    "title": "Samta Group Travels",
    "subTitle": "समता ग्रुप ट्रैवल्स",
    "categoryName": "Car rental agency",
    "address": "Office No 1, Mb 1, opp. Dnyanesh School, Adarsh Colony, Prabodhankar Thakare Nagar, N 2, Cidco, Chhatrapati Sambhajinagar, Maharashtra 431006, India",
    "neighborhood": "Adarsh Colony, Prabodhankar Thakare Nagar, N 2, Cidco",
    "street": "Office No 1, Mb 1, opp. Dnyanesh School",
    "city": "Chhatrapati Sambhajinagar",
    "postalCode": "431006",
    "state": "Maharashtra",
    "countryCode": "IN",
    "website": "https://samtatoursandtravels.com/",
    "phone": "+919420241215",
    "phoneUnformatted": "+919420241215",
    "location": {
      "lat": 19.870762,
      "lng": 75.3725379
    },
    "totalScore": 5,
    "permanentlyClosed": false,
    "temporarilyClosed": false,
    "placeId": "ChIJuQHP9S6j2zsRALSjYcUHEyk",
    "categories": [
      "Car rental agency",
      "Car leasing service",
      "Bus tour agency",
      "Minibus taxi service",
      "Taxi service",
      "Travel agency"
    ],
    "reviewsCount": 46,
    "imagesCount": 130,
    "openingHours": [],
    "imageUrl": "https://media.indianluxurycars.com/google/fee6b8e867c1dd050e3823504d792b4da3896e26af188edd1b8b0968c1ece350.jpg",
    "url": "https://www.google.com/maps/search/?api=1&query=Samta%20Group%20Travels&query_place_id=ChIJuQHP9S6j2zsRALSjYcUHEyk"
  },
  {
    "title": "Sarita Tours And Travels",
    "subTitle": "सरिता टूर्स एंड ट्रैवल्स",
    "categoryName": "Car rental agency",
    "address": "Shop No. 3, Plot No - 76, 11, Arch Antra, N 7, Cidco, Chhatrapati Sambhajinagar, Maharashtra 431003, India",
    "neighborhood": "N 7, Cidco",
    "street": "Shop No. 3, Plot No - 76, 11, Arch Antra",
    "city": "Chhatrapati Sambhajinagar",
    "postalCode": "431003",
    "state": "Maharashtra",
    "countryCode": "IN",
    "phone": "+919637071288",
    "phoneUnformatted": "+919637071288",
    "location": {
      "lat": 19.8913588,
      "lng": 75.3623464
    },
    "totalScore": 4.3,
    "permanentlyClosed": false,
    "temporarilyClosed": false,
    "placeId": "ChIJ9_Gwym2j2zsRZo2NzJhZg-w",
    "categories": [
      "Car rental agency",
      "Car leasing service",
      "Tour operator"
    ],
    "reviewsCount": 6,
    "imagesCount": 4,
    "openingHours": [
      {
        "day": "Monday",
        "hours": "Open 24 hours"
      },
      {
        "day": "Tuesday",
        "hours": "Open 24 hours"
      },
      {
        "day": "Wednesday",
        "hours": "Open 24 hours"
      },
      {
        "day": "Thursday",
        "hours": "Open 24 hours"
      },
      {
        "day": "Friday",
        "hours": "Open 24 hours"
      },
      {
        "day": "Saturday",
        "hours": "Open 24 hours"
      },
      {
        "day": "Sunday",
        "hours": "Open 24 hours"
      }
    ],
    "imageUrl": "https://media.indianluxurycars.com/google/9b7eeac651206b1d72be6ec281f69aaf15bbb85a232c34e4d85463f0e50ce141.jpg",
    "url": "https://www.google.com/maps/search/?api=1&query=Sarita%20Tours%20And%20Travels&query_place_id=ChIJ9_Gwym2j2zsRZo2NzJhZg-w"
  },
  {
    "title": "Shiv Chhatrapati Cab",
    "subTitle": "शिव छत्रपति कैब",
    "categoryName": "Car rental agency",
    "address": "Swami Vivekananda Nagar, N 12, Cidco, Chhatrapati Sambhajinagar, Maharashtra 431003, India",
    "neighborhood": "Swami Vivekananda Nagar, N 12, Cidco",
    "city": "Chhatrapati Sambhajinagar",
    "postalCode": "431003",
    "state": "Maharashtra",
    "countryCode": "IN",
    "website": "https://www.shivchhatrapaticab.com/",
    "phone": "+919325183270",
    "phoneUnformatted": "+919325183270",
    "location": {
      "lat": 19.9021519,
      "lng": 75.3477266
    },
    "totalScore": 5,
    "permanentlyClosed": false,
    "temporarilyClosed": false,
    "placeId": "ChIJoc-XjiCj2zsRjAroiXynqcc",
    "categories": [
      "Car rental agency",
      "Taxi service",
      "Chauffeur service",
      "Tour operator"
    ],
    "reviewsCount": 299,
    "imagesCount": 81,
    "openingHours": [],
    "imageUrl": "https://media.indianluxurycars.com/google/3be69cc053ce258b8edef866ff5bcd9b998f1ed6488cdadff9a3ca0ce4ecadc9.jpg",
    "url": "https://www.google.com/maps/search/?api=1&query=Shiv%20Chhatrapati%20Cab&query_place_id=ChIJoc-XjiCj2zsRjAroiXynqcc"
  },
  {
    "title": "𝙎𝙝𝙞𝙫𝙨𝙝𝙖𝙝𝙞 𝘾𝙖𝙗, Taxi service, innova Tempo Traveller, car Rental, ajanta Ellora, jyotirlinga best cab service.in Aurangabad",
    "subTitle": "शिवशाही कैब, टैक्सी सर्विस, इनोवा टेम्पो ट्रैवलर, कार रेंटल, अजंता एलोरा, ज्योतिर्लिंग बेस्ट कैब सर्विस.इन औरंगाबाद",
    "categoryName": "Car rental agency",
    "address": "N, 4, C31, Kamgar Chowk, Mayanagar Colony, Sector N 4, Cidco, Chhatrapati Sambhajinagar, Maharashtra 431003, India",
    "neighborhood": "Kamgar Chowk, Mayanagar Colony, Sector N 4, Cidco",
    "street": "N, 4, C31, Kamgar Chowk",
    "city": "Chhatrapati Sambhajinagar",
    "postalCode": "431003",
    "state": "Maharashtra",
    "countryCode": "IN",
    "website": "https://shivshahicab.com/",
    "phone": "+919921935252",
    "phoneUnformatted": "+919921935252",
    "location": {
      "lat": 19.870355,
      "lng": 75.367165
    },
    "totalScore": 4.8,
    "permanentlyClosed": false,
    "temporarilyClosed": false,
    "placeId": "ChIJ___OkvSi2zsRqU96EAVZwas",
    "categories": [
      "Car rental agency",
      "Car leasing service",
      "Minibus taxi service",
      "Taxi service",
      "Travel agency"
    ],
    "reviewsCount": 1035,
    "imagesCount": 229,
    "openingHours": [
      {
        "day": "Monday",
        "hours": "Open 24 hours"
      },
      {
        "day": "Tuesday",
        "hours": "Open 24 hours"
      },
      {
        "day": "Wednesday",
        "hours": "Open 24 hours"
      },
      {
        "day": "Thursday",
        "hours": "Open 24 hours"
      },
      {
        "day": "Friday",
        "hours": "Open 24 hours"
      },
      {
        "day": "Saturday",
        "hours": "Open 24 hours"
      },
      {
        "day": "Sunday",
        "hours": "Open 24 hours"
      }
    ],
    "imageUrl": "https://media.indianluxurycars.com/google/88a399f222572c8f59828e7518702e30d610f18a4f54f92bec67b6b159e75108.jpg",
    "url": "https://www.google.com/maps/search/?api=1&query=%F0%9D%99%8E%F0%9D%99%9D%F0%9D%99%9E%F0%9D%99%AB%F0%9D%99%A8%F0%9D%99%9D%F0%9D%99%96%F0%9D%99%9D%F0%9D%99%9E%20%F0%9D%98%BE%F0%9D%99%96%F0%9D%99%97%2C%20Taxi%20service%2C%20innova%20Tempo%20Traveller%2C%20car%20Rental%2C%20ajanta%20Ellora%2C%20jyotirlinga%20best%20cab%20service.in%20Aurangabad&query_place_id=ChIJ___OkvSi2zsRqU96EAVZwas"
  },
  {
    "title": "Shreya Cab Service ™",
    "subTitle": "श्रेया कैब सर्विस टीएम",
    "categoryName": "Car leasing service",
    "address": "Central Bus Stand Rd, Mhada, Chhatrapati Sambhajinagar, Maharashtra 431001, India",
    "neighborhood": "Mhada",
    "street": "Central Bus Stand Rd",
    "city": "Chhatrapati Sambhajinagar",
    "postalCode": "431001",
    "state": "Maharashtra",
    "countryCode": "IN",
    "website": "http://shreyacab.in/",
    "phone": "+919028010037",
    "phoneUnformatted": "+919028010037",
    "location": {
      "lat": 19.8802544,
      "lng": 75.3172235
    },
    "totalScore": 5,
    "permanentlyClosed": false,
    "temporarilyClosed": false,
    "placeId": "ChIJoXUJBJ6Z2zsR9tusPc56v8c",
    "categories": [
      "Car leasing service"
    ],
    "reviewsCount": 4,
    "imagesCount": 70,
    "openingHours": [
      {
        "day": "Monday",
        "hours": "Open 24 hours"
      },
      {
        "day": "Tuesday",
        "hours": "Open 24 hours"
      },
      {
        "day": "Wednesday",
        "hours": "Open 24 hours"
      },
      {
        "day": "Thursday",
        "hours": "Open 24 hours"
      },
      {
        "day": "Friday",
        "hours": "Open 24 hours"
      },
      {
        "day": "Saturday",
        "hours": "Open 24 hours"
      },
      {
        "day": "Sunday",
        "hours": "Open 24 hours"
      }
    ],
    "imageUrl": "https://media.indianluxurycars.com/google/d5b71a6302ba5884d2ae381e740e864d5d7eba1f9245f75214b617745b02aaa9.jpg",
    "url": "https://www.google.com/maps/search/?api=1&query=Shreya%20Cab%20Service%20%E2%84%A2&query_place_id=ChIJoXUJBJ6Z2zsR9tusPc56v8c"
  },
  {
    "title": "SIYA TRAVELS AURANGABAD – AJANTA ELLORA TOURS & TAXI",
    "subTitle": "सिया ट्रैवल्स औरंगाबाद - अजंता एलोरा टूर्स & टैक्सी",
    "categoryName": "Car rental agency",
    "address": "Prabhakar, Thakare Nagar Rd, Kamgar Chowk, Prabodhankar Thakare Nagar, N 2, Cidco, Chhatrapati Sambhajinagar, Maharashtra 431006, India",
    "neighborhood": "Kamgar Chowk, Prabodhankar Thakare Nagar, N 2, Cidco",
    "street": "Prabhakar, Thakare Nagar Rd",
    "city": "Chhatrapati Sambhajinagar",
    "postalCode": "431006",
    "state": "Maharashtra",
    "countryCode": "IN",
    "website": "https://www.siyatravels.com/",
    "phone": "+919860080525",
    "phoneUnformatted": "+919860080525",
    "location": {
      "lat": 19.8667513,
      "lng": 75.3685991
    },
    "totalScore": 5,
    "permanentlyClosed": false,
    "temporarilyClosed": false,
    "placeId": "ChIJAxd2MNyj2zsRbsVw9SejR_0",
    "categories": [
      "Car rental agency",
      "Car leasing service",
      "Taxi service",
      "Sightseeing tour agency",
      "Tour operator",
      "Travel agency"
    ],
    "reviewsCount": 26,
    "imagesCount": 19,
    "openingHours": [],
    "imageUrl": "https://media.indianluxurycars.com/google/148b1b0415c7e9c20010cba971646baa99bd6d4a89c020012857784a13934465.jpg",
    "url": "https://www.google.com/maps/search/?api=1&query=SIYA%20TRAVELS%20AURANGABAD%20%E2%80%93%20AJANTA%20ELLORA%20TOURS%20%26%20TAXI&query_place_id=ChIJAxd2MNyj2zsRbsVw9SejR_0"
  },
  {
    "title": "Skyline Holidays -Tour Operators & Tourist Transporters",
    "subTitle": "स्कायलाईन हॉलिडे",
    "categoryName": "Car rental agency",
    "address": "Survey No. 59, Plot No.42, Zenda Chowk, near Airport Compound wall, HPCL Housing Colony, N 2, Cidco, Chhatrapati Sambhajinagar, Maharashtra 431009, India",
    "neighborhood": "HPCL Housing Colony, N 2, Cidco",
    "street": "Survey No. 59, Plot No.42, Zenda Chowk, near Airport Compound wall",
    "city": "Chhatrapati Sambhajinagar",
    "postalCode": "431009",
    "state": "Maharashtra",
    "countryCode": "IN",
    "website": "http://www.skylineholiday.com/",
    "phone": "+919823883366",
    "phoneUnformatted": "+919823883366",
    "location": {
      "lat": 19.8630923,
      "lng": 75.372499
    },
    "totalScore": 4.7,
    "permanentlyClosed": false,
    "temporarilyClosed": false,
    "placeId": "ChIJVZ0WCzKY2zsRSsx1TwLkEjM",
    "categories": [
      "Car rental agency",
      "Bus tour agency",
      "Car leasing service",
      "Sightseeing tour agency",
      "Helicopter tour agency",
      "Taxi service",
      "Travel agency"
    ],
    "reviewsCount": 103,
    "imagesCount": 29,
    "openingHours": [
      {
        "day": "Monday",
        "hours": "Open 24 hours"
      },
      {
        "day": "Tuesday",
        "hours": "Open 24 hours"
      },
      {
        "day": "Wednesday",
        "hours": "Open 24 hours"
      },
      {
        "day": "Thursday",
        "hours": "Open 24 hours"
      },
      {
        "day": "Friday",
        "hours": "Open 24 hours"
      },
      {
        "day": "Saturday",
        "hours": "Open 24 hours"
      },
      {
        "day": "Sunday",
        "hours": "7 AM to 6 PM"
      }
    ],
    "imageUrl": "https://media.indianluxurycars.com/google/d0ae0b49ac96caa1bc6f6da8ed10098c4a0f7db7ceb4def247ca091275213ad2.jpg",
    "url": "https://www.google.com/maps/search/?api=1&query=Skyline%20Holidays%20-Tour%20Operators%20%26%20Tourist%20Transporters&query_place_id=ChIJVZ0WCzKY2zsRSsx1TwLkEjM"
  },
  {
    "title": "𝗦𝗼𝗵𝗮𝗺 𝗛𝘆𝘂𝗻𝗱𝗮𝗶 𝗣𝗿𝗼𝗺𝗶𝘀𝗲 - Second Hand Car | Used Car Dealer | Car Dealers in Aurangabad",
    "subTitle": "सोहम हुंडई प्रॉमिस",
    "categoryName": "Used car dealer",
    "address": "Plot no C - 30, Zambad Estate, MIDC, 02, near by Soham Motors, MIDC Industrial Area, Chilkalthana, Chhatrapati Sambhajinagar, Maharashtra 431006, India",
    "neighborhood": "MIDC Industrial Area, Chilkalthana",
    "street": "Plot no C - 30, Zambad Estate, MIDC, 02, near by Soham Motors",
    "city": "Chhatrapati Sambhajinagar",
    "postalCode": "431006",
    "state": "Maharashtra",
    "countryCode": "IN",
    "phone": "+919130223022",
    "phoneUnformatted": "+919130223022",
    "location": {
      "lat": 19.8782837,
      "lng": 75.378503
    },
    "totalScore": 4.4,
    "permanentlyClosed": false,
    "temporarilyClosed": false,
    "placeId": "ChIJ0-3-VuSi2zsRR3SZAzMwIFU",
    "categories": [
      "Used car dealer"
    ],
    "reviewsCount": 249,
    "imagesCount": 73,
    "openingHours": [
      {
        "day": "Monday",
        "hours": "9:30 AM to 6:30 PM"
      },
      {
        "day": "Tuesday",
        "hours": "9:30 AM to 6:30 PM"
      },
      {
        "day": "Wednesday",
        "hours": "9:30 AM to 6:30 PM"
      },
      {
        "day": "Thursday",
        "hours": "9:30 AM to 6:30 PM"
      },
      {
        "day": "Friday",
        "hours": "9:30 AM to 6:30 PM"
      },
      {
        "day": "Saturday",
        "hours": "9:30 AM to 6:30 PM"
      },
      {
        "day": "Sunday",
        "hours": "10 AM to 4 AM"
      }
    ],
    "imageUrl": "https://media.indianluxurycars.com/google/db9e78be04283fcd57c5e4be54d2e96eae54f5408a165a16668850eeba9ae635.jpg",
    "url": "https://www.google.com/maps/search/?api=1&query=%F0%9D%97%A6%F0%9D%97%BC%F0%9D%97%B5%F0%9D%97%AE%F0%9D%97%BA%20%F0%9D%97%9B%F0%9D%98%86%F0%9D%98%82%F0%9D%97%BB%F0%9D%97%B1%F0%9D%97%AE%F0%9D%97%B6%20%F0%9D%97%A3%F0%9D%97%BF%F0%9D%97%BC%F0%9D%97%BA%F0%9D%97%B6%F0%9D%98%80%F0%9D%97%B2%20-%20Second%20Hand%20Car%20%7C%20Used%20Car%20Dealer%20%7C%20Car%20Dealers%20in%20Aurangabad&query_place_id=ChIJ0-3-VuSi2zsRR3SZAzMwIFU"
  },
  {
    "title": "Sumaiyya Cars",
    "subTitle": "सुमैय्या कार्स",
    "categoryName": "Used car dealer",
    "address": "Shop No.-1, Beside Kohinoor Masjid, Central Jail Road - MS - 431001, Maharashtra, India, Harsul, N 11, Cidco, Chhatrapati Sambhajinagar, Maharashtra 431003, India",
    "neighborhood": "Hudco, Yadav Nagar, N 11, Cidco",
    "street": "Shop No.-1, Beside Kohinoor Masjid, Central Jail Road - MS - 431001, Maharashtra, India, Harsul",
    "city": "Chhatrapati Sambhajinagar",
    "postalCode": "431003",
    "state": "Maharashtra",
    "countryCode": "IN",
    "location": {
      "lat": 19.9115164,
      "lng": 75.3482133
    },
    "totalScore": 4.8,
    "permanentlyClosed": false,
    "temporarilyClosed": false,
    "placeId": "ChIJCTLKhlO92zsRRv-Vv8kvFwo",
    "categories": [
      "Used car dealer"
    ],
    "reviewsCount": 8,
    "imagesCount": 5,
    "openingHours": [
      {
        "day": "Monday",
        "hours": "11 AM to 11 PM"
      },
      {
        "day": "Tuesday",
        "hours": "11 AM to 11 PM"
      },
      {
        "day": "Wednesday",
        "hours": "11 AM to 11 PM"
      },
      {
        "day": "Thursday",
        "hours": "11 AM to 11 PM"
      },
      {
        "day": "Friday",
        "hours": "11 AM to 11 PM"
      },
      {
        "day": "Saturday",
        "hours": "11 AM to 11 PM"
      },
      {
        "day": "Sunday",
        "hours": "11 AM to 11 PM"
      }
    ],
    "imageUrl": "https://media.indianluxurycars.com/google/ae3373f99719d4e72de258798332bd8e8507dd7973e722a4455561eba967467c.jpg",
    "url": "https://www.google.com/maps/search/?api=1&query=Sumaiyya%20Cars&query_place_id=ChIJCTLKhlO92zsRRv-Vv8kvFwo"
  },
  {
    "title": "Sunrise Car Rentals",
    "subTitle": "सनराईझ कार रेंटल्स",
    "categoryName": "Car leasing service",
    "address": "Plot No 5-28-116 P, Mohammadi Chowk,, Near Railway Station, Chhatrapati Sambhajinagar, Maharashtra 431005, India",
    "neighborhood": "Rajnagar, MIDC",
    "street": "Plot No 5-28-116 P, Mohammadi Chowk,, Near Railway Station",
    "city": "Chhatrapati Sambhajinagar",
    "postalCode": "431005",
    "state": "Maharashtra",
    "countryCode": "IN",
    "phone": "+919370808989",
    "phoneUnformatted": "+919370808989",
    "location": {
      "lat": 19.8619749,
      "lng": 75.3116618
    },
    "totalScore": 4.9,
    "permanentlyClosed": false,
    "temporarilyClosed": false,
    "placeId": "ChIJk2k_MVmY2zsRShGZI3U707g",
    "categories": [
      "Car leasing service"
    ],
    "reviewsCount": 181,
    "imagesCount": 52,
    "openingHours": [
      {
        "day": "Monday",
        "hours": "Open 24 hours"
      },
      {
        "day": "Tuesday",
        "hours": "Open 24 hours"
      },
      {
        "day": "Wednesday",
        "hours": "Open 24 hours"
      },
      {
        "day": "Thursday",
        "hours": "Open 24 hours"
      },
      {
        "day": "Friday",
        "hours": "Open 24 hours"
      },
      {
        "day": "Saturday",
        "hours": "Open 24 hours"
      },
      {
        "day": "Sunday",
        "hours": "Open 24 hours"
      }
    ],
    "imageUrl": "https://media.indianluxurycars.com/google/fca1ebc7bb66b4cd5fc1bbf7ac6a793ea15c5c43084d4655544a4ae5f5eceac1.jpg",
    "url": "https://www.google.com/maps/search/?api=1&query=Sunrise%20Car%20Rentals&query_place_id=ChIJk2k_MVmY2zsRShGZI3U707g"
  },
  {
    "title": "Taxi In Aurangabad",
    "subTitle": "टैक्सी इन छत्रपती संबाजी नगर",
    "categoryName": "Car rental agency",
    "address": "Chistiya Colony Rd, beside Baba Cake Shop, N-6, Cidco, Chhatrapati Sambhajinagar, Maharashtra 431003, India",
    "neighborhood": "N-6, Cidco",
    "street": "Chistiya Colony Rd, beside Baba Cake Shop",
    "city": "Chhatrapati Sambhajinagar",
    "postalCode": "431003",
    "state": "Maharashtra",
    "countryCode": "IN",
    "website": "https://taxiinaurangabad.com/",
    "phone": "+919595954990",
    "phoneUnformatted": "+919595954990",
    "location": {
      "lat": 19.8784583,
      "lng": 75.3581152
    },
    "totalScore": 4.9,
    "permanentlyClosed": false,
    "temporarilyClosed": false,
    "placeId": "ChIJ3T2pIWqj2zsRIe1o6d3R5rI",
    "categories": [
      "Car rental agency",
      "Car leasing service",
      "Taxi service",
      "Tour agency",
      "Travel agency"
    ],
    "reviewsCount": 178,
    "imagesCount": 96,
    "openingHours": [],
    "imageUrl": "https://media.indianluxurycars.com/google/0a9c966a6dad16ac28b2038d3fa6a50602eb8e29744ecbc6264c33edcf9be5e7.jpg",
    "url": "https://www.google.com/maps/search/?api=1&query=Taxi%20In%20Aurangabad&query_place_id=ChIJ3T2pIWqj2zsRIe1o6d3R5rI"
  },
  {
    "title": "Thakur Tours and Travels - Innova Crysta on Rent",
    "subTitle": "ठाकुर टूर्स एंड ट्रैवल्स - इनोवा क्रिस्टा ऑन रेंट",
    "categoryName": "Car rental agency",
    "address": "martand nagar, Gut no 4 plot no 7, Satara, Chhatrapati Sambhajinagar, Maharashtra 431001, India",
    "neighborhood": "Raghuveer Nagar, Venkatesh Nagar, Satara",
    "street": "martand nagar, Gut no 4 plot no 7",
    "city": "Chhatrapati Sambhajinagar",
    "postalCode": "431001",
    "state": "Maharashtra",
    "countryCode": "IN",
    "website": "https://thakur-tours-and.localo.site/#",
    "location": {
      "lat": 19.8778101,
      "lng": 75.3483141
    },
    "totalScore": 5,
    "permanentlyClosed": false,
    "temporarilyClosed": false,
    "placeId": "ChIJBf_vBdDZ0qkRdyh8T9VukXA",
    "categories": [
      "Car rental agency",
      "Car leasing service",
      "Minibus taxi service",
      "Taxi service"
    ],
    "reviewsCount": 16,
    "imagesCount": 44,
    "openingHours": [
      {
        "day": "Monday",
        "hours": "Open 24 hours"
      },
      {
        "day": "Tuesday",
        "hours": "Open 24 hours"
      },
      {
        "day": "Wednesday",
        "hours": "Open 24 hours"
      },
      {
        "day": "Thursday",
        "hours": "Open 24 hours"
      },
      {
        "day": "Friday",
        "hours": "Open 24 hours"
      },
      {
        "day": "Saturday",
        "hours": "Open 24 hours"
      },
      {
        "day": "Sunday",
        "hours": "Open 24 hours"
      }
    ],
    "imageUrl": "https://media.indianluxurycars.com/google/c010aa1915332c8b416841b6d336db18adb06eecb628b5b75a5f39c4d469d164.jpg",
    "url": "https://www.google.com/maps/search/?api=1&query=Thakur%20Tours%20and%20Travels%20-%20Innova%20Crysta%20on%20Rent&query_place_id=ChIJBf_vBdDZ0qkRdyh8T9VukXA"
  }
]
