[
  {
    "title": "3K Car Decors Car Accessories in Coimbatore",
    "categoryName": "Car stereo store",
    "address": "Nehru Stadium, No. 78, Coimbatore, Tamil Nadu 641018, India",
    "neighborhood": "Near Nehru Stadium, Grey Town, ATT Colony, Gopalapuram",
    "street": "Nehru Stadium, No. 78",
    "city": "Coimbatore",
    "postalCode": "641018",
    "state": "Tamil Nadu",
    "countryCode": "IN",
    "phone": "+918838736829",
    "phoneUnformatted": "+918838736829",
    "location": {
      "lat": 11.0063607,
      "lng": 76.9685965
    },
    "totalScore": 4.4,
    "permanentlyClosed": false,
    "temporarilyClosed": false,
    "placeId": "ChIJ99tnw21ZqDsR-20QTVAh170",
    "categories": [
      "Car stereo store"
    ],
    "reviewsCount": 32,
    "imagesCount": 12,
    "openingHours": [
      {
        "day": "Monday",
        "hours": "9 AM to 9 PM"
      },
      {
        "day": "Tuesday",
        "hours": "9 AM to 9 PM"
      },
      {
        "day": "Wednesday",
        "hours": "9 AM to 9 PM"
      },
      {
        "day": "Thursday",
        "hours": "9 AM to 9 PM"
      },
      {
        "day": "Friday",
        "hours": "9 AM to 9 PM"
      },
      {
        "day": "Saturday",
        "hours": "9 AM to 9 PM"
      },
      {
        "day": "Sunday",
        "hours": "Closed"
      }
    ],
    "imageUrl": "https://media.indianluxurycars.com/google/1f551dc360ee863cf157ddab3607f73edfb905e0c1cccb3b7ae37343592368db.jpg",
    "url": "https://www.google.com/maps/search/?api=1&query=3K%20Car%20Decors%20Car%20Accessories%20in%20Coimbatore&query_place_id=ChIJ99tnw21ZqDsR-20QTVAh170"
  },
  {
    "title": "AASAI CARS",
    "subTitle": "ஆசை கார்ஸ்",
    "categoryName": "Used car dealer",
    "address": "10 neruji nagar arul nagar thaiyrittery kannapa nagar, Rathinapuri, Sanganoor, Coimbatore, Tamil Nadu 641027, India",
    "neighborhood": "Nehru Jhi Nagar, Rathinapuri, Sanganoor",
    "street": "10 neruji nagar arul nagar thaiyrittery kannapa nagar",
    "city": "Coimbatore",
    "postalCode": "641027",
    "state": "Tamil Nadu",
    "countryCode": "IN",
    "website": "http://www.aasaicars.com/",
    "phone": "+919360584848",
    "phoneUnformatted": "+919360584848",
    "location": {
      "lat": 11.0331224,
      "lng": 76.9555658
    },
    "totalScore": 3,
    "permanentlyClosed": false,
    "temporarilyClosed": false,
    "placeId": "ChIJgy4UAvNYqDsRDbUyzGGBxvo",
    "categories": [
      "Used car dealer"
    ],
    "reviewsCount": 9,
    "imagesCount": 7,
    "openingHours": [
      {
        "day": "Monday",
        "hours": "9:30 AM to 8 PM"
      },
      {
        "day": "Tuesday",
        "hours": "9:30 AM to 8 PM"
      },
      {
        "day": "Wednesday",
        "hours": "9:30 AM to 8 PM"
      },
      {
        "day": "Thursday",
        "hours": "9:30 AM to 8 PM"
      },
      {
        "day": "Friday",
        "hours": "9:30 AM to 8 PM"
      },
      {
        "day": "Saturday",
        "hours": "9:30 AM to 8 PM"
      },
      {
        "day": "Sunday",
        "hours": "10 AM to 5 PM"
      }
    ],
    "imageUrl": "https://media.indianluxurycars.com/google/44839720322e7f18c77ab5a82bc7a7cefb13ef5d7d6ef6fac71c8aace2627e62.jpg",
    "url": "https://www.google.com/maps/search/?api=1&query=AASAI%20CARS&query_place_id=ChIJgy4UAvNYqDsRDbUyzGGBxvo"
  },
  {
    "title": "AGS Self Drive Cars",
    "categoryName": "Car rental agency",
    "address": "86/329-333, near Stmerry School, Doctor's Colony, Coimbatore, Tamil Nadu 641012, India",
    "neighborhood": "Doctor's Colony",
    "street": "86/329-333, near Stmerry School",
    "city": "Coimbatore",
    "postalCode": "641012",
    "state": "Tamil Nadu",
    "countryCode": "IN",
    "website": "https://agsselfdrivecars.mdsdigitalhub.com/index.html",
    "phone": "+918526488958",
    "phoneUnformatted": "+918526488958",
    "location": {
      "lat": 11.022174,
      "lng": 76.966917
    },
    "totalScore": 4.9,
    "permanentlyClosed": false,
    "temporarilyClosed": false,
    "placeId": "ChIJNUiMnI5ZqDsRRSoymYulekY",
    "categories": [
      "Car rental agency",
      "Car leasing service"
    ],
    "reviewsCount": 9,
    "imagesCount": 3,
    "openingHours": [
      {
        "day": "Monday",
        "hours": "Open 24 hours"
      },
      {
        "day": "Tuesday",
        "hours": "Open 24 hours"
      },
      {
        "day": "Wednesday",
        "hours": "Open 24 hours"
      },
      {
        "day": "Thursday",
        "hours": "Open 24 hours"
      },
      {
        "day": "Friday",
        "hours": "Open 24 hours"
      },
      {
        "day": "Saturday",
        "hours": "Open 24 hours"
      },
      {
        "day": "Sunday",
        "hours": "Open 24 hours"
      }
    ],
    "imageUrl": "https://media.indianluxurycars.com/google/722ed16d4575d7d0409b1ba3b4b8549d409b1a4eea2b1be066adcce545125f1e.jpg",
    "url": "https://www.google.com/maps/search/?api=1&query=AGS%20Self%20Drive%20Cars&query_place_id=ChIJNUiMnI5ZqDsRRSoymYulekY"
  },
  {
    "title": "AGS Self Drive Cars | Self Drive Cars Rental Coimbatore",
    "categoryName": "Car rental agency",
    "address": "86/329-333, near Stmerry School, Doctor's Colony, Coimbatore, Tamil Nadu 641012, India",
    "neighborhood": "Doctor's Colony",
    "street": "86/329-333, near Stmerry School",
    "city": "Coimbatore",
    "postalCode": "641012",
    "state": "Tamil Nadu",
    "countryCode": "IN",
    "location": {
      "lat": 11.022174,
      "lng": 76.966917
    },
    "totalScore": 5,
    "permanentlyClosed": false,
    "temporarilyClosed": false,
    "placeId": "ChIJYbV6ThJZqDsRriF6Y6mMKbg",
    "categories": [
      "Car rental agency",
      "Car leasing service"
    ],
    "reviewsCount": 1,
    "imagesCount": 19,
    "openingHours": [
      {
        "day": "Monday",
        "hours": "Open 24 hours"
      },
      {
        "day": "Tuesday",
        "hours": "Open 24 hours"
      },
      {
        "day": "Wednesday",
        "hours": "Open 24 hours"
      },
      {
        "day": "Thursday",
        "hours": "Open 24 hours"
      },
      {
        "day": "Friday",
        "hours": "Open 24 hours"
      },
      {
        "day": "Saturday",
        "hours": "Open 24 hours"
      },
      {
        "day": "Sunday",
        "hours": "Open 24 hours"
      }
    ],
    "imageUrl": "https://media.indianluxurycars.com/google/96310805ef5cd45eed51f8840cfa5ca914b1f9d03f5fdb8592b2755acb948954.jpg",
    "url": "https://www.google.com/maps/search/?api=1&query=AGS%20Self%20Drive%20Cars%20%7C%20Self%20Drive%20Cars%20Rental%20Coimbatore&query_place_id=ChIJYbV6ThJZqDsRriF6Y6mMKbg"
  },
  {
    "title": "Anaamalais Toyota",
    "subTitle": "அனாமலைஸ் டொயோட்டா",
    "categoryName": "Toyota dealer",
    "address": "300, Mettupalayam Rd, Saibaba Koil, Coimbatore, Tamil Nadu 641043, India",
    "neighborhood": "Saibaba Koil",
    "street": "300, Mettupalayam Rd",
    "city": "Coimbatore",
    "postalCode": "641043",
    "state": "Tamil Nadu",
    "countryCode": "IN",
    "website": "http://www.anaamalaistoyota.com/",
    "phone": "+914224429999",
    "phoneUnformatted": "+914224429999",
    "location": {
      "lat": 11.0282182,
      "lng": 76.9523348
    },
    "totalScore": 4.3,
    "permanentlyClosed": false,
    "temporarilyClosed": false,
    "placeId": "ChIJkQVca1JYqDsRk-jTYFHk2Kc",
    "categories": [
      "Toyota dealer",
      "Car accessories store",
      "Car dealer",
      "Used car dealer"
    ],
    "reviewsCount": 1156,
    "imagesCount": 115,
    "openingHours": [
      {
        "day": "Monday",
        "hours": "9 AM to 7 PM"
      },
      {
        "day": "Tuesday",
        "hours": "9 AM to 7 PM"
      },
      {
        "day": "Wednesday",
        "hours": "9 AM to 7 PM"
      },
      {
        "day": "Thursday",
        "hours": "9 AM to 7 PM"
      },
      {
        "day": "Friday",
        "hours": "9 AM to 7 PM"
      },
      {
        "day": "Saturday",
        "hours": "9 AM to 7 PM"
      },
      {
        "day": "Sunday",
        "hours": "9 AM to 5 PM"
      }
    ],
    "imageUrl": "https://media.indianluxurycars.com/google/2edae479a766114ba83cc7025361e44274ac738798bb877bf4bb1b70efead018.jpg",
    "url": "https://www.google.com/maps/search/?api=1&query=Anaamalais%20Toyota&query_place_id=ChIJkQVca1JYqDsRk-jTYFHk2Kc"
  },
  {
    "title": "Anamallais Motors Pvt Ltd",
    "categoryName": "Motor vehicle dealer",
    "address": "No 252, Mettupalayam Rd, Ranganathapuram, Coimbatore, Tamil Nadu 641043, India",
    "neighborhood": "Ranganathapuram",
    "street": "No 252, Mettupalayam Rd",
    "city": "Coimbatore",
    "postalCode": "641043",
    "state": "Tamil Nadu",
    "countryCode": "IN",
    "location": {
      "lat": 11.0280083,
      "lng": 76.9514394
    },
    "totalScore": 4,
    "permanentlyClosed": false,
    "temporarilyClosed": false,
    "placeId": "ChIJm6fjEv1YqDsRRk_phf3mp2Q",
    "categories": [
      "Motor vehicle dealer"
    ],
    "reviewsCount": 17,
    "imagesCount": 1,
    "openingHours": [
      {
        "day": "Monday",
        "hours": "9 AM to 7 PM"
      },
      {
        "day": "Tuesday",
        "hours": "9 AM to 7 PM"
      },
      {
        "day": "Wednesday",
        "hours": "9 AM to 7 PM"
      },
      {
        "day": "Thursday",
        "hours": "9 AM to 7 PM"
      },
      {
        "day": "Friday",
        "hours": "9 AM to 7 PM"
      },
      {
        "day": "Saturday",
        "hours": "9 AM to 7 PM"
      },
      {
        "day": "Sunday",
        "hours": "10:30 AM to 1 PM"
      }
    ],
    "imageUrl": "https://media.indianluxurycars.com/google/4cfbeac9d3041cb36d5614d451beaa57c09e88a879556cda6186d8b65c497670.jpg",
    "url": "https://www.google.com/maps/search/?api=1&query=Anamallais%20Motors%20Pvt%20Ltd&query_place_id=ChIJm6fjEv1YqDsRRk_phf3mp2Q"
  },
  {
    "title": "Assain Cars",
    "subTitle": "அசைன் கார்ஸ்",
    "categoryName": "Car dealer",
    "address": "4th Street, Sivananda Colony, Tatabad, Coimbatore, Tamil Nadu 641012, India",
    "neighborhood": "Sivananda Colony, Tatabad",
    "street": "4th Street",
    "city": "Coimbatore",
    "postalCode": "641012",
    "state": "Tamil Nadu",
    "countryCode": "IN",
    "phone": "+919843148899",
    "phoneUnformatted": "+919843148899",
    "location": {
      "lat": 11.0207924,
      "lng": 76.9585417
    },
    "totalScore": 3.9,
    "permanentlyClosed": false,
    "temporarilyClosed": false,
    "placeId": "ChIJY6FyXvlYqDsRaEsqQmIGD_0",
    "categories": [
      "Car dealer"
    ],
    "reviewsCount": 128,
    "imagesCount": 35,
    "openingHours": [
      {
        "day": "Monday",
        "hours": "10 AM to 7 PM"
      },
      {
        "day": "Tuesday",
        "hours": "10 AM to 7 PM"
      },
      {
        "day": "Wednesday",
        "hours": "10 AM to 7 PM"
      },
      {
        "day": "Thursday",
        "hours": "10 AM to 7 PM"
      },
      {
        "day": "Friday",
        "hours": "10 AM to 7 PM"
      },
      {
        "day": "Saturday",
        "hours": "10 AM to 7 PM"
      },
      {
        "day": "Sunday",
        "hours": "10 AM to 2 PM"
      }
    ],
    "imageUrl": "https://media.indianluxurycars.com/google/32fc3e25f97690d54d0d91172219386d871bf1eab167e2731d3c34fcbe0f7f79.jpg",
    "url": "https://www.google.com/maps/search/?api=1&query=Assain%20Cars&query_place_id=ChIJY6FyXvlYqDsRaEsqQmIGD_0"
  },
  {
    "title": "Ather Experience Center, Ram Nagar",
    "categoryName": "Electric motor vehicle dealer",
    "address": "357, Patel Rd, Ram Nagar, Coimbatore, Tamil Nadu 641009, India",
    "neighborhood": "Ram Nagar",
    "street": "357, Patel Rd",
    "city": "Coimbatore",
    "postalCode": "641009",
    "state": "Tamil Nadu",
    "countryCode": "IN",
    "website": "https://www.atherenergy.com/?utm_source=locator&utm_medium=googleplaces",
    "phone": "+919240013929",
    "phoneUnformatted": "+919240013929",
    "location": {
      "lat": 11.0112022,
      "lng": 76.9597717
    },
    "totalScore": 4,
    "permanentlyClosed": false,
    "temporarilyClosed": false,
    "placeId": "ChIJg_rpUY9ZqDsRVIJFRM0i388",
    "categories": [
      "Electric motor vehicle dealer",
      "Electric motor scooter dealer",
      "Electric vehicle charging station",
      "Motorcycle dealer"
    ],
    "reviewsCount": 407,
    "imagesCount": 287,
    "openingHours": [
      {
        "day": "Monday",
        "hours": "9:30 AM to 8 PM"
      },
      {
        "day": "Tuesday",
        "hours": "9:30 AM to 8 PM"
      },
      {
        "day": "Wednesday",
        "hours": "9:30 AM to 8 PM"
      },
      {
        "day": "Thursday",
        "hours": "9:30 AM to 8 PM"
      },
      {
        "day": "Friday",
        "hours": "9:30 AM to 8 PM"
      },
      {
        "day": "Saturday",
        "hours": "9:30 AM to 8 PM"
      },
      {
        "day": "Sunday",
        "hours": "10 AM to 6:30 PM"
      }
    ],
    "imageUrl": "https://media.indianluxurycars.com/google/4d1e33bde9058926b9a99b5a7b8d20d0338112d27c8cd6e5e19ef82682213db2.jpg",
    "url": "https://www.google.com/maps/search/?api=1&query=Ather%20Experience%20Center%2C%20Ram%20Nagar&query_place_id=ChIJg_rpUY9ZqDsRVIJFRM0i388"
  },
  {
    "title": "Audi Coimbatore",
    "subTitle": "ஆடி கோயம்புத்தூர்",
    "categoryName": "Audi dealer",
    "address": "1020, Avinashi Rd, Near Nehru Stadium, Police Quarters, Gopalapuram, Coimbatore, Tamil Nadu 641018, India",
    "neighborhood": "Near Nehru Stadium, Police Quarters, Gopalapuram",
    "street": "1020, Avinashi Rd",
    "city": "Coimbatore",
    "postalCode": "641018",
    "state": "Tamil Nadu",
    "countryCode": "IN",
    "website": "https://dealers.myaudi.in/audi-coimbatore-audi-dealer-avinashi-road-coimbatore-122037/Home?utm_source=locator&utm_medium=googleplaces",
    "phone": "+917373737630",
    "phoneUnformatted": "+917373737630",
    "location": {
      "lat": 11.003166,
      "lng": 76.9700632
    },
    "totalScore": 4.3,
    "permanentlyClosed": false,
    "temporarilyClosed": false,
    "placeId": "ChIJFbYqm6hZqDsRS05r36IhjGg",
    "categories": [
      "Audi dealer",
      "Auto dent removal service",
      "Auto repair shop",
      "Car accessories store",
      "Car dealer"
    ],
    "reviewsCount": 468,
    "imagesCount": 265,
    "openingHours": [
      {
        "day": "Monday",
        "hours": "9:30 AM to 6:30 PM"
      },
      {
        "day": "Tuesday",
        "hours": "9:30 AM to 6:30 PM"
      },
      {
        "day": "Wednesday",
        "hours": "9:30 AM to 6:30 PM"
      },
      {
        "day": "Thursday",
        "hours": "9:30 AM to 6:30 PM"
      },
      {
        "day": "Friday",
        "hours": "9:30 AM to 6:30 PM"
      },
      {
        "day": "Saturday",
        "hours": "9:30 AM to 6:30 PM"
      },
      {
        "day": "Sunday",
        "hours": "Closed"
      }
    ],
    "imageUrl": "https://media.indianluxurycars.com/google/c1529378afdbeb03f1f7a185fa5fc4f5d90160d0b4904b74b65199c8baef1521.jpg",
    "url": "https://www.google.com/maps/search/?api=1&query=Audi%20Coimbatore&query_place_id=ChIJFbYqm6hZqDsRS05r36IhjGg"
  },
  {
    "title": "B&B premium cars",
    "categoryName": "Used car dealer",
    "address": "32, E TV Swamy Rd, opposite Sathya electronics, R.S. Puram, Coimbatore, Tamil Nadu 641002, India",
    "neighborhood": "R.S. Puram",
    "street": "32, E TV Swamy Rd, opposite Sathya electronics",
    "city": "Coimbatore",
    "postalCode": "641002",
    "state": "Tamil Nadu",
    "countryCode": "IN",
    "location": {
      "lat": 11.0103791,
      "lng": 76.9517064
    },
    "totalScore": 5,
    "permanentlyClosed": false,
    "temporarilyClosed": false,
    "placeId": "ChIJQ1GcOPBZqDsR6sq16qwn4I0",
    "categories": [
      "Used car dealer"
    ],
    "reviewsCount": 5,
    "imagesCount": 62,
    "openingHours": [
      {
        "day": "Monday",
        "hours": "9:30 AM to 7:30 PM"
      },
      {
        "day": "Tuesday",
        "hours": "9:30 AM to 7:30 PM"
      },
      {
        "day": "Wednesday",
        "hours": "9:30 AM to 7:30 PM"
      },
      {
        "day": "Thursday",
        "hours": "9:30 AM to 7:30 PM"
      },
      {
        "day": "Friday",
        "hours": "9:30 AM to 7:30 PM"
      },
      {
        "day": "Saturday",
        "hours": "9:30 AM to 7:30 PM"
      },
      {
        "day": "Sunday",
        "hours": "Closed"
      }
    ],
    "imageUrl": "https://media.indianluxurycars.com/google/ae66e738db2742bb1dbda911cefd97fe756eca52a18b3b15cb73007d01198ea7.jpg",
    "url": "https://www.google.com/maps/search/?api=1&query=B%26B%20premium%20cars&query_place_id=ChIJQ1GcOPBZqDsR6sq16qwn4I0"
  },
  {
    "title": "BEST USED CARS Coimbatore Dealers in Fine quality pre-owned cars with service record,non-accidental,clear documents",
    "categoryName": "Used car dealer",
    "address": "R.S. Puram, Coimbatore, Tamil Nadu 641002, India",
    "neighborhood": "R.S. Puram",
    "city": "Coimbatore",
    "postalCode": "641002",
    "state": "Tamil Nadu",
    "countryCode": "IN",
    "phone": "+919688337000",
    "phoneUnformatted": "+919688337000",
    "location": {
      "lat": 11.0071521,
      "lng": 76.9511013
    },
    "totalScore": 3,
    "permanentlyClosed": false,
    "temporarilyClosed": false,
    "placeId": "ChIJeU5LXpdZqDsRshhAZ9gjues",
    "categories": [
      "Used car dealer"
    ],
    "reviewsCount": 2,
    "imagesCount": 9,
    "openingHours": [
      {
        "day": "Monday",
        "hours": "10 AM to 8:30 PM"
      },
      {
        "day": "Tuesday",
        "hours": "10 AM to 8:30 PM"
      },
      {
        "day": "Wednesday",
        "hours": "10 AM to 8:30 PM"
      },
      {
        "day": "Thursday",
        "hours": "10 AM to 8:30 PM"
      },
      {
        "day": "Friday",
        "hours": "10 AM to 12:30 PM, 3:30 to 8:30 PM"
      },
      {
        "day": "Saturday",
        "hours": "10 AM to 8:30 PM"
      },
      {
        "day": "Sunday",
        "hours": "10 AM to 1 PM"
      }
    ],
    "imageUrl": "https://media.indianluxurycars.com/google/ae3306610d6940b7b6a5efff8e4f385de5914f50587c1e04f5c363c3117307c9.jpg",
    "url": "https://www.google.com/maps/search/?api=1&query=BEST%20USED%20CARS%20Coimbatore%20Dealers%20in%20Fine%20quality%20pre-owned%20cars%20with%20service%20record%2Cnon-accidental%2Cclear%20documents&query_place_id=ChIJeU5LXpdZqDsRshhAZ9gjues"
  },
  {
    "title": "CAR MONKEY",
    "categoryName": "Used car dealer",
    "address": "Karthik Buildings, 16, Sowripalayam Rd, Peelamedu Pudur, Coimbatore, Tamil Nadu 641004, India",
    "neighborhood": "Peelamedu Pudur",
    "street": "Karthik Buildings, 16, Sowripalayam Rd",
    "city": "Coimbatore",
    "postalCode": "641004",
    "state": "Tamil Nadu",
    "countryCode": "IN",
    "website": "https://www.instagram.com/carmonkey.in/",
    "phone": "+919952307681",
    "phoneUnformatted": "+919952307681",
    "location": {
      "lat": 11.0196993,
      "lng": 77.0035975
    },
    "totalScore": 5,
    "permanentlyClosed": false,
    "temporarilyClosed": false,
    "placeId": "ChIJcaVv6fNZqDsRfB6ZhugEFeE",
    "categories": [
      "Used car dealer"
    ],
    "reviewsCount": 1,
    "imagesCount": 20,
    "openingHours": [
      {
        "day": "Monday",
        "hours": "9 AM to 7:30 PM"
      },
      {
        "day": "Tuesday",
        "hours": "9 AM to 7:30 PM"
      },
      {
        "day": "Wednesday",
        "hours": "9 AM to 7:30 PM"
      },
      {
        "day": "Thursday",
        "hours": "9 AM to 7:30 PM"
      },
      {
        "day": "Friday",
        "hours": "9 AM to 7:30 PM"
      },
      {
        "day": "Saturday",
        "hours": "9 AM to 7:30 PM"
      },
      {
        "day": "Sunday",
        "hours": "9 AM to 7:30 PM"
      }
    ],
    "imageUrl": "https://media.indianluxurycars.com/google/40526c8dfb0edf6035018b099ce73fd7146da79ebad0d07ebb782c27ca3adde4.jpg",
    "url": "https://www.google.com/maps/search/?api=1&query=CAR%20MONKEY&query_place_id=ChIJcaVv6fNZqDsRfB6ZhugEFeE"
  },
  {
    "title": "CARS24 - Car Point | Sell Used Cars in Coimbatore",
    "categoryName": "Used car dealer",
    "address": "245, 4th St, Muthukumar Nagar, Rathinapuri, Tatabad, Coimbatore, Tamil Nadu 641027, India",
    "neighborhood": "Muthukumar Nagar, Rathinapuri, Tatabad",
    "street": "245, 4th St",
    "city": "Coimbatore",
    "postalCode": "641027",
    "state": "Tamil Nadu",
    "countryCode": "IN",
    "website": "https://www.cars24.com/",
    "phone": "+918929100611",
    "phoneUnformatted": "+918929100611",
    "location": {
      "lat": 11.0263152,
      "lng": 76.9680003
    },
    "totalScore": 4.6,
    "permanentlyClosed": false,
    "temporarilyClosed": false,
    "placeId": "ChIJqWGvi29ZqDsRz27u4hpzgfE",
    "categories": [
      "Used car dealer",
      "Audi dealer",
      "BMW dealer",
      "Car finance and loan company",
      "Honda dealer",
      "Hyundai dealer",
      "Jeep dealer",
      "Kia dealer",
      "Suzuki dealer",
      "Toyota dealer"
    ],
    "reviewsCount": 89,
    "imagesCount": 135,
    "openingHours": [
      {
        "day": "Monday",
        "hours": "10 AM to 7 PM"
      },
      {
        "day": "Tuesday",
        "hours": "10 AM to 7 PM"
      },
      {
        "day": "Wednesday",
        "hours": "10 AM to 7 PM"
      },
      {
        "day": "Thursday",
        "hours": "10 AM to 7 PM"
      },
      {
        "day": "Friday",
        "hours": "10 AM to 7 PM"
      },
      {
        "day": "Saturday",
        "hours": "10 AM to 7 PM"
      },
      {
        "day": "Sunday",
        "hours": "10 AM to 7 PM"
      }
    ],
    "imageUrl": "https://media.indianluxurycars.com/google/42a8f61f871499b4e18c7ca16562933505729f70dedd3faf3e5a3ee6e31238f8.jpg",
    "url": "https://www.google.com/maps/search/?api=1&query=CARS24%20-%20Car%20Point%20%7C%20Sell%20Used%20Cars%20in%20Coimbatore&query_place_id=ChIJqWGvi29ZqDsRz27u4hpzgfE"
  },
  {
    "title": "CARS24 - RR Cars | Sell Used Cars in Coimbatore",
    "categoryName": "Used car dealer",
    "address": "124, Kalidas Rd, Ram Nagar, Coimbatore, Tamil Nadu 641009, India",
    "neighborhood": "Ram Nagar",
    "street": "124, Kalidas Rd",
    "city": "Coimbatore",
    "postalCode": "641009",
    "state": "Tamil Nadu",
    "countryCode": "IN",
    "website": "https://www.cars24.com/",
    "phone": "+918929100611",
    "phoneUnformatted": "+918929100611",
    "location": {
      "lat": 11.0154763,
      "lng": 76.9599935
    },
    "totalScore": 4.3,
    "permanentlyClosed": false,
    "temporarilyClosed": false,
    "placeId": "ChIJmVk18PlZqDsRt3t59VKdY8g",
    "categories": [
      "Used car dealer"
    ],
    "reviewsCount": 138,
    "imagesCount": 286,
    "openingHours": [
      {
        "day": "Monday",
        "hours": "10 AM to 7 PM"
      },
      {
        "day": "Tuesday",
        "hours": "10 AM to 7 PM"
      },
      {
        "day": "Wednesday",
        "hours": "10 AM to 7 PM"
      },
      {
        "day": "Thursday",
        "hours": "10 AM to 7 PM"
      },
      {
        "day": "Friday",
        "hours": "10 AM to 7 PM"
      },
      {
        "day": "Saturday",
        "hours": "10 AM to 7 PM"
      },
      {
        "day": "Sunday",
        "hours": "10 AM to 7 PM"
      }
    ],
    "imageUrl": "https://media.indianluxurycars.com/google/7a193a1c10ebdb6ceb03456edef73bab045728c0cbbda47f6c0b9a341f97a51f.png",
    "url": "https://www.google.com/maps/search/?api=1&query=CARS24%20-%20RR%20Cars%20%7C%20Sell%20Used%20Cars%20in%20Coimbatore&query_place_id=ChIJmVk18PlZqDsRt3t59VKdY8g"
  },
  {
    "title": "city cars",
    "subTitle": "சிட்டி கார்ஸ்",
    "categoryName": "Used car dealer",
    "address": "Bus Stop, 1011, Sathy Rd, near Omni Bus Stand, Lakshmipuram, Laxmipuram, Coimbatore, Tamil Nadu 641006, India",
    "neighborhood": "Lakshmipuram, Laxmipuram",
    "street": "Bus Stop, 1011, Sathy Rd, near Omni Bus Stand",
    "city": "Coimbatore",
    "postalCode": "641006",
    "state": "Tamil Nadu",
    "countryCode": "IN",
    "phone": "+919894111711",
    "phoneUnformatted": "+919894111711",
    "location": {
      "lat": 11.0249744,
      "lng": 76.9726667
    },
    "totalScore": 4.4,
    "permanentlyClosed": false,
    "temporarilyClosed": false,
    "placeId": "ChIJK8k82BxZqDsRPCIFqFrhPKE",
    "categories": [
      "Used car dealer"
    ],
    "reviewsCount": 90,
    "imagesCount": 181,
    "openingHours": [
      {
        "day": "Monday",
        "hours": "9 AM to 9 PM"
      },
      {
        "day": "Tuesday",
        "hours": "9 AM to 9 PM"
      },
      {
        "day": "Wednesday",
        "hours": "9 AM to 9 PM"
      },
      {
        "day": "Thursday",
        "hours": "9 AM to 9 PM"
      },
      {
        "day": "Friday",
        "hours": "9 AM to 9 PM"
      },
      {
        "day": "Saturday",
        "hours": "9 AM to 9 PM"
      },
      {
        "day": "Sunday",
        "hours": "Closed"
      }
    ],
    "imageUrl": "https://media.indianluxurycars.com/google/db16248d2b47f069d8b3430c9fab822f91327730965f5151adafba5792999404.jpg",
    "url": "https://www.google.com/maps/search/?api=1&query=city%20cars&query_place_id=ChIJK8k82BxZqDsRPCIFqFrhPKE"
  },
  {
    "title": "Dream Cars",
    "categoryName": "Used car dealer",
    "address": "R.K.Complex 4-B, Lakshmipuram, Ganapathy, Coimbatore, Tamil Nadu 641006, India",
    "neighborhood": "Lakshmipuram, Ganapathy",
    "street": "R.K.Complex 4-B",
    "city": "Coimbatore",
    "postalCode": "641006",
    "state": "Tamil Nadu",
    "countryCode": "IN",
    "phone": "+919443439885",
    "phoneUnformatted": "+919443439885",
    "location": {
      "lat": 11.0256379,
      "lng": 76.9729789
    },
    "totalScore": 5,
    "permanentlyClosed": false,
    "temporarilyClosed": false,
    "placeId": "ChIJJWC9b2JZqDsRlQcuh5SyIfo",
    "categories": [
      "Used car dealer"
    ],
    "reviewsCount": 2,
    "imagesCount": 3,
    "openingHours": [],
    "imageUrl": "https://media.indianluxurycars.com/google/4bc487b180ca0534353a115692db47c419a4607ed4aa0b5e620305f10fcd4c2f.jpg",
    "url": "https://www.google.com/maps/search/?api=1&query=Dream%20Cars&query_place_id=ChIJJWC9b2JZqDsRlQcuh5SyIfo"
  },
  {
    "title": "Eicher Trucks and Buses - Anamallais Agencies, Coimbatore, Tatabad",
    "categoryName": "Truck dealer",
    "address": "No 172, Krishnaswamy Towers, Dr Rajendra Prasad Rd, Opposite Seshadri Mahal, Tatabad, Coimbatore, Tamil Nadu 641012, India",
    "neighborhood": "Opposite Seshadri Mahal, Tatabad",
    "street": "No 172, Krishnaswamy Towers, Dr Rajendra Prasad Rd",
    "city": "Coimbatore",
    "postalCode": "641012",
    "state": "Tamil Nadu",
    "countryCode": "IN",
    "website": "https://www.eichertrucksandbuses.com/?utm_source=gmb&utm_medium=google&utm_campaign=seo-local",
    "phone": "+918037839316",
    "phoneUnformatted": "+918037839316",
    "location": {
      "lat": 11.019824,
      "lng": 76.9637209
    },
    "totalScore": 3.7,
    "permanentlyClosed": false,
    "temporarilyClosed": false,
    "placeId": "ChIJs6w4rvhYqDsRrVDtTa6yXOA",
    "categories": [
      "Truck dealer",
      "Motor vehicle dealer",
      "Truck parts supplier",
      "Truck repair shop"
    ],
    "reviewsCount": 21,
    "imagesCount": 2,
    "openingHours": [
      {
        "day": "Monday",
        "hours": "9 AM to 6:30 PM"
      },
      {
        "day": "Tuesday",
        "hours": "9 AM to 6:30 PM"
      },
      {
        "day": "Wednesday",
        "hours": "9 AM to 6:30 PM"
      },
      {
        "day": "Thursday",
        "hours": "9 AM to 6:30 PM"
      },
      {
        "day": "Friday",
        "hours": "9 AM to 6:30 PM"
      },
      {
        "day": "Saturday",
        "hours": "9 AM to 6:30 PM"
      },
      {
        "day": "Sunday",
        "hours": "9 AM to 6:30 PM"
      }
    ],
    "imageUrl": "https://media.indianluxurycars.com/google/cfff94ed192898104c892d85184f0a557bc31b7663f0a245153a6e08efe29b9c.png",
    "url": "https://www.google.com/maps/search/?api=1&query=Eicher%20Trucks%20and%20Buses%20-%20Anamallais%20Agencies%2C%20Coimbatore%2C%20Tatabad&query_place_id=ChIJs6w4rvhYqDsRrVDtTa6yXOA"
  },
  {
    "title": "Ettayee Travels",
    "categoryName": "Car leasing service",
    "address": "3, Bharathi Park Rd, 8th cross, Saibaba Colony, Coimbatore, Tamil Nadu 641011, India",
    "neighborhood": "8th cross, Saibaba Colony",
    "street": "3, Bharathi Park Rd",
    "city": "Coimbatore",
    "postalCode": "641011",
    "state": "Tamil Nadu",
    "countryCode": "IN",
    "website": "https://ettayeetravels.com/",
    "phone": "+919843045555",
    "phoneUnformatted": "+919843045555",
    "location": {
      "lat": 11.0249985,
      "lng": 76.9384302
    },
    "totalScore": 4.9,
    "permanentlyClosed": false,
    "temporarilyClosed": false,
    "placeId": "ChIJr6FpUQv-vksR2JDbCbLpe8I",
    "categories": [
      "Car leasing service",
      "Van rental agency"
    ],
    "reviewsCount": 45,
    "imagesCount": 214,
    "openingHours": [
      {
        "day": "Monday",
        "hours": "9 AM to 10 PM"
      },
      {
        "day": "Tuesday",
        "hours": "9 AM to 10 PM"
      },
      {
        "day": "Wednesday",
        "hours": "9 AM to 10 PM"
      },
      {
        "day": "Thursday",
        "hours": "9 AM to 10 PM"
      },
      {
        "day": "Friday",
        "hours": "9 AM to 10 PM"
      },
      {
        "day": "Saturday",
        "hours": "9 AM to 10 PM"
      },
      {
        "day": "Sunday",
        "hours": "Closed"
      }
    ],
    "imageUrl": "https://media.indianluxurycars.com/google/4d8612fca2692d9864871904448de03e2864639cd5bf4e72b1161e888c831c8c.jpg",
    "url": "https://www.google.com/maps/search/?api=1&query=Ettayee%20Travels&query_place_id=ChIJr6FpUQv-vksR2JDbCbLpe8I"
  },
  {
    "title": "Getzson Luxury Lines",
    "categoryName": "Car leasing service",
    "address": "Dr Krishnasamy Mudaliyar Rd, Sukrawar Pettai, R.S. Puram, Coimbatore, Tamil Nadu 641001, India",
    "neighborhood": "Sukrawar Pettai, R.S. Puram",
    "street": "Dr Krishnasamy Mudaliyar Rd",
    "city": "Coimbatore",
    "postalCode": "641001",
    "state": "Tamil Nadu",
    "countryCode": "IN",
    "phone": "+919841419851",
    "phoneUnformatted": "+919841419851",
    "location": {
      "lat": 11.0070554,
      "lng": 76.9604421
    },
    "permanentlyClosed": false,
    "temporarilyClosed": false,
    "placeId": "ChIJkd42UOZZqDsR3uRVCxeH-Dk",
    "categories": [
      "Car leasing service"
    ],
    "imagesCount": 2,
    "openingHours": [
      {
        "day": "Monday",
        "hours": "Open 24 hours"
      },
      {
        "day": "Tuesday",
        "hours": "Open 24 hours"
      },
      {
        "day": "Wednesday",
        "hours": "Open 24 hours"
      },
      {
        "day": "Thursday",
        "hours": "Open 24 hours"
      },
      {
        "day": "Friday",
        "hours": "Open 24 hours"
      },
      {
        "day": "Saturday",
        "hours": "Open 24 hours"
      },
      {
        "day": "Sunday",
        "hours": "Open 24 hours"
      }
    ],
    "imageUrl": "https://media.indianluxurycars.com/google/4eef9b0f19c79a9521bbcf72fc5e5d0903c43e8a3f44d796951be6ae82f044cb.jpg",
    "url": "https://www.google.com/maps/search/?api=1&query=Getzson%20Luxury%20Lines&query_place_id=ChIJkd42UOZZqDsR3uRVCxeH-Dk"
  },
  {
    "title": "GURU CARS",
    "categoryName": "Car dealer",
    "address": "12 2A, SP Kannusamy Gounder St, Kannappa Nagar, Sanganoor, Coimbatore, Tamil Nadu 641027, India",
    "neighborhood": "Kannappa Nagar, Sanganoor",
    "street": "12 2A, SP Kannusamy Gounder St",
    "city": "Coimbatore",
    "postalCode": "641027",
    "state": "Tamil Nadu",
    "countryCode": "IN",
    "phone": "+918778433033",
    "phoneUnformatted": "+918778433033",
    "location": {
      "lat": 11.0357562,
      "lng": 76.9618059
    },
    "totalScore": 4.7,
    "permanentlyClosed": false,
    "temporarilyClosed": false,
    "placeId": "ChIJx79LzvRYqDsR06N8JgbITJI",
    "categories": [
      "Car dealer"
    ],
    "reviewsCount": 112,
    "imagesCount": 23,
    "openingHours": [
      {
        "day": "Monday",
        "hours": "9 AM to 8:30 PM"
      },
      {
        "day": "Tuesday",
        "hours": "9 AM to 8:30 PM"
      },
      {
        "day": "Wednesday",
        "hours": "9 AM to 8:30 PM"
      },
      {
        "day": "Thursday",
        "hours": "9 AM to 8:30 PM"
      },
      {
        "day": "Friday",
        "hours": "9 AM to 8:30 PM"
      },
      {
        "day": "Saturday",
        "hours": "9 AM to 8:30 PM"
      },
      {
        "day": "Sunday",
        "hours": "9 AM to 2:30 PM"
      }
    ],
    "imageUrl": "https://media.indianluxurycars.com/google/ab7a0c22fa224ebdd98cc275a3039b638a2dedaa526e7318acc7315568d0c8f7.jpg",
    "url": "https://www.google.com/maps/search/?api=1&query=GURU%20CARS&query_place_id=ChIJx79LzvRYqDsR06N8JgbITJI"
  },
  {
    "title": "Hash cars (#cars)",
    "categoryName": "Used car dealer",
    "address": "North, Gandhiji Rd, opposite to arasan soap works, Kannappa Nagar, Sanganoor, Coimbatore, Tamil Nadu 641027, India",
    "neighborhood": "Kannappa Nagar, Sanganoor",
    "street": "North, Gandhiji Rd, opposite to arasan soap works",
    "city": "Coimbatore",
    "postalCode": "641027",
    "state": "Tamil Nadu",
    "countryCode": "IN",
    "phone": "+917686812345",
    "phoneUnformatted": "+917686812345",
    "location": {
      "lat": 11.0400272,
      "lng": 76.9547181
    },
    "totalScore": 4.9,
    "permanentlyClosed": false,
    "temporarilyClosed": false,
    "placeId": "ChIJAwqwxY1YqDsRuZSGK9tNHjI",
    "categories": [
      "Used car dealer",
      "Car dealer"
    ],
    "reviewsCount": 91,
    "imagesCount": 292,
    "openingHours": [
      {
        "day": "Monday",
        "hours": "10 AM to 7:30 PM"
      },
      {
        "day": "Tuesday",
        "hours": "10 AM to 7:30 PM"
      },
      {
        "day": "Wednesday",
        "hours": "10 AM to 7:30 PM"
      },
      {
        "day": "Thursday",
        "hours": "10 AM to 7:30 PM"
      },
      {
        "day": "Friday",
        "hours": "10 AM to 7:30 PM"
      },
      {
        "day": "Saturday",
        "hours": "10 AM to 7:30 PM"
      },
      {
        "day": "Sunday",
        "hours": "Closed"
      }
    ],
    "imageUrl": "https://media.indianluxurycars.com/google/c7289fbcc0ff6fbce103b6bff4041e989ee7313203ad3b42277b9eb0eda4fd8e.jpg",
    "url": "https://www.google.com/maps/search/?api=1&query=Hash%20cars%20(%23cars)&query_place_id=ChIJAwqwxY1YqDsRuZSGK9tNHjI"
  },
  {
    "title": "Imperial Cars and Classics",
    "categoryName": "Used car dealer",
    "address": "166, Avaram Palayam Rd, Siddhapudur, Lakshmi Mills Colony, Coimbatore, Tamil Nadu 641044, India",
    "neighborhood": "Siddhapudur, Lakshmi Mills Colony",
    "street": "166, Avaram Palayam Rd",
    "city": "Coimbatore",
    "postalCode": "641044",
    "state": "Tamil Nadu",
    "countryCode": "IN",
    "phone": "+919845036644",
    "phoneUnformatted": "+919845036644",
    "location": {
      "lat": 11.0184041,
      "lng": 76.9779268
    },
    "totalScore": 5,
    "permanentlyClosed": false,
    "temporarilyClosed": false,
    "placeId": "ChIJTdbZFlRZqDsRkphRCW7H4SU",
    "categories": [
      "Used car dealer"
    ],
    "reviewsCount": 3,
    "imagesCount": 7,
    "openingHours": [
      {
        "day": "Monday",
        "hours": "10 AM to 7 PM"
      },
      {
        "day": "Tuesday",
        "hours": "10 AM to 7 PM"
      },
      {
        "day": "Wednesday",
        "hours": "10 AM to 7 PM"
      },
      {
        "day": "Thursday",
        "hours": "10 AM to 7 PM"
      },
      {
        "day": "Friday",
        "hours": "10 AM to 7 PM"
      },
      {
        "day": "Saturday",
        "hours": "10 AM to 7 PM"
      },
      {
        "day": "Sunday",
        "hours": "Closed"
      }
    ],
    "imageUrl": "https://media.indianluxurycars.com/google/b2ba4441eff8587b9fe12acea1b9d2e186e3d4be014104cef0aa425d92d5f23d.jpg",
    "url": "https://www.google.com/maps/search/?api=1&query=Imperial%20Cars%20and%20Classics&query_place_id=ChIJTdbZFlRZqDsRkphRCW7H4SU"
  },
  {
    "title": "Junga Travels",
    "subTitle": "ஜுங்கா டிராவல்ஸ்",
    "categoryName": "Car leasing service",
    "address": "514, Diwan Bahadur Rd, opp. to Canara Bank, R.S. Puram, Coimbatore, Tamil Nadu 641002, India",
    "neighborhood": "R.S. Puram",
    "street": "514, Diwan Bahadur Rd, opp. to Canara Bank",
    "city": "Coimbatore",
    "postalCode": "641002",
    "state": "Tamil Nadu",
    "countryCode": "IN",
    "website": "https://jungatravels.com/",
    "phone": "+919994560240",
    "phoneUnformatted": "+919994560240",
    "location": {
      "lat": 11.0076063,
      "lng": 76.950737
    },
    "totalScore": 4.9,
    "permanentlyClosed": false,
    "temporarilyClosed": false,
    "placeId": "ChIJmXy0l0VZqDsRcgaJsFOsCnA",
    "categories": [
      "Car leasing service",
      "Airline ticket agency",
      "Travel agency",
      "Passport agent",
      "Taxi service",
      "Tour operator",
      "Visa consulting service"
    ],
    "reviewsCount": 133,
    "imagesCount": 361,
    "openingHours": [
      {
        "day": "Monday",
        "hours": "9:30 AM to 8 PM"
      },
      {
        "day": "Tuesday",
        "hours": "9:30 AM to 8 PM"
      },
      {
        "day": "Wednesday",
        "hours": "9:30 AM to 8 PM"
      },
      {
        "day": "Thursday",
        "hours": "9:30 AM to 8 PM"
      },
      {
        "day": "Friday",
        "hours": "9:30 AM to 8 PM"
      },
      {
        "day": "Saturday",
        "hours": "9:30 AM to 8 PM"
      },
      {
        "day": "Sunday",
        "hours": "Closed"
      }
    ],
    "imageUrl": "https://media.indianluxurycars.com/google/52de621a64b6956e4fd734f71ef1abfe2d42f9409d59f37c10885621ef5ca79c.jpg",
    "url": "https://www.google.com/maps/search/?api=1&query=Junga%20Travels&query_place_id=ChIJmXy0l0VZqDsRcgaJsFOsCnA"
  },
  {
    "title": "Kumar Cars",
    "subTitle": "குமார் கார்ஸ்",
    "categoryName": "Used car dealer",
    "address": "114, Sastri Rd, opp. to subashree hotel, Ram Nagar, Coimbatore, Tamil Nadu 641009, India",
    "neighborhood": "Ram Nagar",
    "street": "114, Sastri Rd, opp. to subashree hotel",
    "city": "Coimbatore",
    "postalCode": "641009",
    "state": "Tamil Nadu",
    "countryCode": "IN",
    "phone": "+919842245040",
    "phoneUnformatted": "+919842245040",
    "location": {
      "lat": 11.0116625,
      "lng": 76.9604462
    },
    "totalScore": 4.9,
    "permanentlyClosed": false,
    "temporarilyClosed": false,
    "placeId": "ChIJtZAbEAFZqDsRZj2QV86bFb0",
    "categories": [
      "Used car dealer"
    ],
    "reviewsCount": 36,
    "imagesCount": 14,
    "openingHours": [
      {
        "day": "Monday",
        "hours": "8 AM to 10 PM"
      },
      {
        "day": "Tuesday",
        "hours": "8 AM to 10 PM"
      },
      {
        "day": "Wednesday",
        "hours": "8 AM to 10 PM"
      },
      {
        "day": "Thursday",
        "hours": "8 AM to 10 PM"
      },
      {
        "day": "Friday",
        "hours": "8 AM to 10 PM"
      },
      {
        "day": "Saturday",
        "hours": "8 AM to 10 PM"
      },
      {
        "day": "Sunday",
        "hours": "8 AM to 10 PM"
      }
    ],
    "imageUrl": "https://media.indianluxurycars.com/google/b55b2d11e51d8346889ad054295680780276cc16f5fd437fa05463cbe482f334.jpg",
    "url": "https://www.google.com/maps/search/?api=1&query=Kumar%20Cars&query_place_id=ChIJtZAbEAFZqDsRZj2QV86bFb0"
  },
  {
    "title": "Lexus MERAKI Coimbatore",
    "categoryName": "Car dealer",
    "address": "14, W Club Rd, Race Course, Gopalapuram, Coimbatore, Tamil Nadu 641018, India",
    "neighborhood": "Race Course, Gopalapuram",
    "street": "14, W Club Rd",
    "city": "Coimbatore",
    "postalCode": "641018",
    "state": "Tamil Nadu",
    "countryCode": "IN",
    "website": "https://www.lexusindia.co.in/en/brand-experience-centres/Coimbatore.html",
    "phone": "+91180030053987",
    "phoneUnformatted": "+91180030053987",
    "location": {
      "lat": 10.9964054,
      "lng": 76.9739238
    },
    "totalScore": 5,
    "permanentlyClosed": false,
    "temporarilyClosed": false,
    "placeId": "ChIJUXNQjidZqDsR9WKWWlr5J1E",
    "categories": [
      "Car dealer"
    ],
    "reviewsCount": 2,
    "imagesCount": 14,
    "openingHours": [
      {
        "day": "Monday",
        "hours": "10:30 AM to 6 PM"
      },
      {
        "day": "Tuesday",
        "hours": "10:30 AM to 6 PM"
      },
      {
        "day": "Wednesday",
        "hours": "10:30 AM to 6 PM"
      },
      {
        "day": "Thursday",
        "hours": "10:30 AM to 6 PM"
      },
      {
        "day": "Friday",
        "hours": "10:30 AM to 6 PM"
      },
      {
        "day": "Saturday",
        "hours": "10:30 AM to 6 PM"
      },
      {
        "day": "Sunday",
        "hours": "Closed"
      }
    ],
    "imageUrl": "https://media.indianluxurycars.com/google/536772844a8b00f0d349e64f31799db122503ebff3a80151d68f1d491c06b4ca.jpg",
    "url": "https://www.google.com/maps/search/?api=1&query=Lexus%20MERAKI%20Coimbatore&query_place_id=ChIJUXNQjidZqDsR9WKWWlr5J1E"
  },
  {
    "title": "Mannadiar Cars",
    "subTitle": "மன்னாடியர் கார்ஸ்",
    "categoryName": "Used car dealer",
    "address": "179 B, Krishna, W TV Swamy Rd, R.S. Puram, Coimbatore, Tamil Nadu 641002, India",
    "neighborhood": "Sukrawar Pettai, R.S. Puram",
    "street": "179 B, Krishna, W TV Swamy Rd",
    "city": "Coimbatore",
    "postalCode": "641002",
    "state": "Tamil Nadu",
    "countryCode": "IN",
    "website": "http://www.mannadiarcars.com/",
    "phone": "+919943190000",
    "phoneUnformatted": "+919943190000",
    "location": {
      "lat": 11.009806,
      "lng": 76.957949
    },
    "totalScore": 4.3,
    "permanentlyClosed": false,
    "temporarilyClosed": false,
    "placeId": "ChIJFd8S2wNZqDsRNc6VXsu47W4",
    "categories": [
      "Used car dealer",
      "Car dealer"
    ],
    "reviewsCount": 398,
    "imagesCount": 68,
    "openingHours": [
      {
        "day": "Monday",
        "hours": "9:30 AM to 8 PM"
      },
      {
        "day": "Tuesday",
        "hours": "9:30 AM to 8 PM"
      },
      {
        "day": "Wednesday",
        "hours": "9:30 AM to 8 PM"
      },
      {
        "day": "Thursday",
        "hours": "9:30 AM to 8 PM"
      },
      {
        "day": "Friday",
        "hours": "9:30 AM to 8 PM"
      },
      {
        "day": "Saturday",
        "hours": "9:30 AM to 8 PM"
      },
      {
        "day": "Sunday",
        "hours": "10 AM to 4 PM"
      }
    ],
    "imageUrl": "https://media.indianluxurycars.com/google/aa29ae84dfff1adb14a166442eae32ef00c204f79b8026f64f52abc6f768b84f.jpg",
    "url": "https://www.google.com/maps/search/?api=1&query=Mannadiar%20Cars&query_place_id=ChIJFd8S2wNZqDsRNc6VXsu47W4"
  },
  {
    "title": "MAYUR CARS",
    "categoryName": "Car dealer",
    "address": "No 8, Thayerreteri Road, near Manis Nagar, Kannappa Nagar, Sanganoor, Coimbatore, Tamil Nadu 641027, India",
    "neighborhood": "Kannappa Nagar, Sanganoor",
    "street": "No 8, Thayerreteri Road, near Manis Nagar",
    "city": "Coimbatore",
    "postalCode": "641027",
    "state": "Tamil Nadu",
    "countryCode": "IN",
    "phone": "+919894617850",
    "phoneUnformatted": "+919894617850",
    "location": {
      "lat": 11.0408896,
      "lng": 76.9546005
    },
    "totalScore": 5,
    "permanentlyClosed": false,
    "temporarilyClosed": false,
    "placeId": "ChIJqzQjCgBZqDsREA0ddxxHJ_o",
    "categories": [
      "Car dealer"
    ],
    "reviewsCount": 2,
    "imagesCount": 1,
    "openingHours": [
      {
        "day": "Monday",
        "hours": "9:30 AM to 8 PM"
      },
      {
        "day": "Tuesday",
        "hours": "9:30 AM to 8 PM"
      },
      {
        "day": "Wednesday",
        "hours": "9:30 AM to 8 PM"
      },
      {
        "day": "Thursday",
        "hours": "9:30 AM to 8 PM"
      },
      {
        "day": "Friday",
        "hours": "9:30 AM to 8 PM"
      },
      {
        "day": "Saturday",
        "hours": "9:30 AM to 8 PM"
      },
      {
        "day": "Sunday",
        "hours": "10 AM to 2 PM"
      }
    ],
    "imageUrl": "https://media.indianluxurycars.com/google/b62fde61b29366009a797e4b39ed56f50a91b32f6674671a39de6ac4739546a3.jpg",
    "url": "https://www.google.com/maps/search/?api=1&query=MAYUR%20CARS&query_place_id=ChIJqzQjCgBZqDsREA0ddxxHJ_o"
  },
  {
    "title": "Prabu Travels",
    "subTitle": "பிரபு டிராவல்ஸ்",
    "categoryName": "Car rental agency",
    "address": "uppilipalayam 127 Uma nama nagar -1, Thandu Mariamman Temple, backside, Coimbatore, Tamil Nadu 641018, India",
    "neighborhood": "backside",
    "street": "uppilipalayam 127 Uma nama nagar -1, Thandu Mariamman Temple",
    "city": "Coimbatore",
    "postalCode": "641018",
    "state": "Tamil Nadu",
    "countryCode": "IN",
    "website": "https://prabutourstravels.com/",
    "phone": "+919840108069",
    "phoneUnformatted": "+919840108069",
    "location": {
      "lat": 11.0016897,
      "lng": 76.9678764
    },
    "totalScore": 4.7,
    "permanentlyClosed": false,
    "temporarilyClosed": false,
    "placeId": "ChIJWb1hnXlXqDsRMjuHeg3k8i8",
    "categories": [
      "Car rental agency",
      "Bus tour agency",
      "Car leasing service",
      "Travel agency",
      "Tour operator"
    ],
    "reviewsCount": 1252,
    "imagesCount": 469,
    "openingHours": [
      {
        "day": "Monday",
        "hours": "9:30 AM to 6 PM"
      },
      {
        "day": "Tuesday",
        "hours": "9:30 AM to 6 PM"
      },
      {
        "day": "Wednesday",
        "hours": "9:30 AM to 6 PM"
      },
      {
        "day": "Thursday",
        "hours": "9:30 AM to 6 PM"
      },
      {
        "day": "Friday",
        "hours": "9:30 AM to 6 PM"
      },
      {
        "day": "Saturday",
        "hours": "9:30 AM to 6 PM"
      },
      {
        "day": "Sunday",
        "hours": "9:30 AM to 6 PM"
      }
    ],
    "imageUrl": "https://media.indianluxurycars.com/google/09dc4b01ff4c8ac08025eec4265feafddf55d5fd081f2d44f3def8c925ed3a1c.jpg",
    "url": "https://www.google.com/maps/search/?api=1&query=Prabu%20Travels&query_place_id=ChIJWb1hnXlXqDsRMjuHeg3k8i8"
  },
  {
    "title": "Prabu Travels",
    "categoryName": "Car rental agency",
    "address": "No.53, 6th floor, 1st St, Tatabad, Coimbatore, Tamil Nadu 641012, India",
    "neighborhood": "Tatabad",
    "street": "No.53, 6th floor, 1st St",
    "city": "Coimbatore",
    "postalCode": "641012",
    "state": "Tamil Nadu",
    "countryCode": "IN",
    "website": "https://www.prabutourstravels.com/",
    "phone": "+919566111046",
    "phoneUnformatted": "+919566111046",
    "location": {
      "lat": 11.0195264,
      "lng": 76.9666528
    },
    "totalScore": 4.8,
    "permanentlyClosed": false,
    "temporarilyClosed": false,
    "placeId": "ChIJle2yAclZqDsRNzvMk5sUBq8",
    "categories": [
      "Car rental agency",
      "Bus tour agency",
      "Car leasing service",
      "Travel agency",
      "Minibus taxi service",
      "Sightseeing tour agency",
      "Taxi service",
      "Tour operator"
    ],
    "reviewsCount": 161,
    "imagesCount": 14,
    "openingHours": [
      {
        "day": "Monday",
        "hours": "9 AM to 5 PM"
      },
      {
        "day": "Tuesday",
        "hours": "9 AM to 5 PM"
      },
      {
        "day": "Wednesday",
        "hours": "9 AM to 5 PM"
      },
      {
        "day": "Thursday",
        "hours": "9 AM to 5 PM"
      },
      {
        "day": "Friday",
        "hours": "9 AM to 5 PM"
      },
      {
        "day": "Saturday",
        "hours": "9 AM to 5 PM"
      },
      {
        "day": "Sunday",
        "hours": "Closed"
      }
    ],
    "imageUrl": "https://media.indianluxurycars.com/google/9ef5d1a2bef830cd9d1c734a5a7c4cb6d4618f4ed9733e9df60e0b24e8c7ba43.jpg",
    "url": "https://www.google.com/maps/search/?api=1&query=Prabu%20Travels&query_place_id=ChIJle2yAclZqDsRNzvMk5sUBq8"
  },
  {
    "title": "Prasana cars",
    "subTitle": "ப்ரஸன்னா கார்ஸ்",
    "categoryName": "Used car dealer",
    "address": "8th Cross Rd, Peelamedu, Thirumagal Nagar, Masakalipalayam, Coimbatore, Tamil Nadu 641004, India",
    "neighborhood": "Peelamedu, Thirumagal Nagar, Masakalipalayam",
    "street": "8th Cross Rd",
    "city": "Coimbatore",
    "postalCode": "641004",
    "state": "Tamil Nadu",
    "countryCode": "IN",
    "website": "http://prasanacars.net/",
    "phone": "+919842224811",
    "phoneUnformatted": "+919842224811",
    "location": {
      "lat": 11.0167689,
      "lng": 77.0015716
    },
    "totalScore": 4.5,
    "permanentlyClosed": false,
    "temporarilyClosed": false,
    "placeId": "ChIJy4-PuYdXqDsR8IxTXWCBIGw",
    "categories": [
      "Used car dealer",
      "Honda dealer",
      "Hyundai dealer"
    ],
    "reviewsCount": 145,
    "imagesCount": 45,
    "openingHours": [
      {
        "day": "Monday",
        "hours": "10 AM to 7 PM"
      },
      {
        "day": "Tuesday",
        "hours": "10 AM to 7 PM"
      },
      {
        "day": "Wednesday",
        "hours": "10 AM to 7 PM"
      },
      {
        "day": "Thursday",
        "hours": "10 AM to 7 PM"
      },
      {
        "day": "Friday",
        "hours": "10 AM to 7 PM"
      },
      {
        "day": "Saturday",
        "hours": "10 AM to 7 PM"
      },
      {
        "day": "Sunday",
        "hours": "11 AM to 2 PM"
      }
    ],
    "imageUrl": "https://media.indianluxurycars.com/google/5a24dc3c58a40d931c5da2fb5e5bed16fff993422af8105eba11f748fc6ea5b3.jpg",
    "url": "https://www.google.com/maps/search/?api=1&query=Prasana%20cars&query_place_id=ChIJy4-PuYdXqDsR8IxTXWCBIGw"
  },
  {
    "title": "Prasana Cars",
    "subTitle": "ப்ரஸன்னா கார்ஸ்",
    "categoryName": "Used car dealer",
    "address": "5, Avinashi Rd, Peelamedu, Masakalipalayam, Coimbatore, Tamil Nadu 641004, India",
    "neighborhood": "Peelamedu, Masakalipalayam",
    "street": "5, Avinashi Rd",
    "city": "Coimbatore",
    "postalCode": "641004",
    "state": "Tamil Nadu",
    "countryCode": "IN",
    "website": "http://www.prasanacars.net/",
    "phone": "+919842213411",
    "phoneUnformatted": "+919842213411",
    "location": {
      "lat": 11.0221787,
      "lng": 76.9996095
    },
    "totalScore": 3.8,
    "permanentlyClosed": false,
    "temporarilyClosed": false,
    "placeId": "ChIJkQEu2oVXqDsRyMOZ3GNkS30",
    "categories": [
      "Used car dealer"
    ],
    "reviewsCount": 17,
    "imagesCount": 1,
    "openingHours": [
      {
        "day": "Monday",
        "hours": "10 AM to 8:30 PM"
      },
      {
        "day": "Tuesday",
        "hours": "10 AM to 8:30 PM"
      },
      {
        "day": "Wednesday",
        "hours": "10 AM to 8:30 PM"
      },
      {
        "day": "Thursday",
        "hours": "10 AM to 8:30 PM"
      },
      {
        "day": "Friday",
        "hours": "10 AM to 8:30 PM"
      },
      {
        "day": "Saturday",
        "hours": "10 AM to 8:30 PM"
      },
      {
        "day": "Sunday",
        "hours": "11 AM to 2 PM"
      }
    ],
    "imageUrl": "https://media.indianluxurycars.com/google/b25628c63b8b6a63e4d3306bff692c573b5580c197cb0eeaa62aa5c0393a2974.jpg",
    "url": "https://www.google.com/maps/search/?api=1&query=Prasana%20Cars&query_place_id=ChIJkQEu2oVXqDsRyMOZ3GNkS30"
  },
  {
    "title": "RBS Autos",
    "categoryName": "Car dealer",
    "address": "262, Alagesan Rd, opposite to co-optex, Jawahar Nagar, Saibaba Colony, Coimbatore, Tamil Nadu 641011, India",
    "neighborhood": "Jawahar Nagar, Saibaba Colony",
    "street": "262, Alagesan Rd, opposite to co-optex",
    "city": "Coimbatore",
    "postalCode": "641011",
    "state": "Tamil Nadu",
    "countryCode": "IN",
    "website": "https://rbsautos.in/",
    "phone": "+919597977234",
    "phoneUnformatted": "+919597977234",
    "location": {
      "lat": 11.0229079,
      "lng": 76.9447434
    },
    "totalScore": 4.9,
    "permanentlyClosed": false,
    "temporarilyClosed": false,
    "placeId": "ChIJy6CvLxVZqDsR4cJj-tRQEXw",
    "categories": [
      "Car dealer"
    ],
    "reviewsCount": 19,
    "imagesCount": 4,
    "openingHours": [
      {
        "day": "Monday",
        "hours": "9:30 AM to 8 PM"
      },
      {
        "day": "Tuesday",
        "hours": "9:30 AM to 8 PM"
      },
      {
        "day": "Wednesday",
        "hours": "9:30 AM to 8 PM"
      },
      {
        "day": "Thursday",
        "hours": "9:30 AM to 8 PM"
      },
      {
        "day": "Friday",
        "hours": "9:30 AM to 8 PM"
      },
      {
        "day": "Saturday",
        "hours": "9 AM to 8 PM"
      },
      {
        "day": "Sunday",
        "hours": "9 AM to 1 PM"
      }
    ],
    "imageUrl": "https://media.indianluxurycars.com/google/67d462b3d4dc6c77f861deaa66d76f78be910a702615a901437be04f0cf49155.png",
    "url": "https://www.google.com/maps/search/?api=1&query=RBS%20Autos&query_place_id=ChIJy6CvLxVZqDsR4cJj-tRQEXw"
  },
  {
    "title": "S K CarrShoPe",
    "subTitle": "எஸ் கே கேரஷோப்",
    "categoryName": "Used car dealer",
    "address": "191, Sambandam Rd E, R.S. Puram, Coimbatore, Tamil Nadu 641002, India",
    "neighborhood": "R.S. Puram",
    "street": "191, Sambandam Rd E",
    "city": "Coimbatore",
    "postalCode": "641002",
    "state": "Tamil Nadu",
    "countryCode": "IN",
    "phone": "+919894466788",
    "phoneUnformatted": "+919894466788",
    "location": {
      "lat": 11.0088295,
      "lng": 76.9519959
    },
    "totalScore": 4.7,
    "permanentlyClosed": false,
    "temporarilyClosed": false,
    "placeId": "ChIJt8dztOJYqDsRfjlBsQ5Bk5M",
    "categories": [
      "Used car dealer"
    ],
    "reviewsCount": 235,
    "imagesCount": 139,
    "openingHours": [
      {
        "day": "Monday",
        "hours": "9:30 AM to 8 PM"
      },
      {
        "day": "Tuesday",
        "hours": "9:30 AM to 8 PM"
      },
      {
        "day": "Wednesday",
        "hours": "9:30 AM to 8 PM"
      },
      {
        "day": "Thursday",
        "hours": "9:30 AM to 8 PM"
      },
      {
        "day": "Friday",
        "hours": "9:30 AM to 8 PM"
      },
      {
        "day": "Saturday",
        "hours": "9:30 AM to 8 PM"
      },
      {
        "day": "Sunday",
        "hours": "11 AM to 5 PM"
      }
    ],
    "imageUrl": "https://media.indianluxurycars.com/google/9cbeda15f4587939623a9e900e17497cfe5801937e3434c18c39003c07b5b0da.jpg",
    "url": "https://www.google.com/maps/search/?api=1&query=S%20K%20CarrShoPe&query_place_id=ChIJt8dztOJYqDsRfjlBsQ5Bk5M"
  },
  {
    "title": "S7 CARPRO",
    "categoryName": "Car accessories store",
    "address": "3/2B, Kannusamy street, 641027, Sanganoor Main Rd, behind Thirumalai Cars, Coimbatore, Tamil Nadu 641027, India",
    "neighborhood": "Sanganoor",
    "street": "3/2B, Kannusamy street, 641027, Sanganoor Main Rd, behind Thirumalai Cars",
    "city": "Coimbatore",
    "postalCode": "641027",
    "state": "Tamil Nadu",
    "countryCode": "IN",
    "website": "http://www.s7carpro.com/",
    "phone": "+919843560007",
    "phoneUnformatted": "+919843560007",
    "location": {
      "lat": 11.0341428,
      "lng": 76.9646725
    },
    "totalScore": 4.6,
    "permanentlyClosed": false,
    "temporarilyClosed": false,
    "placeId": "ChIJCwaz41dYqDsRETCMIBAiYYc",
    "categories": [
      "Car accessories store"
    ],
    "reviewsCount": 84,
    "imagesCount": 1002,
    "openingHours": [
      {
        "day": "Monday",
        "hours": "10 AM to 8 PM"
      },
      {
        "day": "Tuesday",
        "hours": "10 AM to 8 PM"
      },
      {
        "day": "Wednesday",
        "hours": "10 AM to 8 PM"
      },
      {
        "day": "Thursday",
        "hours": "10 AM to 8 PM"
      },
      {
        "day": "Friday",
        "hours": "10 AM to 8 PM"
      },
      {
        "day": "Saturday",
        "hours": "10 AM to 8 PM"
      },
      {
        "day": "Sunday",
        "hours": "Closed"
      }
    ],
    "imageUrl": "https://media.indianluxurycars.com/google/8fd5bebd39d1669cb6af54986f8f3fd3dcdc17c71e1fb7647656e1b05711b50f.jpg",
    "url": "https://www.google.com/maps/search/?api=1&query=S7%20CARPRO&query_place_id=ChIJCwaz41dYqDsRETCMIBAiYYc"
  },
  {
    "title": "Shree Hari Travels",
    "subTitle": "ஶ்ரீ ஹரி டிராவல்ஸ்",
    "categoryName": "Car rental agency",
    "address": "54-C, 1st Floor, Rajanaidu Street, opp. KVB Bank, Sivananda Colony, Tatabad, Coimbatore, Tamil Nadu 641012, India",
    "neighborhood": "Sivananda Colony, Tatabad",
    "street": "54-C, 1st Floor, Rajanaidu Street, opp. KVB Bank",
    "city": "Coimbatore",
    "postalCode": "641012",
    "state": "Tamil Nadu",
    "countryCode": "IN",
    "website": "http://www.shtcindia.com/",
    "phone": "+919003885500",
    "phoneUnformatted": "+919003885500",
    "location": {
      "lat": 11.022458,
      "lng": 76.95652
    },
    "totalScore": 4.4,
    "permanentlyClosed": false,
    "temporarilyClosed": false,
    "placeId": "ChIJk0p9RfpYqDsRHJnwmooNA8A",
    "categories": [
      "Car rental agency",
      "Airline ticket agency",
      "Bus ticket agency",
      "Bus tour agency",
      "Car leasing service",
      "Travel agency",
      "Insurance agency",
      "Tour agency",
      "Train ticket agency",
      "Van rental agency"
    ],
    "reviewsCount": 11,
    "openingHours": [
      {
        "day": "Monday",
        "hours": "Open 24 hours"
      },
      {
        "day": "Tuesday",
        "hours": "Open 24 hours"
      },
      {
        "day": "Wednesday",
        "hours": "Open 24 hours"
      },
      {
        "day": "Thursday",
        "hours": "Open 24 hours"
      },
      {
        "day": "Friday",
        "hours": "Open 24 hours"
      },
      {
        "day": "Saturday",
        "hours": "12 AM to 11:59 PM"
      },
      {
        "day": "Sunday",
        "hours": "Open 24 hours"
      }
    ],
    "url": "https://www.google.com/maps/search/?api=1&query=Shree%20Hari%20Travels&query_place_id=ChIJk0p9RfpYqDsRHJnwmooNA8A"
  },
  {
    "title": "SLS TRAVELS",
    "categoryName": "Car rental agency",
    "address": "No.138/1F, Jawahar Nagar, Kavundampalayam, Coimbatore, Tamil Nadu 641038, India",
    "neighborhood": "Jawahar Nagar, Kavundampalayam",
    "street": "No.138/1F",
    "city": "Coimbatore",
    "postalCode": "641038",
    "state": "Tamil Nadu",
    "countryCode": "IN",
    "website": "https://slstravelscoimbatore.in/",
    "phone": "+919585893773",
    "phoneUnformatted": "+919585893773",
    "location": {
      "lat": 11.0308933,
      "lng": 76.9372189
    },
    "totalScore": 5,
    "permanentlyClosed": false,
    "temporarilyClosed": false,
    "placeId": "ChIJCUV9PDhZqDsR5z7tZLKfA_8",
    "categories": [
      "Car rental agency",
      "Bus tour agency",
      "Travel agency",
      "Minibus taxi service",
      "Van rental agency"
    ],
    "reviewsCount": 20,
    "imagesCount": 54,
    "openingHours": [
      {
        "day": "Monday",
        "hours": "Open 24 hours"
      },
      {
        "day": "Tuesday",
        "hours": "Open 24 hours"
      },
      {
        "day": "Wednesday",
        "hours": "Open 24 hours"
      },
      {
        "day": "Thursday",
        "hours": "Open 24 hours"
      },
      {
        "day": "Friday",
        "hours": "Open 24 hours"
      },
      {
        "day": "Saturday",
        "hours": "Open 24 hours"
      },
      {
        "day": "Sunday",
        "hours": "Open 24 hours"
      }
    ],
    "imageUrl": "https://media.indianluxurycars.com/google/a0f6061d2fe611175c8f89f468f1c6e7e95569e7913499717f1efe5f7122c014.jpg",
    "url": "https://www.google.com/maps/search/?api=1&query=SLS%20TRAVELS&query_place_id=ChIJCUV9PDhZqDsR5z7tZLKfA_8"
  },
  {
    "title": "SMART HOLIDAYS",
    "categoryName": "Car leasing service",
    "address": "1st Floor, Sri Sundaram Arcade, Door No, 170/4, NSR Rd, Saibaba Colony, Coimbatore, Tamil Nadu 641038, India",
    "neighborhood": "Saibaba Colony",
    "street": "1st Floor, Sri Sundaram Arcade, Door No, 170/4, NSR Rd",
    "city": "Coimbatore",
    "postalCode": "641038",
    "state": "Tamil Nadu",
    "countryCode": "IN",
    "website": "https://smartholidaytravels.com/",
    "phone": "+919787187879",
    "phoneUnformatted": "+919787187879",
    "location": {
      "lat": 11.026088,
      "lng": 76.941665
    },
    "totalScore": 5,
    "permanentlyClosed": false,
    "temporarilyClosed": false,
    "placeId": "ChIJV2JZN7JZqDsRPLQpBgun4KI",
    "categories": [
      "Car leasing service"
    ],
    "reviewsCount": 70,
    "imagesCount": 42,
    "openingHours": [
      {
        "day": "Monday",
        "hours": "Open 24 hours"
      },
      {
        "day": "Tuesday",
        "hours": "Open 24 hours"
      },
      {
        "day": "Wednesday",
        "hours": "Open 24 hours"
      },
      {
        "day": "Thursday",
        "hours": "Open 24 hours"
      },
      {
        "day": "Friday",
        "hours": "Open 24 hours"
      },
      {
        "day": "Saturday",
        "hours": "Open 24 hours"
      },
      {
        "day": "Sunday",
        "hours": "Open 24 hours"
      }
    ],
    "imageUrl": "https://media.indianluxurycars.com/google/e2eb11b4ba4879e43ef533ea0e1974720a5a027f6518f8bab4cdacb6a988e778.jpg",
    "url": "https://www.google.com/maps/search/?api=1&query=SMART%20HOLIDAYS&query_place_id=ChIJV2JZN7JZqDsRPLQpBgun4KI"
  },
  {
    "title": "Speetek Rent A Car",
    "categoryName": "Car rental agency",
    "address": "Victoria Towers, FF2, Government Arts College Rd, Gopalapuram, Coimbatore, Tamil Nadu 641018, India",
    "neighborhood": "Gopalapuram",
    "street": "Victoria Towers, FF2, Government Arts College Rd",
    "city": "Coimbatore",
    "postalCode": "641018",
    "state": "Tamil Nadu",
    "countryCode": "IN",
    "phone": "+919944728667",
    "phoneUnformatted": "+919944728667",
    "location": {
      "lat": 10.9975224,
      "lng": 76.9712448
    },
    "totalScore": 4.6,
    "permanentlyClosed": false,
    "temporarilyClosed": false,
    "placeId": "ChIJ0_kkdaRZqDsR7O7e7nGJTws",
    "categories": [
      "Car rental agency"
    ],
    "reviewsCount": 227,
    "imagesCount": 71,
    "openingHours": [
      {
        "day": "Monday",
        "hours": "Open 24 hours"
      },
      {
        "day": "Tuesday",
        "hours": "Open 24 hours"
      },
      {
        "day": "Wednesday",
        "hours": "Open 24 hours"
      },
      {
        "day": "Thursday",
        "hours": "Open 24 hours"
      },
      {
        "day": "Friday",
        "hours": "Open 24 hours"
      },
      {
        "day": "Saturday",
        "hours": "Open 24 hours"
      },
      {
        "day": "Sunday",
        "hours": "Open 24 hours"
      }
    ],
    "imageUrl": "https://media.indianluxurycars.com/google/010b1f7588402fa16cb2bf5339653da124553d429f1daf84925dab5ecc5e7784.jpg",
    "url": "https://www.google.com/maps/search/?api=1&query=Speetek%20Rent%20A%20Car&query_place_id=ChIJ0_kkdaRZqDsR7O7e7nGJTws"
  },
  {
    "title": "Springfield Travel and Visa Services",
    "categoryName": "Car rental agency",
    "address": "Springfield Travels, 97A, Robertson Rd, Near Milk Company, R.S. Puram, Coimbatore, Tamil Nadu 641002, India",
    "neighborhood": "Near Milk Company, R.S. Puram",
    "street": "Springfield Travels, 97A, Robertson Rd",
    "city": "Coimbatore",
    "postalCode": "641002",
    "state": "Tamil Nadu",
    "countryCode": "IN",
    "website": "https://springfieldtravels.com/",
    "phone": "+919600639825",
    "phoneUnformatted": "+919600639825",
    "location": {
      "lat": 11.0079019,
      "lng": 76.9443014
    },
    "totalScore": 5,
    "permanentlyClosed": false,
    "temporarilyClosed": false,
    "placeId": "ChIJ6TDrpgtZqDsRYW1SI4r6R4Q",
    "categories": [
      "Car rental agency",
      "Airline ticket agency",
      "Car leasing service",
      "Visa consulting service",
      "Passport agent",
      "Tour operator",
      "Tourist information center",
      "Travel agency",
      "Visa and passport office"
    ],
    "reviewsCount": 9,
    "imagesCount": 4,
    "openingHours": [
      {
        "day": "Monday",
        "hours": "10 AM to 6:30 PM"
      },
      {
        "day": "Tuesday",
        "hours": "10 AM to 6:30 PM"
      },
      {
        "day": "Wednesday",
        "hours": "10 AM to 6:30 PM"
      },
      {
        "day": "Thursday",
        "hours": "10 AM to 6:30 PM"
      },
      {
        "day": "Friday",
        "hours": "10 AM to 6:30 PM"
      },
      {
        "day": "Saturday",
        "hours": "10 AM to 6:30 PM"
      },
      {
        "day": "Sunday",
        "hours": "Closed"
      }
    ],
    "imageUrl": "https://media.indianluxurycars.com/google/dc56ae6fbc2705238abddd27b254a73606962b594faf79fe6527679ae518f5bb.jpg",
    "url": "https://www.google.com/maps/search/?api=1&query=Springfield%20Travel%20and%20Visa%20Services&query_place_id=ChIJ6TDrpgtZqDsRYW1SI4r6R4Q"
  },
  {
    "title": "SREE EASWARI TRAVELS",
    "subTitle": "ஶ்ரீ ஈஸ்வரி டிராவல்ஸ்",
    "categoryName": "Car rental agency",
    "address": "436G, Avinashi Rd, Peelamedu, Masakalipalayam, Coimbatore, Tamil Nadu 641004, India",
    "neighborhood": "Peelamedu, Masakalipalayam",
    "street": "436G, Avinashi Rd",
    "city": "Coimbatore",
    "postalCode": "641004",
    "state": "Tamil Nadu",
    "countryCode": "IN",
    "phone": "+919443718233",
    "phoneUnformatted": "+919443718233",
    "location": {
      "lat": 11.0220837,
      "lng": 76.9985725
    },
    "totalScore": 4.9,
    "permanentlyClosed": false,
    "temporarilyClosed": false,
    "placeId": "ChIJZai44DFYqDsRa2N1w3vKeH0",
    "categories": [
      "Car rental agency",
      "Airline ticket agency",
      "Bus ticket agency",
      "Group accommodation",
      "Tour operator",
      "Train ticket office"
    ],
    "reviewsCount": 20,
    "imagesCount": 5,
    "openingHours": [],
    "imageUrl": "https://media.indianluxurycars.com/google/298e98642e1aae07370a20ca86a47954cd64d6ad289eda04f85cc665a07c5848.jpg",
    "url": "https://www.google.com/maps/search/?api=1&query=SREE%20EASWARI%20TRAVELS&query_place_id=ChIJZai44DFYqDsRa2N1w3vKeH0"
  },
  {
    "title": "Sree Sami Cars",
    "categoryName": "Used car dealer",
    "address": "45-48, Kalinga Rayar St, near BANANASLICE SHOP, Ram Nagar, Coimbatore, Tamil Nadu 641009, India",
    "neighborhood": "Ram Nagar",
    "street": "45-48, Kalinga Rayar St, near BANANASLICE SHOP",
    "city": "Coimbatore",
    "postalCode": "641009",
    "state": "Tamil Nadu",
    "countryCode": "IN",
    "phone": "+919842250000",
    "phoneUnformatted": "+919842250000",
    "location": {
      "lat": 11.0109185,
      "lng": 76.9659986
    },
    "totalScore": 4.2,
    "permanentlyClosed": false,
    "temporarilyClosed": false,
    "placeId": "ChIJy0qcjABZqDsR4vAfiWECSdQ",
    "categories": [
      "Used car dealer"
    ],
    "reviewsCount": 75,
    "imagesCount": 6,
    "openingHours": [
      {
        "day": "Monday",
        "hours": "9:30 AM to 8 PM"
      },
      {
        "day": "Tuesday",
        "hours": "9:30 AM to 8 PM"
      },
      {
        "day": "Wednesday",
        "hours": "9:30 AM to 8 PM"
      },
      {
        "day": "Thursday",
        "hours": "9:30 AM to 8 PM"
      },
      {
        "day": "Friday",
        "hours": "9:30 AM to 8 PM"
      },
      {
        "day": "Saturday",
        "hours": "9:30 AM to 8 PM"
      },
      {
        "day": "Sunday",
        "hours": "9:30 AM to 3 PM"
      }
    ],
    "imageUrl": "https://media.indianluxurycars.com/google/b48c940d59e57d2c2674230ff8147c0b5e12f4d55cfa0ad0031ed7a7228b6295.jpg",
    "url": "https://www.google.com/maps/search/?api=1&query=Sree%20Sami%20Cars&query_place_id=ChIJy0qcjABZqDsR4vAfiWECSdQ"
  },
  {
    "title": "Sree Vaishnavi Carrs",
    "categoryName": "Car dealer",
    "address": "122C, 3rd St, Hudco Colony, Tatabad, Coimbatore, Tamil Nadu 641012, India",
    "neighborhood": "Hudco Colony, Tatabad",
    "street": "122C, 3rd St",
    "city": "Coimbatore",
    "postalCode": "641012",
    "state": "Tamil Nadu",
    "countryCode": "IN",
    "website": "https://www.svcars.in/",
    "phone": "+919843676100",
    "phoneUnformatted": "+919843676100",
    "location": {
      "lat": 11.0215485,
      "lng": 76.9608989
    },
    "totalScore": 4.4,
    "permanentlyClosed": false,
    "temporarilyClosed": false,
    "placeId": "ChIJMU5tEflYqDsR-v0OgWAYGvA",
    "categories": [
      "Car dealer",
      "Used car dealer"
    ],
    "reviewsCount": 701,
    "imagesCount": 152,
    "openingHours": [
      {
        "day": "Monday",
        "hours": "10 AM to 8 PM"
      },
      {
        "day": "Tuesday",
        "hours": "10 AM to 8 PM"
      },
      {
        "day": "Wednesday",
        "hours": "10 AM to 8 PM"
      },
      {
        "day": "Thursday",
        "hours": "10 AM to 8 PM"
      },
      {
        "day": "Friday",
        "hours": "10 AM to 8 PM"
      },
      {
        "day": "Saturday",
        "hours": "10 AM to 8 PM"
      },
      {
        "day": "Sunday",
        "hours": "10:45 AM to 3:45 PM"
      }
    ],
    "imageUrl": "https://media.indianluxurycars.com/google/850081d3644e94c5958e5e882a4a61cff47014ba822e64c06494ec7999eb7482.jpg",
    "url": "https://www.google.com/maps/search/?api=1&query=Sree%20Vaishnavi%20Carrs&query_place_id=ChIJMU5tEflYqDsR-v0OgWAYGvA"
  },
  {
    "title": "Sri Kovai Cars",
    "categoryName": "Used car dealer",
    "address": "Nallampalayam Road, 106-C, Annayappa Gounder St, Nallampalayam, Coimbatore, Tamil Nadu 641006, India",
    "neighborhood": "Ranga Layout 1, Nallampalayam",
    "street": "Nallampalayam Road, 106-C, Annayappa Gounder St",
    "city": "Coimbatore",
    "postalCode": "641006",
    "state": "Tamil Nadu",
    "countryCode": "IN",
    "phone": "+919080721528",
    "phoneUnformatted": "+919080721528",
    "location": {
      "lat": 11.0454005,
      "lng": 76.9585714
    },
    "totalScore": 3.8,
    "permanentlyClosed": false,
    "temporarilyClosed": false,
    "placeId": "ChIJBVL4CgtZqDsRP3eQaXxFfWg",
    "categories": [
      "Used car dealer"
    ],
    "reviewsCount": 38,
    "imagesCount": 63,
    "openingHours": [
      {
        "day": "Monday",
        "hours": "9 AM to 9 PM"
      },
      {
        "day": "Tuesday",
        "hours": "9 AM to 9 PM"
      },
      {
        "day": "Wednesday",
        "hours": "9 AM to 9 PM"
      },
      {
        "day": "Thursday",
        "hours": "9 AM to 9 PM"
      },
      {
        "day": "Friday",
        "hours": "9 AM to 9 PM"
      },
      {
        "day": "Saturday",
        "hours": "9 AM to 9 PM"
      },
      {
        "day": "Sunday",
        "hours": "10 AM to 5 PM"
      }
    ],
    "imageUrl": "https://media.indianluxurycars.com/google/7a629afff3fdf3bfabdcb91b81a5a53cbadc07f7dbe9a663825910459aaf71eb.jpg",
    "url": "https://www.google.com/maps/search/?api=1&query=Sri%20Kovai%20Cars&query_place_id=ChIJBVL4CgtZqDsRP3eQaXxFfWg"
  },
  {
    "title": "SRM Cars",
    "categoryName": "Used car dealer",
    "address": "Jeeva Nagar, Kuppakonam Pudur, Coimbatore, Tamil Nadu 641038, India",
    "neighborhood": "Jeeva Nagar, Kuppakonam Pudur",
    "city": "Coimbatore",
    "postalCode": "641038",
    "state": "Tamil Nadu",
    "countryCode": "IN",
    "phone": "+919942426096",
    "phoneUnformatted": "+919942426096",
    "location": {
      "lat": 11.0334536,
      "lng": 76.9483005
    },
    "totalScore": 3.7,
    "permanentlyClosed": false,
    "temporarilyClosed": false,
    "placeId": "ChIJycB2k-xYqDsRLa_i8X_0RE8",
    "categories": [
      "Used car dealer"
    ],
    "reviewsCount": 39,
    "imagesCount": 25,
    "openingHours": [
      {
        "day": "Monday",
        "hours": "10 AM to 8 PM"
      },
      {
        "day": "Tuesday",
        "hours": "10 AM to 8 PM"
      },
      {
        "day": "Wednesday",
        "hours": "10 AM to 8 PM"
      },
      {
        "day": "Thursday",
        "hours": "10 AM to 8 PM"
      },
      {
        "day": "Friday",
        "hours": "10 AM to 8 PM"
      },
      {
        "day": "Saturday",
        "hours": "10 AM to 8 PM"
      },
      {
        "day": "Sunday",
        "hours": "10 AM to 8 PM"
      }
    ],
    "imageUrl": "https://media.indianluxurycars.com/google/29808eadddf013d715155954bbef0d8755321298f36785eeb5a1cd49e82138c4.jpg",
    "url": "https://www.google.com/maps/search/?api=1&query=SRM%20Cars&query_place_id=ChIJycB2k-xYqDsRLa_i8X_0RE8"
  },
  {
    "title": "SRN SELFDRIVE CARS",
    "subTitle": "ஸ்ரன் செல்ஃப்டிரைவ் கார்ஸ் & BIKES",
    "categoryName": "Car rental agency",
    "address": "BALAJI COMPLEX, 45 RAJANAIDUROAD, Sivananda Colony, Tatabad, Coimbatore, Tamil Nadu 641012, India",
    "neighborhood": "Sivananda Colony, Tatabad",
    "street": "BALAJI COMPLEX, 45 RAJANAIDUROAD",
    "city": "Coimbatore",
    "postalCode": "641012",
    "state": "Tamil Nadu",
    "countryCode": "IN",
    "website": "http://www.srnselfdrivecars.com/",
    "phone": "+918220519999",
    "phoneUnformatted": "+918220519999",
    "location": {
      "lat": 11.0241182,
      "lng": 76.9592766
    },
    "totalScore": 4.7,
    "permanentlyClosed": false,
    "temporarilyClosed": false,
    "placeId": "ChIJX82VV_dYqDsRMdSxoPCHi2g",
    "categories": [
      "Car rental agency"
    ],
    "reviewsCount": 851,
    "imagesCount": 152,
    "openingHours": [
      {
        "day": "Monday",
        "hours": "5 AM to 10 PM"
      },
      {
        "day": "Tuesday",
        "hours": "5 AM to 10 PM"
      },
      {
        "day": "Wednesday",
        "hours": "5 AM to 10 PM"
      },
      {
        "day": "Thursday",
        "hours": "5 AM to 11 PM"
      },
      {
        "day": "Friday",
        "hours": "5 AM to 11 PM"
      },
      {
        "day": "Saturday",
        "hours": "5 AM to 11 PM"
      },
      {
        "day": "Sunday",
        "hours": "5 AM to 10 PM"
      }
    ],
    "imageUrl": "https://media.indianluxurycars.com/google/8eb8965bf38a7ebef9367200cd53146872c3d9a8931eec67851a9c42c42f2a65.jpg",
    "url": "https://www.google.com/maps/search/?api=1&query=SRN%20SELFDRIVE%20CARS&query_place_id=ChIJX82VV_dYqDsRMdSxoPCHi2g"
  },
  {
    "title": "Steeris Car Audio & Stylish | Professional Car Audio Tuner | Professional Car Audio Installation",
    "categoryName": "Car stereo store",
    "address": "A5, AVM AVENUE, 53, Ammasai St, Saibaba Colony, Kuppakonam Pudur, Coimbatore, Tamil Nadu 641038, India",
    "neighborhood": "Saibaba Colony, Kuppakonam Pudur",
    "street": "A5, AVM AVENUE, 53, Ammasai St",
    "city": "Coimbatore",
    "postalCode": "641038",
    "state": "Tamil Nadu",
    "countryCode": "IN",
    "phone": "+917094551777",
    "phoneUnformatted": "+917094551777",
    "location": {
      "lat": 11.032135,
      "lng": 76.9462438
    },
    "totalScore": 4.9,
    "permanentlyClosed": false,
    "temporarilyClosed": false,
    "placeId": "ChIJi8yJM4BZqDsRZXUqHg-pZno",
    "categories": [
      "Car stereo store"
    ],
    "reviewsCount": 211,
    "imagesCount": 624,
    "openingHours": [
      {
        "day": "Monday",
        "hours": "7 AM to 10 PM"
      },
      {
        "day": "Tuesday",
        "hours": "7 AM to 10 PM"
      },
      {
        "day": "Wednesday",
        "hours": "7 AM to 10 PM"
      },
      {
        "day": "Thursday",
        "hours": "7 AM to 10 PM"
      },
      {
        "day": "Friday",
        "hours": "7 AM to 10 PM"
      },
      {
        "day": "Saturday",
        "hours": "7 AM to 10 PM"
      },
      {
        "day": "Sunday",
        "hours": "Closed"
      }
    ],
    "imageUrl": "https://media.indianluxurycars.com/google/7ae6ea19285415f6872e0f42d8af201c22a71eeb0cc4d4a02bd856ccda3ff760.jpg",
    "url": "https://www.google.com/maps/search/?api=1&query=Steeris%20Car%20Audio%20%26%20Stylish%20%7C%20Professional%20Car%20Audio%20Tuner%20%7C%20Professional%20Car%20Audio%20Installation&query_place_id=ChIJi8yJM4BZqDsRZXUqHg-pZno"
  },
  {
    "title": "Sundaram Motors - Pre-owned Cars",
    "categoryName": "Used car dealer",
    "address": "336, Mettupalayam Rd, Nesavaalar Colony, Saibaba Koil, Coimbatore, Tamil Nadu 641043, India",
    "neighborhood": "Nesavaalar Colony, Saibaba Koil",
    "street": "336, Mettupalayam Rd",
    "city": "Coimbatore",
    "postalCode": "641043",
    "state": "Tamil Nadu",
    "countryCode": "IN",
    "location": {
      "lat": 11.0267442,
      "lng": 76.9511422
    },
    "totalScore": 5,
    "permanentlyClosed": false,
    "temporarilyClosed": false,
    "placeId": "ChIJCUFwL0VZqDsR_xpxgdFjTLc",
    "categories": [
      "Used car dealer"
    ],
    "reviewsCount": 13,
    "imagesCount": 1,
    "openingHours": [
      {
        "day": "Monday",
        "hours": "9 AM to 6 PM"
      },
      {
        "day": "Tuesday",
        "hours": "9 AM to 6 PM"
      },
      {
        "day": "Wednesday",
        "hours": "9 AM to 6 PM"
      },
      {
        "day": "Thursday",
        "hours": "9 AM to 6 PM"
      },
      {
        "day": "Friday",
        "hours": "9 AM to 6 PM"
      },
      {
        "day": "Saturday",
        "hours": "9 AM to 6 PM"
      },
      {
        "day": "Sunday",
        "hours": "Closed"
      }
    ],
    "imageUrl": "https://media.indianluxurycars.com/google/1536053e9808ce2511a414485c26daabe9f427e7b7211afe2057a3a6d0a0ddec.jpg",
    "url": "https://www.google.com/maps/search/?api=1&query=Sundaram%20Motors%20-%20Pre-owned%20Cars&query_place_id=ChIJCUFwL0VZqDsR_xpxgdFjTLc"
  },
  {
    "title": "SuperCarz",
    "categoryName": "Used car dealer",
    "address": "BN 23/223, Avinashi Rd, Gopalapuram, Coimbatore, Tamil Nadu 641018, India",
    "neighborhood": "Gopalapuram",
    "street": "BN 23/223, Avinashi Rd",
    "city": "Coimbatore",
    "postalCode": "641018",
    "state": "Tamil Nadu",
    "countryCode": "IN",
    "website": "http://www.supercarz.in/",
    "phone": "+919947030709",
    "phoneUnformatted": "+919947030709",
    "location": {
      "lat": 11.0020802,
      "lng": 76.9684477
    },
    "totalScore": 5,
    "permanentlyClosed": false,
    "temporarilyClosed": false,
    "placeId": "ChIJ2z0kzy9ZqDsR3Y6i6cAsmVI",
    "categories": [
      "Used car dealer"
    ],
    "reviewsCount": 1,
    "imagesCount": 1,
    "openingHours": [
      {
        "day": "Monday",
        "hours": "9 AM to 7 PM"
      },
      {
        "day": "Tuesday",
        "hours": "9 AM to 7 PM"
      },
      {
        "day": "Wednesday",
        "hours": "9 AM to 7 PM"
      },
      {
        "day": "Thursday",
        "hours": "9 AM to 7 PM"
      },
      {
        "day": "Friday",
        "hours": "9 AM to 7 PM"
      },
      {
        "day": "Saturday",
        "hours": "9 AM to 7 PM"
      },
      {
        "day": "Sunday",
        "hours": "9 AM to 7 PM"
      }
    ],
    "imageUrl": "https://media.indianluxurycars.com/google/d3d675086d3da9cdf8f80458ae31e783b26179748ec205f3e6e260a72e7a7beb.jpg",
    "url": "https://www.google.com/maps/search/?api=1&query=SuperCarz&query_place_id=ChIJ2z0kzy9ZqDsR3Y6i6cAsmVI"
  },
  {
    "title": "Supreme Cars",
    "subTitle": "சுப்ரீம் கார்கள்",
    "categoryName": "Used car dealer",
    "address": "74, Sengupta St, Ram Nagar, Coimbatore, Tamil Nadu 641009, India",
    "neighborhood": "Ram Nagar",
    "street": "74, Sengupta St",
    "city": "Coimbatore",
    "postalCode": "641009",
    "state": "Tamil Nadu",
    "countryCode": "IN",
    "phone": "+914222235757",
    "phoneUnformatted": "+914222235757",
    "location": {
      "lat": 11.0106609,
      "lng": 76.960658
    },
    "totalScore": 4.8,
    "permanentlyClosed": false,
    "temporarilyClosed": false,
    "placeId": "ChIJoV1fCAFZqDsRPWLNfRf-lv8",
    "categories": [
      "Used car dealer"
    ],
    "reviewsCount": 16,
    "imagesCount": 2,
    "openingHours": [
      {
        "day": "Monday",
        "hours": "9 AM to 8 PM"
      },
      {
        "day": "Tuesday",
        "hours": "9 AM to 8 PM"
      },
      {
        "day": "Wednesday",
        "hours": "9 AM to 8 PM"
      },
      {
        "day": "Thursday",
        "hours": "9 AM to 8 PM"
      },
      {
        "day": "Friday",
        "hours": "9 AM to 8 PM"
      },
      {
        "day": "Saturday",
        "hours": "9 AM to 8 PM"
      },
      {
        "day": "Sunday",
        "hours": "Closed"
      }
    ],
    "imageUrl": "https://media.indianluxurycars.com/google/5b82629f326b178a48e6c4e8aabc9f3703863802229cfdc9b5fa99642854d868.jpg",
    "url": "https://www.google.com/maps/search/?api=1&query=Supreme%20Cars&query_place_id=ChIJoV1fCAFZqDsRPWLNfRf-lv8"
  },
  {
    "title": "Thirumalai Cars",
    "subTitle": "திருமலை கார்ஸ்",
    "categoryName": "Used car dealer",
    "address": "380, SP Kannusamy street, Road, Sanganoor, Coimbatore, Tamil Nadu 641027, India",
    "neighborhood": "Sanganoor",
    "street": "380, SP Kannusamy street, Road",
    "city": "Coimbatore",
    "postalCode": "641027",
    "state": "Tamil Nadu",
    "countryCode": "IN",
    "phone": "+918682022222",
    "phoneUnformatted": "+918682022222",
    "location": {
      "lat": 11.0343003,
      "lng": 76.9646965
    },
    "totalScore": 4.5,
    "permanentlyClosed": false,
    "temporarilyClosed": false,
    "placeId": "ChIJL7NPR4dZqDsRH6xJeKpTjCY",
    "categories": [
      "Used car dealer",
      "Car dealer"
    ],
    "reviewsCount": 71,
    "imagesCount": 57,
    "openingHours": [
      {
        "day": "Monday",
        "hours": "10 AM to 7 PM"
      },
      {
        "day": "Tuesday",
        "hours": "10 AM to 7 PM"
      },
      {
        "day": "Wednesday",
        "hours": "10 AM to 7 PM"
      },
      {
        "day": "Thursday",
        "hours": "10 AM to 7 PM"
      },
      {
        "day": "Friday",
        "hours": "10 AM to 7 PM"
      },
      {
        "day": "Saturday",
        "hours": "10 AM to 7 PM"
      },
      {
        "day": "Sunday",
        "hours": "10 AM to 7 PM"
      }
    ],
    "imageUrl": "https://media.indianluxurycars.com/google/719241a139416aae343ece15ffc31ca4393d2e3dff669e0389bd1c4dfbe9a0f1.jpg",
    "url": "https://www.google.com/maps/search/?api=1&query=Thirumalai%20Cars&query_place_id=ChIJL7NPR4dZqDsRH6xJeKpTjCY"
  },
  {
    "title": "Top End Acting Drivers Tours and Travels Coimbatore",
    "categoryName": "Car rental agency",
    "address": "1427, Thadagam Main Rd, near gct bus stand, near tamil pharmacy, Tamil Nadu Agricultural University, Coimbatore, Tamil Nadu 641011, India",
    "neighborhood": "Tamil Nadu Agricultural University",
    "street": "1427, Thadagam Main Rd, near gct bus stand, near tamil pharmacy",
    "city": "Coimbatore",
    "postalCode": "641011",
    "state": "Tamil Nadu",
    "countryCode": "IN",
    "website": "http://www.topendactingdrivers.com/",
    "phone": "+919043498982",
    "phoneUnformatted": "+919043498982",
    "location": {
      "lat": 11.0202135,
      "lng": 76.9380338
    },
    "totalScore": 4.9,
    "permanentlyClosed": false,
    "temporarilyClosed": false,
    "placeId": "ChIJh2fHq85ZqDsRoCP15tGN4rI",
    "categories": [
      "Car rental agency",
      "Car leasing service",
      "Travel agency",
      "Outdoor activity organiser",
      "Tour agency",
      "Wedding planner"
    ],
    "reviewsCount": 685,
    "imagesCount": 26,
    "openingHours": [
      {
        "day": "Monday",
        "hours": "Open 24 hours"
      },
      {
        "day": "Tuesday",
        "hours": "Open 24 hours"
      },
      {
        "day": "Wednesday",
        "hours": "Open 24 hours"
      },
      {
        "day": "Thursday",
        "hours": "Open 24 hours"
      },
      {
        "day": "Friday",
        "hours": "Open 24 hours"
      },
      {
        "day": "Saturday",
        "hours": "Open 24 hours"
      },
      {
        "day": "Sunday",
        "hours": "Open 24 hours"
      }
    ],
    "imageUrl": "https://media.indianluxurycars.com/google/338ccb6d97bae328e396c3c56a0e20bf9fad5537f48aca4bab9d81344902607b.jpg",
    "url": "https://www.google.com/maps/search/?api=1&query=Top%20End%20Acting%20Drivers%20Tours%20and%20Travels%20Coimbatore&query_place_id=ChIJh2fHq85ZqDsRoCP15tGN4rI"
  },
  {
    "title": "Used cars coimbatore vigneswara cars",
    "subTitle": "ஸ்ட் கார்ஸ் கோயம்புத்தூர் விக்னேஸ்வர கார்ஸ்",
    "categoryName": "Car dealer",
    "address": "2XGF+66P, Textool Part Rd, Ganapathy Gardens, Ganapathy, Coimbatore, Tamil Nadu 641006, India",
    "neighborhood": "Ganapathy Gardens, Ganapathy",
    "street": "2XGF+66P, Textool Part Rd",
    "city": "Coimbatore",
    "postalCode": "641006",
    "state": "Tamil Nadu",
    "countryCode": "IN",
    "phone": "+919942299991",
    "phoneUnformatted": "+919942299991",
    "location": {
      "lat": 11.0255948,
      "lng": 76.9730893
    },
    "totalScore": 3.9,
    "permanentlyClosed": false,
    "temporarilyClosed": false,
    "placeId": "ChIJI-0xUQ5ZqDsRk-hwPNM0vcI",
    "categories": [
      "Car dealer"
    ],
    "reviewsCount": 7,
    "imagesCount": 8,
    "openingHours": [
      {
        "day": "Monday",
        "hours": "9:30 AM to 9 PM"
      },
      {
        "day": "Tuesday",
        "hours": "9:30 AM to 9 PM"
      },
      {
        "day": "Wednesday",
        "hours": "9:30 AM to 9 PM"
      },
      {
        "day": "Thursday",
        "hours": "9:30 AM to 9 PM"
      },
      {
        "day": "Friday",
        "hours": "9:30 AM to 9 PM"
      },
      {
        "day": "Saturday",
        "hours": "9:30 AM to 9 PM"
      },
      {
        "day": "Sunday",
        "hours": "9:30 AM to 2 PM"
      }
    ],
    "imageUrl": "https://media.indianluxurycars.com/google/c8ccbc010058e1f46c10d89fd9e67dcbe4354d937ca82717453f6ff49f200a97.jpg",
    "url": "https://www.google.com/maps/search/?api=1&query=Used%20cars%20coimbatore%20vigneswara%20cars&query_place_id=ChIJI-0xUQ5ZqDsRk-hwPNM0vcI"
  },
  {
    "title": "Vasundhara Cars",
    "subTitle": "வசுந்தரா கார்கள்",
    "categoryName": "Used car dealer",
    "address": "221, Sanganoor Road, Kannuswamy Gounder Street, K. K. Street, Murugan Thottam, Near Lourds Weigh Bridge, Rathinapuri, Kannappa Nagar, Sanganoor, Coimbatore, Tamil Nadu 641027, India",
    "neighborhood": "Murugan Thottam, Near Lourds Weigh Bridge, Rathinapuri, Kannappa Nagar, Sanganoor",
    "street": "221, Sanganoor Road, Kannuswamy Gounder Street, K. K. Street",
    "city": "Coimbatore",
    "postalCode": "641027",
    "state": "Tamil Nadu",
    "countryCode": "IN",
    "phone": "+919942710358",
    "phoneUnformatted": "+919942710358",
    "location": {
      "lat": 11.0359127,
      "lng": 76.9546894
    },
    "totalScore": 3.7,
    "permanentlyClosed": false,
    "temporarilyClosed": false,
    "placeId": "ChIJsZhMN41YqDsRNhJ-bZhZalA",
    "categories": [
      "Used car dealer"
    ],
    "reviewsCount": 17,
    "imagesCount": 58,
    "openingHours": [
      {
        "day": "Monday",
        "hours": "9:30 AM to 8:30 PM"
      },
      {
        "day": "Tuesday",
        "hours": "9:30 AM to 8:30 PM"
      },
      {
        "day": "Wednesday",
        "hours": "9:30 AM to 8:30 PM"
      },
      {
        "day": "Thursday",
        "hours": "9:30 AM to 8:30 PM"
      },
      {
        "day": "Friday",
        "hours": "9:30 AM to 8:30 PM"
      },
      {
        "day": "Saturday",
        "hours": "9:30 AM to 8:30 PM"
      },
      {
        "day": "Sunday",
        "hours": "Closed"
      }
    ],
    "imageUrl": "https://media.indianluxurycars.com/google/e77659bdbffa92eac5c9bcfd5e055e45fb7fec014d8bdab1db1883c125d11bbe.jpg",
    "url": "https://www.google.com/maps/search/?api=1&query=Vasundhara%20Cars&query_place_id=ChIJsZhMN41YqDsRNhJ-bZhZalA"
  },
  {
    "title": "Vijay Cars",
    "subTitle": "விஜய் கார்ஸ்",
    "categoryName": "Used car dealer",
    "address": "18, Bharathi Colony Rd, Peelamedu, Lal Bahadhur Colony, Coimbatore, Tamil Nadu 641004, India",
    "neighborhood": "Peelamedu, Lal Bahadhur Colony",
    "street": "18, Bharathi Colony Rd",
    "city": "Coimbatore",
    "postalCode": "641004",
    "state": "Tamil Nadu",
    "countryCode": "IN",
    "phone": "+919842233332",
    "phoneUnformatted": "+919842233332",
    "location": {
      "lat": 11.0237923,
      "lng": 76.9956997
    },
    "totalScore": 3.6,
    "permanentlyClosed": false,
    "temporarilyClosed": false,
    "placeId": "ChIJa56lRDRYqDsRItTHiS31Vxc",
    "categories": [
      "Used car dealer"
    ],
    "reviewsCount": 41,
    "imagesCount": 17,
    "openingHours": [
      {
        "day": "Monday",
        "hours": "9:30 AM to 8 PM"
      },
      {
        "day": "Tuesday",
        "hours": "9:30 AM to 8 PM"
      },
      {
        "day": "Wednesday",
        "hours": "9:30 AM to 8 PM"
      },
      {
        "day": "Thursday",
        "hours": "9:30 AM to 8 PM"
      },
      {
        "day": "Friday",
        "hours": "9:30 AM to 8 PM"
      },
      {
        "day": "Saturday",
        "hours": "9:30 AM to 8 PM"
      },
      {
        "day": "Sunday",
        "hours": "Closed"
      }
    ],
    "imageUrl": "https://media.indianluxurycars.com/google/f0b50cbf45b67fa6059ac2e62582fb5ee6cdd15526849a7465fd375b78396fe4.jpg",
    "url": "https://www.google.com/maps/search/?api=1&query=Vijay%20Cars&query_place_id=ChIJa56lRDRYqDsRItTHiS31Vxc"
  },
  {
    "title": "Winmaxi Holidays And Travels Private Limited",
    "categoryName": "Car rental agency",
    "address": "199-13, Nehru St, Peranaidu Layout, Ram Nagar, Coimbatore, Tamil Nadu 641009, India",
    "neighborhood": "Peranaidu Layout, Ram Nagar",
    "street": "199-13, Nehru St",
    "city": "Coimbatore",
    "postalCode": "641009",
    "state": "Tamil Nadu",
    "countryCode": "IN",
    "website": "https://www.winmaxitravels.com/",
    "phone": "+917604974628",
    "phoneUnformatted": "+917604974628",
    "location": {
      "lat": 11.0153538,
      "lng": 76.9623241
    },
    "totalScore": 4.7,
    "permanentlyClosed": false,
    "temporarilyClosed": false,
    "placeId": "ChIJBdRM7dxZqDsRBlF7TOA3A2w",
    "categories": [
      "Car rental agency",
      "Airline ticket agency",
      "Bus tour agency",
      "Tour operator",
      "Sightseeing tour agency",
      "Tour agency",
      "Travel agency",
      "Van rental agency",
      "Visa consulting service"
    ],
    "reviewsCount": 36,
    "imagesCount": 24,
    "openingHours": [
      {
        "day": "Monday",
        "hours": "9 AM to 7 PM"
      },
      {
        "day": "Tuesday",
        "hours": "9 AM to 7 PM"
      },
      {
        "day": "Wednesday",
        "hours": "9 AM to 7 PM"
      },
      {
        "day": "Thursday",
        "hours": "9 AM to 7 PM"
      },
      {
        "day": "Friday",
        "hours": "9 AM to 7 PM"
      },
      {
        "day": "Saturday",
        "hours": "9 AM to 7 PM"
      },
      {
        "day": "Sunday",
        "hours": "9 AM to 7 PM"
      }
    ],
    "imageUrl": "https://media.indianluxurycars.com/google/a37b6ef793d686035c8fda5e144e6f726dc489508988a8bb0c28796f270e638f.gif",
    "url": "https://www.google.com/maps/search/?api=1&query=Winmaxi%20Holidays%20And%20Travels%20Private%20Limited&query_place_id=ChIJBdRM7dxZqDsRBlF7TOA3A2w"
  },
  {
    "title": "Yaathra Cars",
    "subTitle": "யாத்ரா கார்ஸ்",
    "categoryName": "Used car dealer",
    "address": "Krishna Gounder kalayana mandapam, near HP bunk, Maniyakarampalayam, Karpaga Vinyaha Nagar, Ganapathy, Coimbatore, Tamil Nadu 641006, India",
    "neighborhood": "Maniyakarampalayam, Karpaga Vinyaha Nagar, Ganapathy",
    "street": "Krishna Gounder kalayana mandapam, near HP bunk",
    "city": "Coimbatore",
    "postalCode": "641006",
    "state": "Tamil Nadu",
    "countryCode": "IN",
    "phone": "+918438123000",
    "phoneUnformatted": "+918438123000",
    "location": {
      "lat": 11.0447575,
      "lng": 76.9748059
    },
    "totalScore": 4.8,
    "permanentlyClosed": false,
    "temporarilyClosed": false,
    "placeId": "ChIJV5E72WtYqDsRkfXhYCt2FN4",
    "categories": [
      "Used car dealer"
    ],
    "reviewsCount": 155,
    "imagesCount": 751,
    "openingHours": [
      {
        "day": "Monday",
        "hours": "9 AM to 9 PM"
      },
      {
        "day": "Tuesday",
        "hours": "9 AM to 9 PM"
      },
      {
        "day": "Wednesday",
        "hours": "9 AM to 9 PM"
      },
      {
        "day": "Thursday",
        "hours": "9 AM to 9 PM"
      },
      {
        "day": "Friday",
        "hours": "9 AM to 9 PM"
      },
      {
        "day": "Saturday",
        "hours": "9 AM to 9 PM"
      },
      {
        "day": "Sunday",
        "hours": "Closed"
      }
    ],
    "imageUrl": "https://media.indianluxurycars.com/google/bdb9b622657add6cf37a6fb5f2f2e806b06f5310413e7956538275dbd7c41ba3.jpg",
    "url": "https://www.google.com/maps/search/?api=1&query=Yaathra%20Cars&query_place_id=ChIJV5E72WtYqDsRkfXhYCt2FN4"
  },
  {
    "title": "Zoomcar Self drive car rental",
    "categoryName": "Car rental agency",
    "address": "Royal theatre, 100, Big Bazaar St, Town Hall, Coimbatore, Tamil Nadu 641001, India",
    "neighborhood": "Town Hall",
    "street": "Royal theatre, 100, Big Bazaar St",
    "city": "Coimbatore",
    "postalCode": "641001",
    "state": "Tamil Nadu",
    "countryCode": "IN",
    "website": "https://www.zoomcar.com/coimbatore/",
    "phone": "+9118601239666",
    "phoneUnformatted": "+9118601239666",
    "location": {
      "lat": 10.994142,
      "lng": 76.9666701
    },
    "totalScore": 3.3,
    "permanentlyClosed": false,
    "temporarilyClosed": false,
    "placeId": "ChIJRU6aNKBZqDsRHgMEvGiGe6A",
    "categories": [
      "Car rental agency"
    ],
    "reviewsCount": 134,
    "imagesCount": 29,
    "openingHours": [
      {
        "day": "Monday",
        "hours": "Open 24 hours"
      },
      {
        "day": "Tuesday",
        "hours": "Open 24 hours"
      },
      {
        "day": "Wednesday",
        "hours": "Open 24 hours"
      },
      {
        "day": "Thursday",
        "hours": "Open 24 hours"
      },
      {
        "day": "Friday",
        "hours": "Open 24 hours"
      },
      {
        "day": "Saturday",
        "hours": "Open 24 hours"
      },
      {
        "day": "Sunday",
        "hours": "Open 24 hours"
      }
    ],
    "imageUrl": "https://media.indianluxurycars.com/google/ed50d474572f837c245c9d03c062232b8e2dfe810e5caae3e5e44c1d8ba12a6e.jpg",
    "url": "https://www.google.com/maps/search/?api=1&query=Zoomcar%20Self%20drive%20car%20rental&query_place_id=ChIJRU6aNKBZqDsRHgMEvGiGe6A"
  }
]
