[
  {
    "title": "4d tour and travel",
    "subTitle": "4डी टूर एंड ट्रैवल",
    "categoryName": "Car leasing service",
    "address": "Tapovan road, Raipur, Dehradun, Uttarakhand 248013, India",
    "neighborhood": "Raipur",
    "street": "Tapovan road",
    "city": "Dehradun",
    "postalCode": "248013",
    "state": "Uttarakhand",
    "countryCode": "IN",
    "website": "https://4dtourandtravel.co.in/",
    "phone": "+919045066598",
    "phoneUnformatted": "+919045066598",
    "location": {
      "lat": 30.3461426,
      "lng": 78.0855471
    },
    "totalScore": 5,
    "permanentlyClosed": false,
    "temporarilyClosed": false,
    "placeId": "ChIJ-ZIiMB8pCTkRgvDAaiiZodg",
    "categories": [
      "Car leasing service",
      "Taxi service",
      "Travel agency"
    ],
    "reviewsCount": 8,
    "imagesCount": 25,
    "openingHours": [],
    "imageUrl": "https://lh3.googleusercontent.com/gps-cs-s/AG0ilSyexKzFtkyoTEe7tJZ0L9ZLMUympOnMzZUnwgyf-DwOv90NJstsILxVFbiaUZdXRzFkjIzyBTUqtewfiH6g_IEeDu7lGIxlR_ZeASLwqNex485g5iajTU3_mlT8CCdwrj8dHjJFzOTwfAVr=w408-h723-k-no",
    "url": "https://www.google.com/maps/search/?api=1&query=4d%20tour%20and%20travel&query_place_id=ChIJ-ZIiMB8pCTkRgvDAaiiZodg"
  },
  {
    "title": "Aman Crane Service",
    "subTitle": "अमन क्रेन सर्विस",
    "categoryName": "Crane service",
    "address": "opp. Hp Petrol Pump, Kargi Chowk, Kanhaiya Vihar, Brahmanwala, Dehradun, Uttarakhand 248121, India",
    "neighborhood": "Kargi Chowk, Kanhaiya Vihar, Brahmanwala",
    "street": "opp. Hp Petrol Pump",
    "city": "Dehradun",
    "postalCode": "248121",
    "state": "Uttarakhand",
    "countryCode": "IN",
    "website": "https://www.blackbox.ai/share/15b371d1-e4a7-4292-9e99-92f9d8cc2090?fullScreen=true",
    "phone": "+919997555620",
    "phoneUnformatted": "+919997555620",
    "location": {
      "lat": 30.28847,
      "lng": 78.021675
    },
    "totalScore": 4.9,
    "permanentlyClosed": false,
    "temporarilyClosed": false,
    "placeId": "ChIJWwEtIKQpCTkRkd9JrEK8o5Y",
    "categories": [
      "Crane service",
      "Car battery store",
      "Car dealer",
      "Crane rental agency",
      "Towing service"
    ],
    "reviewsCount": 139,
    "imagesCount": 278,
    "openingHours": [
      {
        "day": "Monday",
        "hours": "Open 24 hours"
      },
      {
        "day": "Tuesday",
        "hours": "Open 24 hours"
      },
      {
        "day": "Wednesday",
        "hours": "Open 24 hours"
      },
      {
        "day": "Thursday",
        "hours": "Open 24 hours"
      },
      {
        "day": "Friday",
        "hours": "Open 24 hours"
      },
      {
        "day": "Saturday",
        "hours": "Open 24 hours"
      },
      {
        "day": "Sunday",
        "hours": "Open 24 hours"
      }
    ],
    "imageUrl": "https://lh3.googleusercontent.com/p/AF1QipOiD-eXqYKcQxQJl4yG7Z3SuclI-kERowtf7Pdd=w408-h306-k-no",
    "url": "https://www.google.com/maps/search/?api=1&query=Aman%20Crane%20Service&query_place_id=ChIJWwEtIKQpCTkRkd9JrEK8o5Y"
  },
  {
    "title": "AUTO Lounge Dehradun",
    "subTitle": "ऑटो लाउंज देहरादून",
    "categoryName": "Car dealer",
    "address": "Balaji Tower, 55, Rajpur Rd, Dehradun, Uttarakhand 248001, India",
    "neighborhood": "Dobhalwala, Chukkuwala",
    "street": "Balaji Tower, 55, Rajpur Rd",
    "city": "Dehradun",
    "postalCode": "248001",
    "state": "Uttarakhand",
    "countryCode": "IN",
    "phone": "+919837042088",
    "phoneUnformatted": "+919837042088",
    "location": {
      "lat": 30.3316231,
      "lng": 78.0480351
    },
    "totalScore": 4.3,
    "permanentlyClosed": false,
    "temporarilyClosed": false,
    "placeId": "ChIJw93LbhkpCTkR4qpYAhWrKTI",
    "categories": [
      "Car dealer"
    ],
    "reviewsCount": 26,
    "imagesCount": 3,
    "openingHours": [
      {
        "day": "Monday",
        "hours": "10 AM to 7 PM"
      },
      {
        "day": "Tuesday",
        "hours": "10 AM to 7 PM"
      },
      {
        "day": "Wednesday",
        "hours": "10 AM to 7 PM"
      },
      {
        "day": "Thursday",
        "hours": "10 AM to 7 PM"
      },
      {
        "day": "Friday",
        "hours": "10 AM to 7 PM"
      },
      {
        "day": "Saturday",
        "hours": "10 AM to 7 PM"
      },
      {
        "day": "Sunday",
        "hours": "Closed"
      }
    ],
    "imageUrl": "https://lh3.googleusercontent.com/p/AF1QipNSEu_7q9-UAq2mjqHpL0m2KziTpN6UMuraceyw=w426-h240-k-no",
    "url": "https://www.google.com/maps/search/?api=1&query=AUTO%20Lounge%20Dehradun&query_place_id=ChIJw93LbhkpCTkR4qpYAhWrKTI"
  },
  {
    "title": "Car Masters",
    "subTitle": "कार मास्टर्स",
    "categoryName": "Car stereo store",
    "address": "4, near Wadia institute of geology, Nehru Enclave, Satya Vihar, Ballupur, Dehradun, Uttarakhand 248001, India",
    "neighborhood": "Nehru Enclave, Satya Vihar, Ballupur",
    "street": "4, near Wadia institute of geology",
    "city": "Dehradun",
    "postalCode": "248001",
    "state": "Uttarakhand",
    "countryCode": "IN",
    "phone": "+919760022736",
    "phoneUnformatted": "+919760022736",
    "location": {
      "lat": 30.3294196,
      "lng": 78.0117257
    },
    "totalScore": 4.8,
    "permanentlyClosed": false,
    "temporarilyClosed": false,
    "placeId": "ChIJmWvdbEsrCTkRMILuQf2QlO0",
    "categories": [
      "Car stereo store"
    ],
    "reviewsCount": 61,
    "imagesCount": 29,
    "openingHours": [
      {
        "day": "Monday",
        "hours": "10:30 AM to 8 PM"
      },
      {
        "day": "Tuesday",
        "hours": "10:30 AM to 8 PM"
      },
      {
        "day": "Wednesday",
        "hours": "Closed"
      },
      {
        "day": "Thursday",
        "hours": "10:30 AM to 8 PM"
      },
      {
        "day": "Friday",
        "hours": "10:30 AM to 8 PM"
      },
      {
        "day": "Saturday",
        "hours": "10:30 AM to 8 PM"
      },
      {
        "day": "Sunday",
        "hours": "10:30 AM to 8 PM"
      }
    ],
    "imageUrl": "https://lh3.googleusercontent.com/gps-cs-s/AG0ilSx-s7aT6-WPVkgbii1IJcvFBJ71eEusr8LDAcDLR_lrzCGbvSX_9gWBd6rf84su0K4xQ3jlas1NAS6teH_DsGWjhZXm7VUQ019WB973IBIqA1sxzouF8QJSFSdh6DoUEgsto7SWDA=w408-h544-k-no",
    "url": "https://www.google.com/maps/search/?api=1&query=Car%20Masters&query_place_id=ChIJmWvdbEsrCTkRMILuQf2QlO0"
  },
  {
    "title": "Car Rental In Dehradun",
    "subTitle": "कार रेंटल इन देहरादून",
    "categoryName": "Car leasing service",
    "address": "near tiwari store, MDDA Colony, Dalanwala, Dehradun, Uttarakhand 248001, India",
    "neighborhood": "MDDA Colony, Dalanwala",
    "street": "near tiwari store",
    "city": "Dehradun",
    "postalCode": "248001",
    "state": "Uttarakhand",
    "countryCode": "IN",
    "website": "https://carrentalindehradun.com/",
    "phone": "+919997676764",
    "phoneUnformatted": "+919997676764",
    "location": {
      "lat": 30.3133354,
      "lng": 78.0626468
    },
    "totalScore": 5,
    "permanentlyClosed": false,
    "temporarilyClosed": false,
    "placeId": "ChIJpcsG_QkrCTkRl9CyZ4zYwaI",
    "categories": [
      "Car leasing service"
    ],
    "reviewsCount": 179,
    "imagesCount": 834,
    "openingHours": [
      {
        "day": "Monday",
        "hours": "Open 24 hours"
      },
      {
        "day": "Tuesday",
        "hours": "Open 24 hours"
      },
      {
        "day": "Wednesday",
        "hours": "Open 24 hours"
      },
      {
        "day": "Thursday",
        "hours": "Open 24 hours"
      },
      {
        "day": "Friday",
        "hours": "Open 24 hours"
      },
      {
        "day": "Saturday",
        "hours": "Open 24 hours"
      },
      {
        "day": "Sunday",
        "hours": "Open 24 hours"
      }
    ],
    "imageUrl": "https://lh3.googleusercontent.com/p/AF1QipPowztUBNbwpuWeYEOeQZK5um3Q9rCj8Q2M_FJp=w408-h544-k-no",
    "url": "https://www.google.com/maps/search/?api=1&query=Car%20Rental%20In%20Dehradun&query_place_id=ChIJpcsG_QkrCTkRl9CyZ4zYwaI"
  },
  {
    "title": "car&bike (by Mahindra First Choice) Dehradun Premier Motors",
    "subTitle": "महिंद्रा फर्स्ट च्वाइस व्हील्स लिमिटेड",
    "categoryName": "Used car dealer",
    "address": "Haridwar Bypass Rd, Shanti Vihar, Ajabpur Kalan, Dehradun, Uttarakhand 248121, India",
    "neighborhood": "Shanti Vihar, Ajabpur Kalan",
    "street": "Haridwar Bypass Rd",
    "city": "Dehradun",
    "postalCode": "248121",
    "state": "Uttarakhand",
    "countryCode": "IN",
    "website": "https://www.carandbike.com/used/car-dealers/dehradoon-premium-motors-in-dehradun-2412?utm_source=GMB",
    "phone": "+919873686983",
    "phoneUnformatted": "+919873686983",
    "location": {
      "lat": 30.2887667,
      "lng": 78.0427678
    },
    "totalScore": 3.9,
    "permanentlyClosed": false,
    "temporarilyClosed": false,
    "placeId": "ChIJR9hh3VMpCTkR9AmIzqA77-g",
    "categories": [
      "Used car dealer",
      "Auto broker",
      "Car dealer",
      "Motor vehicle dealer",
      "Vehicle inspection service"
    ],
    "reviewsCount": 87,
    "imagesCount": 23,
    "openingHours": [
      {
        "day": "Monday",
        "hours": "10 AM to 6:30 PM"
      },
      {
        "day": "Tuesday",
        "hours": "9:30 AM to 6:30 PM"
      },
      {
        "day": "Wednesday",
        "hours": "9:30 AM to 6:30 PM"
      },
      {
        "day": "Thursday",
        "hours": "9:30 AM to 6:30 PM"
      },
      {
        "day": "Friday",
        "hours": "9:30 AM to 6:30 PM"
      },
      {
        "day": "Saturday",
        "hours": "9:30 AM to 6:30 PM"
      },
      {
        "day": "Sunday",
        "hours": "9:30 AM to 6:30 PM"
      }
    ],
    "imageUrl": "https://lh3.googleusercontent.com/gps-cs-s/AG0ilSydhNeWt3DkfCLFP0SGkrJyo0xUgVbDLv1VsGlDDw6DZO-CGTX8siNwa5-r3sID2dBoEOvO-pCL4YDbNqMPTNzb9F39ZC__0ESRraGpXfqEIhLDtfF6wmI9hzr_3b6ARWob8EjV=w408-h306-k-no",
    "url": "https://www.google.com/maps/search/?api=1&query=car%26bike%20(by%20Mahindra%20First%20Choice)%20Dehradun%20Premier%20Motors&query_place_id=ChIJR9hh3VMpCTkR9AmIzqA77-g"
  },
  {
    "title": "Dehradun Car Rental",
    "subTitle": "देहरादून कार रेंटल",
    "categoryName": "Car rental agency",
    "address": "Shriram Puram, Lakkhi Bagh, Dehradun, Uttarakhand 248001, India",
    "neighborhood": "Shriram Puram, Lakkhi Bagh",
    "city": "Dehradun",
    "postalCode": "248001",
    "state": "Uttarakhand",
    "countryCode": "IN",
    "website": "https://www.dehraduncarrental.org/",
    "location": {
      "lat": 30.3145415,
      "lng": 78.0335181
    },
    "permanentlyClosed": false,
    "temporarilyClosed": false,
    "placeId": "ChIJVR_hCK7DG0gRkOtaalsiftk",
    "categories": [
      "Car rental agency"
    ],
    "imagesCount": 3,
    "openingHours": [
      {
        "day": "Monday",
        "hours": "9 AM to 7 PM"
      },
      {
        "day": "Tuesday",
        "hours": "9 AM to 7 PM"
      },
      {
        "day": "Wednesday",
        "hours": "9 AM to 7 PM"
      },
      {
        "day": "Thursday",
        "hours": "9 AM to 7 PM"
      },
      {
        "day": "Friday",
        "hours": "9 AM to 7 PM"
      },
      {
        "day": "Saturday",
        "hours": "9 AM to 7 PM"
      },
      {
        "day": "Sunday",
        "hours": "Closed"
      }
    ],
    "imageUrl": "https://lh3.googleusercontent.com/p/AF1QipOi_ANiPUMPi4zNL0-EccVS0-LMgoxPLWgDYnJb=w408-h342-k-no",
    "url": "https://www.google.com/maps/search/?api=1&query=Dehradun%20Car%20Rental&query_place_id=ChIJVR_hCK7DG0gRkOtaalsiftk"
  },
  {
    "title": "Dehradun Rent a Car - RBTS Wedding and Self Drive Cars in Dehradun",
    "subTitle": "देहरादून रेंट ए कार - आरबीटीएस",
    "categoryName": "Car rental agency",
    "address": "807, Lane No. 7, Shriram Puram Colony, Teachers Colony, Govind Garh, Khurbura Mohalla, Dehradun, Uttarakhand 248001, India",
    "neighborhood": "Shriram Puram Colony, Teachers Colony, Govind Garh, Khurbura Mohalla",
    "street": "807, Lane No. 7",
    "city": "Dehradun",
    "postalCode": "248001",
    "state": "Uttarakhand",
    "countryCode": "IN",
    "website": "http://www.dehradunrentacar.com/",
    "phone": "+919126262222",
    "phoneUnformatted": "+919126262222",
    "location": {
      "lat": 30.3247481,
      "lng": 78.0191103
    },
    "totalScore": 3.9,
    "permanentlyClosed": false,
    "temporarilyClosed": false,
    "placeId": "ChIJfZSBO-4rCTkRL6izsWPhor0",
    "categories": [
      "Car rental agency"
    ],
    "reviewsCount": 15,
    "imagesCount": 54,
    "openingHours": [
      {
        "day": "Monday",
        "hours": "Open 24 hours"
      },
      {
        "day": "Tuesday",
        "hours": "Open 24 hours"
      },
      {
        "day": "Wednesday",
        "hours": "Open 24 hours"
      },
      {
        "day": "Thursday",
        "hours": "Open 24 hours"
      },
      {
        "day": "Friday",
        "hours": "Open 24 hours"
      },
      {
        "day": "Saturday",
        "hours": "Open 24 hours"
      },
      {
        "day": "Sunday",
        "hours": "Open 24 hours"
      }
    ],
    "imageUrl": "https://lh3.googleusercontent.com/p/AF1QipOKhGwrG0i3lG33SpbCWJW00GBOdd-mcXtAtdDY=w408-h306-k-no",
    "url": "https://www.google.com/maps/search/?api=1&query=Dehradun%20Rent%20a%20Car%20-%20RBTS%20Wedding%20and%20Self%20Drive%20Cars%20in%20Dehradun&query_place_id=ChIJfZSBO-4rCTkRL6izsWPhor0"
  },
  {
    "title": "DEHRADUN SELF DRIVE CAR RENTAL",
    "subTitle": "देहरादून सेल्फ ड्राइव कार रेंटल",
    "categoryName": "Car leasing service",
    "address": "Haridwar Bypass Rd, near kargi chowk, Brahmanwala, Dehradun, Uttarakhand 248001, India",
    "neighborhood": "Brahmanwala",
    "street": "Haridwar Bypass Rd, near kargi chowk",
    "city": "Dehradun",
    "postalCode": "248001",
    "state": "Uttarakhand",
    "countryCode": "IN",
    "website": "http://dehradunselfdrivecarrental.com/",
    "phone": "+919897786208",
    "phoneUnformatted": "+919897786208",
    "location": {
      "lat": 30.2883,
      "lng": 78.026663
    },
    "totalScore": 5,
    "permanentlyClosed": false,
    "temporarilyClosed": false,
    "placeId": "ChIJz-mga7b1uKYR--rA3W3tQAM",
    "categories": [
      "Car leasing service",
      "Car rental agency",
      "Taxi service"
    ],
    "reviewsCount": 48,
    "imagesCount": 76,
    "openingHours": [
      {
        "day": "Monday",
        "hours": "Open 24 hours"
      },
      {
        "day": "Tuesday",
        "hours": "Open 24 hours"
      },
      {
        "day": "Wednesday",
        "hours": "Open 24 hours"
      },
      {
        "day": "Thursday",
        "hours": "Open 24 hours"
      },
      {
        "day": "Friday",
        "hours": "Open 24 hours"
      },
      {
        "day": "Saturday",
        "hours": "Open 24 hours"
      },
      {
        "day": "Sunday",
        "hours": "Open 24 hours"
      }
    ],
    "imageUrl": "https://lh3.googleusercontent.com/p/AF1QipPFgRgrALtliIMb_2qJhQGsyzdKoP3Y5DbMF11r=w408-h408-k-no",
    "url": "https://www.google.com/maps/search/?api=1&query=DEHRADUN%20SELF%20DRIVE%20CAR%20RENTAL&query_place_id=ChIJz-mga7b1uKYR--rA3W3tQAM"
  },
  {
    "title": "Dehradun Taxi Services | Tempo Traveller Service in Dehradun | Bus Booking Services | Taxi Service Dehradun",
    "subTitle": "देहरादून टैक्सी सर्विसेस | टेम्पो ट्रैवलर सर्विस इन देहरादून | बस बुकिंग सर्विसेस | टैक्सी सर्विस देहरादून",
    "categoryName": "Car rental agency",
    "address": "E block lane 08 saraswati vihar,Ajabpur khurd, po, ajabpur dist:, Dehradun, Uttarakhand 248121, India",
    "neighborhood": "Ekta Vihar Block B, Saraswati Vihar, ajabpur dist:",
    "street": "E block lane 08 saraswati vihar,Ajabpur khurd, po",
    "city": "Dehradun",
    "postalCode": "248121",
    "state": "Uttarakhand",
    "countryCode": "IN",
    "website": "https://www.dehraduntaxiservices.com/",
    "phone": "+918077551661",
    "phoneUnformatted": "+918077551661",
    "location": {
      "lat": 30.2916392,
      "lng": 78.0388684
    },
    "totalScore": 4.9,
    "permanentlyClosed": false,
    "temporarilyClosed": false,
    "placeId": "ChIJm_UjTxspCTkRD34cO-_jr_g",
    "categories": [
      "Car rental agency",
      "Bus tour agency",
      "Car leasing service",
      "Taxi service",
      "Minibus taxi service",
      "Tour operator",
      "Travel agency"
    ],
    "reviewsCount": 112,
    "imagesCount": 35,
    "openingHours": [],
    "imageUrl": "https://lh3.googleusercontent.com/p/AF1QipM_82MC0-rDwNzEWoaa4E4dS8N9ItTJeBDnXbY=w408-h544-k-no",
    "url": "https://www.google.com/maps/search/?api=1&query=Dehradun%20Taxi%20Services%20%7C%20Tempo%20Traveller%20Service%20in%20Dehradun%20%7C%20Bus%20Booking%20Services%20%7C%20Taxi%20Service%20Dehradun&query_place_id=ChIJm_UjTxspCTkRD34cO-_jr_g"
  },
  {
    "title": "Doon car Bazar",
    "subTitle": "दून कार बाजार",
    "categoryName": "Car dealer",
    "address": "saharanpur road Patel Nagar, Near square deal petrol pump HP, Dehradun, Uttarakhand 248001, India",
    "neighborhood": "Patel Nagar",
    "street": "saharanpur road Patel Nagar, Near square deal petrol pump HP",
    "city": "Dehradun",
    "postalCode": "248001",
    "state": "Uttarakhand",
    "countryCode": "IN",
    "phone": "+919897909623",
    "phoneUnformatted": "+919897909623",
    "location": {
      "lat": 30.310905,
      "lng": 78.0222364
    },
    "totalScore": 3.4,
    "permanentlyClosed": false,
    "temporarilyClosed": false,
    "placeId": "ChIJufw8UYgpCTkRe4Q203XfHcs",
    "categories": [
      "Car dealer"
    ],
    "reviewsCount": 119,
    "imagesCount": 28,
    "openingHours": [
      {
        "day": "Monday",
        "hours": "10 AM to 7 PM"
      },
      {
        "day": "Tuesday",
        "hours": "10 AM to 7 PM"
      },
      {
        "day": "Wednesday",
        "hours": "10 AM to 7 PM"
      },
      {
        "day": "Thursday",
        "hours": "10:30 AM to 6 PM"
      },
      {
        "day": "Friday",
        "hours": "10 AM to 7 PM"
      },
      {
        "day": "Saturday",
        "hours": "10 AM to 7 PM"
      },
      {
        "day": "Sunday",
        "hours": "10:30 AM to 6 PM"
      }
    ],
    "imageUrl": "https://lh3.googleusercontent.com/gps-cs-s/AG0ilSwwwviDNgo_CGwsdPQJmpLkA4MU1WXyVsMWoNzLu_xoSEJwMpn5lHH2ehd6gPQ92KkaEgFK2Nxe1L9924WXDpHXO9bgc3J99ElGoX44Q4ZOapgBEZsarmL9yQHswxFCUAfh3xqB=w408-h272-k-no",
    "url": "https://www.google.com/maps/search/?api=1&query=Doon%20car%20Bazar&query_place_id=ChIJufw8UYgpCTkRe4Q203XfHcs"
  },
  {
    "title": "Doon Garima Tour and Travels",
    "subTitle": "दून गरिमा टूर एंड ट्रैवल्स",
    "categoryName": "Car rental agency",
    "address": "16, EC Road, Near Income Tax Office, Irigation Colony, Karanpur, Dehradun, Uttarakhand 248001, India",
    "neighborhood": "Irigation Colony, Karanpur",
    "street": "16, EC Road, Near Income Tax Office",
    "city": "Dehradun",
    "postalCode": "248001",
    "state": "Uttarakhand",
    "countryCode": "IN",
    "phone": "+917017105948",
    "phoneUnformatted": "+917017105948",
    "location": {
      "lat": 30.3277112,
      "lng": 78.051741
    },
    "totalScore": 4.9,
    "permanentlyClosed": false,
    "temporarilyClosed": false,
    "placeId": "ChIJNRh-tKEpCTkRF43vpuv4GOg",
    "categories": [
      "Car rental agency",
      "Car leasing service",
      "Taxi service",
      "Minibus taxi service",
      "Taxicab Stand"
    ],
    "reviewsCount": 36,
    "imagesCount": 14,
    "openingHours": [],
    "imageUrl": "https://lh3.googleusercontent.com/gps-cs-s/AG0ilSzU_1q6JsNbcQfr3_lOP0PwecTxE_myfEIUhC30C9DQ8fjQgp2oizQuPnxscmCA41AT6EWLqCJXCMDAbGToOjPgC0tk24qrC_iC9hti7YLtltzqWjINI7O6HzXEUKRhA5D71yjyMA=w408-h861-k-no",
    "url": "https://www.google.com/maps/search/?api=1&query=Doon%20Garima%20Tour%20and%20Travels&query_place_id=ChIJNRh-tKEpCTkRF43vpuv4GOg"
  },
  {
    "title": "DREAMZ CAR",
    "subTitle": "ड्रीम्ज़ कार",
    "categoryName": "Used car dealer",
    "address": "GMS Rd, opp. Kamla Palace, Shakti Enclave, Kaonli, Dehradun, Uttarakhand 248171, India",
    "neighborhood": "Shakti Enclave, Kaonli",
    "street": "GMS Rd, opp. Kamla Palace",
    "city": "Dehradun",
    "postalCode": "248171",
    "state": "Uttarakhand",
    "countryCode": "IN",
    "phone": "+917017556684",
    "phoneUnformatted": "+917017556684",
    "location": {
      "lat": 30.3085625,
      "lng": 78.0072373
    },
    "totalScore": 5,
    "permanentlyClosed": false,
    "temporarilyClosed": false,
    "placeId": "ChIJiRH5ioorCTkR5OQ7mPDPxDc",
    "categories": [
      "Used car dealer"
    ],
    "reviewsCount": 1,
    "imagesCount": 15,
    "openingHours": [
      {
        "day": "Monday",
        "hours": "10 AM to 8 PM"
      },
      {
        "day": "Tuesday",
        "hours": "10 AM to 8 PM"
      },
      {
        "day": "Wednesday",
        "hours": "10 AM to 8 PM"
      },
      {
        "day": "Thursday",
        "hours": "10 AM to 8 PM"
      },
      {
        "day": "Friday",
        "hours": "10 AM to 8 PM"
      },
      {
        "day": "Saturday",
        "hours": "10 AM to 8 PM"
      },
      {
        "day": "Sunday",
        "hours": "10 AM to 8 PM"
      }
    ],
    "imageUrl": "https://lh3.googleusercontent.com/gps-cs-s/AG0ilSzAzyToNAJUcNaxUcICWbT_Vv9G8vS_TUgkZbumfUKNTSXShwZ6BrcGFJM8InwB_q7_1hVrIBlxkQGkontA071x2OFHbzSBhlgltCh2M7hBIExeedcd32jKASaO6mwmKos4BWNuRg=w436-h240-k-no",
    "url": "https://www.google.com/maps/search/?api=1&query=DREAMZ%20CAR&query_place_id=ChIJiRH5ioorCTkR5OQ7mPDPxDc"
  },
  {
    "title": "driveself",
    "subTitle": "ड्राइवसेल्फ",
    "categoryName": "Car leasing service",
    "address": "2/10, tourism colony, Kargi - Patel Nagar Bypass, opposite danik Jagran office, Patel Nagar, Dehradun, Uttarakhand 248001, India",
    "neighborhood": "Govt.Industrial Estate, Patel Nagar",
    "street": "2/10, tourism colony, Kargi - Patel Nagar Bypass, opposite danik Jagran office",
    "city": "Dehradun",
    "postalCode": "248001",
    "state": "Uttarakhand",
    "countryCode": "IN",
    "website": "https://driveself.in/",
    "location": {
      "lat": 30.3071032,
      "lng": 78.018195
    },
    "totalScore": 4.9,
    "permanentlyClosed": false,
    "temporarilyClosed": false,
    "placeId": "ChIJx3N9AwErCTkRhSQU1ajD1wo",
    "categories": [
      "Car leasing service"
    ],
    "reviewsCount": 38,
    "imagesCount": 12,
    "openingHours": [
      {
        "day": "Monday",
        "hours": "Open 24 hours"
      },
      {
        "day": "Tuesday",
        "hours": "Open 24 hours"
      },
      {
        "day": "Wednesday",
        "hours": "Open 24 hours"
      },
      {
        "day": "Thursday",
        "hours": "Open 24 hours"
      },
      {
        "day": "Friday",
        "hours": "Open 24 hours"
      },
      {
        "day": "Saturday",
        "hours": "Open 24 hours"
      },
      {
        "day": "Sunday",
        "hours": "Open 24 hours"
      }
    ],
    "imageUrl": "https://lh3.googleusercontent.com/gps-cs-s/AG0ilSzvUFFJ5rL3Y90H1GN7dXVF0MFhoFC4bypc80iwPVrvn8QihhBAlKLS2Zj7Oj8lLZvXsR7XVQ9XLqbWuXJPQ7lIi3uCGW2B3jT3ie9XmTUA6CE-HQhhD8RUf_NUaxRFPTzaW5fc=w408-h544-k-no",
    "url": "https://www.google.com/maps/search/?api=1&query=driveself&query_place_id=ChIJx3N9AwErCTkRhSQU1ajD1wo"
  },
  {
    "title": "Gaadiwaale Car Rentals",
    "subTitle": "गाड़ीवाले कार रेंटल्स",
    "categoryName": "Car rental agency",
    "address": "1375, GMS Rd, adjacent to Neelkamal Showroom, Engineers Enclave, Kanwali, Dehradun, Uttarakhand 248171, India",
    "neighborhood": "Engineers Enclave, Kanwali",
    "street": "1375, GMS Rd, adjacent to Neelkamal Showroom",
    "city": "Dehradun",
    "postalCode": "248171",
    "state": "Uttarakhand",
    "countryCode": "IN",
    "website": "https://www.gaadiwaale.com/",
    "phone": "+919897050505",
    "phoneUnformatted": "+919897050505",
    "location": {
      "lat": 30.3096391,
      "lng": 78.0072685
    },
    "totalScore": 4.8,
    "permanentlyClosed": false,
    "temporarilyClosed": false,
    "placeId": "ChIJuz7hxVkrCTkRpuUPpSmGYhk",
    "categories": [
      "Car rental agency",
      "Car leasing service",
      "Taxi service",
      "Tour operator"
    ],
    "reviewsCount": 44,
    "imagesCount": 4,
    "openingHours": [],
    "imageUrl": "https://lh3.googleusercontent.com/p/AF1QipMsTmSHRypZDDicAKgyVdkpT_UBATlqLL5Emtrk=w518-h240-k-no",
    "url": "https://www.google.com/maps/search/?api=1&query=Gaadiwaale%20Car%20Rentals&query_place_id=ChIJuz7hxVkrCTkRpuUPpSmGYhk"
  },
  {
    "title": "Go Car Rental / Car On Rent / Self Drive Car In Dehradun",
    "subTitle": "गो कार रेंटल",
    "categoryName": "Car leasing service",
    "address": "88, Saharanpur Chowk, Jhanda Bazar, Arhat Bazaar, Jhanda Mohalla, Dehradun, Uttarakhand 248001, India",
    "neighborhood": "Saharanpur Chowk, Jhanda Bazar, Arhat Bazaar, Jhanda Mohalla",
    "street": "88",
    "city": "Dehradun",
    "postalCode": "248001",
    "state": "Uttarakhand",
    "countryCode": "IN",
    "phone": "+918755033892",
    "phoneUnformatted": "+918755033892",
    "location": {
      "lat": 30.3173371,
      "lng": 78.0293626
    },
    "totalScore": 5,
    "permanentlyClosed": false,
    "temporarilyClosed": false,
    "placeId": "ChIJRwNzbNzVCDkR3sCLyA12L2M",
    "categories": [
      "Car leasing service"
    ],
    "reviewsCount": 368,
    "imagesCount": 241,
    "openingHours": [
      {
        "day": "Monday",
        "hours": "7 AM to 10:30 PM"
      },
      {
        "day": "Tuesday",
        "hours": "7 AM to 10:30 PM"
      },
      {
        "day": "Wednesday",
        "hours": "7 AM to 10:30 PM"
      },
      {
        "day": "Thursday",
        "hours": "7 AM to 10:30 PM"
      },
      {
        "day": "Friday",
        "hours": "7 AM to 10:30 PM"
      },
      {
        "day": "Saturday",
        "hours": "7 AM to 10:30 PM"
      },
      {
        "day": "Sunday",
        "hours": "7 AM to 10:30 PM"
      }
    ],
    "imageUrl": "https://lh3.googleusercontent.com/p/AF1QipOUe-1fE-AV3b5FsvskNDu_qv98XCZ9MiOLYXsv=w408-h408-k-no",
    "url": "https://www.google.com/maps/search/?api=1&query=Go%20Car%20Rental%20%2F%20Car%20On%20Rent%20%2F%20Self%20Drive%20Car%20In%20Dehradun&query_place_id=ChIJRwNzbNzVCDkR3sCLyA12L2M"
  },
  {
    "title": "Goyal Taxi Services",
    "subTitle": "गोयल टैक्सी सर्विसेस",
    "categoryName": "Car rental agency",
    "address": "99/3-1, Satya Vihar, Vijay Park, Dehradun, Uttarakhand 248001, India",
    "neighborhood": "Satya Vihar, Vijay Park",
    "street": "99/3-1",
    "city": "Dehradun",
    "postalCode": "248001",
    "state": "Uttarakhand",
    "countryCode": "IN",
    "website": "https://www.goyaltaxiservices.com/",
    "phone": "+911356058125",
    "phoneUnformatted": "+911356058125",
    "location": {
      "lat": 30.3318639,
      "lng": 78.0179991
    },
    "totalScore": 5,
    "permanentlyClosed": false,
    "temporarilyClosed": false,
    "placeId": "ChIJHT391u0rCTkR8yojRcDyQF4",
    "categories": [
      "Car rental agency",
      "Airport shuttle service",
      "Taxi service",
      "Transportation service"
    ],
    "reviewsCount": 12,
    "imagesCount": 13,
    "openingHours": [],
    "imageUrl": "https://lh3.googleusercontent.com/p/AF1QipM3xLgEvMrm_01W8PZMB8_X0D98olE_P8u7Nq4G=w427-h240-k-no",
    "url": "https://www.google.com/maps/search/?api=1&query=Goyal%20Taxi%20Services&query_place_id=ChIJHT391u0rCTkR8yojRcDyQF4"
  },
  {
    "title": "Kamboj Self Drive Car",
    "subTitle": "कंबोज सेल्फ ड्राइव कार",
    "categoryName": "Car leasing service",
    "address": "9, Sarnimal Bazar Rd, near paltan bazar, Harrawala, Dehradun, Uttarakhand 248001, India",
    "neighborhood": "Harrawala",
    "street": "9, Sarnimal Bazar Rd, near paltan bazar",
    "city": "Dehradun",
    "postalCode": "248001",
    "state": "Uttarakhand",
    "countryCode": "IN",
    "phone": "+918433133470",
    "phoneUnformatted": "+918433133470",
    "location": {
      "lat": 30.3215996,
      "lng": 78.0390818
    },
    "totalScore": 5,
    "permanentlyClosed": false,
    "temporarilyClosed": false,
    "placeId": "ChIJVxrDD8cpCTkRAP2F11ak-F4",
    "categories": [
      "Car leasing service"
    ],
    "reviewsCount": 15,
    "imagesCount": 13,
    "openingHours": [
      {
        "day": "Monday",
        "hours": "Open 24 hours"
      },
      {
        "day": "Tuesday",
        "hours": "Open 24 hours"
      },
      {
        "day": "Wednesday",
        "hours": "Open 24 hours"
      },
      {
        "day": "Thursday",
        "hours": "Open 24 hours"
      },
      {
        "day": "Friday",
        "hours": "Open 24 hours"
      },
      {
        "day": "Saturday",
        "hours": "Open 24 hours"
      },
      {
        "day": "Sunday",
        "hours": "Open 24 hours"
      }
    ],
    "imageUrl": "https://lh3.googleusercontent.com/p/AF1QipPk7NiMX4APKHaEQQYy3eRypOTdCjQLp8q6ZFeb=w408-h669-k-no",
    "url": "https://www.google.com/maps/search/?api=1&query=Kamboj%20Self%20Drive%20Car&query_place_id=ChIJVxrDD8cpCTkRAP2F11ak-F4"
  },
  {
    "title": "Kartavya Travels Pvt. Ltd.",
    "subTitle": "कर्त्तव्य ट्रैवल्स",
    "categoryName": "Car rental agency",
    "address": "62/8, Vijay Colony, Shakti Colony, Dehradun, Uttarakhand 248001, India",
    "neighborhood": "Vijay Colony, Shakti Colony",
    "street": "62/8",
    "city": "Dehradun",
    "postalCode": "248001",
    "state": "Uttarakhand",
    "countryCode": "IN",
    "website": "https://kartavyatravels.com/",
    "phone": "+917409021100",
    "phoneUnformatted": "+917409021100",
    "location": {
      "lat": 30.3458019,
      "lng": 78.04522
    },
    "totalScore": 4.6,
    "permanentlyClosed": false,
    "temporarilyClosed": false,
    "placeId": "ChIJjeCLHwDXCDkROebcQujL3yM",
    "categories": [
      "Car rental agency",
      "Bus tour agency",
      "Car leasing service",
      "Taxi service",
      "Tour operator"
    ],
    "reviewsCount": 277,
    "imagesCount": 24,
    "openingHours": [],
    "imageUrl": "https://lh3.googleusercontent.com/p/AF1QipPH1ILgStThLuAs2TlDdWmpR_0OFWzwx1Plr_nt=w408-h544-k-no",
    "url": "https://www.google.com/maps/search/?api=1&query=Kartavya%20Travels%20Pvt.%20Ltd.&query_place_id=ChIJjeCLHwDXCDkROebcQujL3yM"
  },
  {
    "title": "M cars Car rental service- Self Drive Cars In Dehradun",
    "subTitle": "एम कार्स",
    "categoryName": "Car rental agency",
    "address": "Lane no. 10 chidowali, Rajpur Rd, Dehradun, Uttarakhand 248013, India",
    "neighborhood": "Saundhon wali, Chironwali",
    "street": "Lane no. 10 chidowali, Rajpur Rd",
    "city": "Dehradun",
    "postalCode": "248013",
    "state": "Uttarakhand",
    "countryCode": "IN",
    "website": "https://www.mcars.in/",
    "location": {
      "lat": 30.3496525,
      "lng": 78.0683782
    },
    "totalScore": 4.9,
    "permanentlyClosed": false,
    "temporarilyClosed": false,
    "placeId": "ChIJ5yb28MjXCDkRdPz-SSlzeSU",
    "categories": [
      "Car rental agency",
      "Car leasing service"
    ],
    "reviewsCount": 909,
    "imagesCount": 331,
    "openingHours": [
      {
        "day": "Monday",
        "hours": "7 AM to 9 PM"
      },
      {
        "day": "Tuesday",
        "hours": "7 AM to 9 PM"
      },
      {
        "day": "Wednesday",
        "hours": "7 AM to 9 PM"
      },
      {
        "day": "Thursday",
        "hours": "7 AM to 9 PM"
      },
      {
        "day": "Friday",
        "hours": "7 AM to 9 PM"
      },
      {
        "day": "Saturday",
        "hours": "7 AM to 9 PM"
      },
      {
        "day": "Sunday",
        "hours": "7 AM to 9 PM"
      }
    ],
    "imageUrl": "https://lh3.googleusercontent.com/p/AF1QipPah3wS4CCsXhlooZ6LkzrjboilsoF2RSKIq7J8=w408-h544-k-no",
    "url": "https://www.google.com/maps/search/?api=1&query=M%20cars%20Car%20rental%20service-%20Self%20Drive%20Cars%20In%20Dehradun&query_place_id=ChIJ5yb28MjXCDkRdPz-SSlzeSU"
  },
  {
    "title": "Mahendra Cab Dehradun",
    "subTitle": "महेंद्र टैक्सी",
    "categoryName": "Car rental agency",
    "address": "JN Plaza, near Prince Chowk, East Rest Camp, Chander Nagar, Race Course, Dehradun, Uttarakhand 248001, India",
    "neighborhood": "East Rest Camp, Chander Nagar, Race Course",
    "street": "JN Plaza, near Prince Chowk",
    "city": "Dehradun",
    "postalCode": "248001",
    "state": "Uttarakhand",
    "countryCode": "IN",
    "website": "https://www.mahendracab.com/",
    "phone": "+917900701212",
    "phoneUnformatted": "+917900701212",
    "location": {
      "lat": 30.3151326,
      "lng": 78.0390022
    },
    "totalScore": 4.4,
    "permanentlyClosed": false,
    "temporarilyClosed": false,
    "placeId": "ChIJGcLnkZYpCTkRXPbZHzckrsQ",
    "categories": [
      "Car rental agency",
      "Airport shuttle service",
      "Car leasing service",
      "Taxi service",
      "Tour operator",
      "Transportation service"
    ],
    "reviewsCount": 14,
    "imagesCount": 113,
    "openingHours": [],
    "imageUrl": "https://lh3.googleusercontent.com/p/AF1QipMgste0vQVYE74By_pkoFVrZjpGCMbw8fj3HwpF=w408-h255-k-no",
    "url": "https://www.google.com/maps/search/?api=1&query=Mahendra%20Cab%20Dehradun&query_place_id=ChIJGcLnkZYpCTkRXPbZHzckrsQ"
  },
  {
    "title": "Maxi Taxi Service",
    "subTitle": "मैक्सी टैक्सी सर्विस",
    "categoryName": "Car leasing service",
    "address": "S-1, Rishikesh Road, near Shani Mandir, Kargi Chowk, Brahmanwala, Dehradun, Uttarakhand 248121, India",
    "neighborhood": "Kargi Chowk, Brahmanwala",
    "street": "S-1, Rishikesh Road, near Shani Mandir",
    "city": "Dehradun",
    "postalCode": "248121",
    "state": "Uttarakhand",
    "countryCode": "IN",
    "website": "https://www.maxitaxi.in/",
    "phone": "+918062757028",
    "phoneUnformatted": "+918062757028",
    "location": {
      "lat": 30.289414,
      "lng": 78.0228237
    },
    "totalScore": 5,
    "permanentlyClosed": false,
    "temporarilyClosed": false,
    "placeId": "ChIJYZvU2fEpCTkRHjgLPO_zH9k",
    "categories": [
      "Car leasing service",
      "Taxi service"
    ],
    "reviewsCount": 214,
    "imagesCount": 18,
    "openingHours": [],
    "imageUrl": "https://lh3.googleusercontent.com/p/AF1QipOdiloGGqLkK5IwQr3d5-Ytr9vE8rDhHoz7JtPY=w408-h408-k-no",
    "url": "https://www.google.com/maps/search/?api=1&query=Maxi%20Taxi%20Service&query_place_id=ChIJYZvU2fEpCTkRHjgLPO_zH9k"
  },
  {
    "title": "MCARZ – Self Drive Car Rental in Dehradun",
    "subTitle": "एमकार्ज",
    "categoryName": "Car rental agency",
    "address": "77, 5, Canal Rd, Kishanpur, Dehradun, Uttarakhand 248013, India",
    "neighborhood": "Kishanpur",
    "street": "77, 5, Canal Rd",
    "city": "Dehradun",
    "postalCode": "248013",
    "state": "Uttarakhand",
    "countryCode": "IN",
    "website": "https://www.mcars.in/",
    "phone": "+919667234560",
    "phoneUnformatted": "+919667234560",
    "location": {
      "lat": 30.3568601,
      "lng": 78.0697661
    },
    "totalScore": 4.9,
    "permanentlyClosed": false,
    "temporarilyClosed": false,
    "placeId": "ChIJN8gzK83XCDkRGSjL_TVuc38",
    "categories": [
      "Car rental agency",
      "Car leasing service"
    ],
    "reviewsCount": 883,
    "imagesCount": 363,
    "openingHours": [
      {
        "day": "Monday",
        "hours": "7 AM to 9 PM"
      },
      {
        "day": "Tuesday",
        "hours": "7 AM to 9 PM"
      },
      {
        "day": "Wednesday",
        "hours": "7 AM to 9 PM"
      },
      {
        "day": "Thursday",
        "hours": "7 AM to 9 PM"
      },
      {
        "day": "Friday",
        "hours": "7 AM to 9 PM"
      },
      {
        "day": "Saturday",
        "hours": "7 AM to 9 PM"
      },
      {
        "day": "Sunday",
        "hours": "7 AM to 9 PM"
      }
    ],
    "imageUrl": "https://lh3.googleusercontent.com/p/AF1QipP2aUPutekg-MhjLuTVw9gjOyiiavk44LElt4By=w408-h544-k-no",
    "url": "https://www.google.com/maps/search/?api=1&query=MCARZ%20%E2%80%93%20Self%20Drive%20Car%20Rental%20in%20Dehradun&query_place_id=ChIJN8gzK83XCDkRGSjL_TVuc38"
  },
  {
    "title": "My luxury cars",
    "subTitle": "माय लक्जरी कार्स",
    "categoryName": "Car leasing service",
    "address": "Annfield Grant, Tea Estate, Lane no 20A, near Fylfot public school, Banjarawala, Dehradun, Uttarakhand 248121, India",
    "neighborhood": "Banjarawala",
    "street": "Annfield Grant, Tea Estate, Lane no 20A, near Fylfot public school",
    "city": "Dehradun",
    "postalCode": "248121",
    "state": "Uttarakhand",
    "countryCode": "IN",
    "phone": "+919997800024",
    "phoneUnformatted": "+919997800024",
    "location": {
      "lat": 30.2817267,
      "lng": 78.0331584
    },
    "permanentlyClosed": false,
    "temporarilyClosed": true,
    "placeId": "ChIJuWyxNmwpCTkRc7koOv9o_aU",
    "categories": [
      "Car leasing service"
    ],
    "imagesCount": 1,
    "openingHours": [],
    "imageUrl": "https://streetviewpixels-pa.googleapis.com/v1/thumbnail?panoid=Ex7lHyZ-UHIekUW9_F5cxg&cb_client=search.gws-prod.gps&w=408&h=240&yaw=221.2361&pitch=0&thumbfov=100",
    "url": "https://www.google.com/maps/search/?api=1&query=My%20luxury%20cars&query_place_id=ChIJuWyxNmwpCTkRc7koOv9o_aU"
  },
  {
    "title": "Northern Destination (Tour & Travel)",
    "subTitle": "नॉर्दर्न डेस्टिनेशन (टूर & ट्रैवल)",
    "categoryName": "Car rental agency",
    "address": "Agenda Business Center, Rajpur Rd, behind Universal Petrol pump, near New Empire Cinema, Gandhi Park, Chukkuwala, Dehradun, Uttarakhand 248001, India",
    "neighborhood": "Gandhi Park, Chukkuwala",
    "street": "Agenda Business Center, Rajpur Rd, behind Universal Petrol pump, near New Empire Cinema",
    "city": "Dehradun",
    "postalCode": "248001",
    "state": "Uttarakhand",
    "countryCode": "IN",
    "website": "https://www.northerndestination.com/",
    "location": {
      "lat": 30.3261629,
      "lng": 78.0436698
    },
    "totalScore": 1,
    "permanentlyClosed": false,
    "temporarilyClosed": false,
    "placeId": "ChIJxbu4iEIpCTkRi2I7KYkw82w",
    "categories": [
      "Car rental agency"
    ],
    "reviewsCount": 1,
    "imagesCount": 10,
    "openingHours": [
      {
        "day": "Monday",
        "hours": "Open 24 hours"
      },
      {
        "day": "Tuesday",
        "hours": "Open 24 hours"
      },
      {
        "day": "Wednesday",
        "hours": "Open 24 hours"
      },
      {
        "day": "Thursday",
        "hours": "Open 24 hours"
      },
      {
        "day": "Friday",
        "hours": "Open 24 hours"
      },
      {
        "day": "Saturday",
        "hours": "Open 24 hours"
      },
      {
        "day": "Sunday",
        "hours": "Open 24 hours"
      }
    ],
    "imageUrl": "https://lh3.googleusercontent.com/p/AF1QipNvCESkY1cVvqCbfoG0PgnI0tczbB0lZpHJCeZg=w408-h473-k-no",
    "url": "https://www.google.com/maps/search/?api=1&query=Northern%20Destination%20(Tour%20%26%20Travel)&query_place_id=ChIJxbu4iEIpCTkRi2I7KYkw82w"
  },
  {
    "title": "Om Car Solutions",
    "subTitle": "ओम कार सॉल्यूशंस",
    "categoryName": "Used car dealer",
    "address": "Raj Biscuit Factory Compound, Niranjanpur, Dehradun, Uttarakhand 248171, India",
    "neighborhood": "Niranjanpur",
    "street": "Raj Biscuit Factory Compound",
    "city": "Dehradun",
    "postalCode": "248171",
    "state": "Uttarakhand",
    "countryCode": "IN",
    "phone": "+919837733366",
    "phoneUnformatted": "+919837733366",
    "location": {
      "lat": 30.3044701,
      "lng": 78.0135083
    },
    "totalScore": 4.9,
    "permanentlyClosed": false,
    "temporarilyClosed": true,
    "placeId": "ChIJYQnbzS4qCTkRoh5Sikmzu2U",
    "categories": [
      "Used car dealer",
      "Auto insurance agency",
      "Car finance and loan company",
      "Health insurance agency"
    ],
    "reviewsCount": 28,
    "imagesCount": 54,
    "openingHours": [],
    "imageUrl": "https://lh3.googleusercontent.com/p/AF1QipOGwyor--GDRtGzqaaFrOAix3E5qSdy35PSOlNu=w480-h240-k-no",
    "url": "https://www.google.com/maps/search/?api=1&query=Om%20Car%20Solutions&query_place_id=ChIJYQnbzS4qCTkRoh5Sikmzu2U"
  },
  {
    "title": "Ready 2 Ride Car Bazar",
    "subTitle": "रेडी 2 राइड कार बाजार",
    "categoryName": "Used car dealer",
    "address": "Ready 2 ride, Kamla Palace Chauk, GMS Rd, opp. The Solitaire Avenue, Dehradun, Uttarakhand 248171, India",
    "neighborhood": "Shakti Enclave, Kaonli",
    "street": "Ready 2 ride, Kamla Palace Chauk, GMS Rd, opp. The Solitaire Avenue",
    "city": "Dehradun",
    "postalCode": "248171",
    "state": "Uttarakhand",
    "countryCode": "IN",
    "phone": "+919058278786",
    "phoneUnformatted": "+919058278786",
    "location": {
      "lat": 30.3081307,
      "lng": 78.0071856
    },
    "totalScore": 4.8,
    "permanentlyClosed": false,
    "temporarilyClosed": true,
    "placeId": "ChIJ8SkfTfgrCTkR0lpqBUTBgcc",
    "categories": [
      "Used car dealer"
    ],
    "reviewsCount": 6,
    "imagesCount": 20,
    "openingHours": [],
    "imageUrl": "https://lh3.googleusercontent.com/p/AF1QipPgiT1bD3Ch9xufUPNMeVO4afi4Lq7xvt6WFodH=w408-h306-k-no",
    "url": "https://www.google.com/maps/search/?api=1&query=Ready%202%20Ride%20Car%20Bazar&query_place_id=ChIJ8SkfTfgrCTkR0lpqBUTBgcc"
  },
  {
    "title": "Saira Travels",
    "subTitle": "सायरा ट्रैवल्स",
    "categoryName": "Car rental agency",
    "address": "Flyover, G.M.S Road, near Balliwala chowk, Shakti Enclave, Kaonli, Dehradun, Uttarakhand 248171, India",
    "neighborhood": "Shakti Enclave, Kaonli",
    "street": "Flyover, G.M.S Road, near Balliwala chowk",
    "city": "Dehradun",
    "postalCode": "248171",
    "state": "Uttarakhand",
    "countryCode": "IN",
    "website": "https://www.sairatravels.in/",
    "phone": "+919634001466",
    "phoneUnformatted": "+919634001466",
    "location": {
      "lat": 30.3197995,
      "lng": 78.0132073
    },
    "totalScore": 5,
    "permanentlyClosed": false,
    "temporarilyClosed": false,
    "placeId": "ChIJM8tBiLgpCTkR346VmU0SuDw",
    "categories": [
      "Car rental agency",
      "Car leasing service",
      "Taxi service",
      "Tour operator",
      "Travel agency"
    ],
    "reviewsCount": 43,
    "imagesCount": 57,
    "openingHours": [],
    "imageUrl": "https://lh3.googleusercontent.com/p/AF1QipMox6DU3Bdy2N4ZXA-La7Gel8cNKrMPPjrFY5OE=w767-h240-k-no",
    "url": "https://www.google.com/maps/search/?api=1&query=Saira%20Travels&query_place_id=ChIJM8tBiLgpCTkR346VmU0SuDw"
  },
  {
    "title": "Shammi Motors - Best Car Bazar in Dehradun, Used Car Dealer in Dehradun, Used Maruti Cars in Race Course Road, Suri Chowk",
    "subTitle": "शम्मी मोटर्स",
    "categoryName": "Used car dealer",
    "address": "Oppostite NEO WISE CHILDREN HOSPITAL, CHOWK, Race Course Rd, Dehradun, Uttarakhand 248001, India",
    "neighborhood": "East Rest Camp, Guru Nanak Vihar, Race Course",
    "street": "Oppostite NEO WISE CHILDREN HOSPITAL, CHOWK, Race Course Rd",
    "city": "Dehradun",
    "postalCode": "248001",
    "state": "Uttarakhand",
    "countryCode": "IN",
    "website": "https://api.whatsapp.com/send/?phone=09412051911&text&type=phone_number&app_absent=0",
    "phone": "+919997117770",
    "phoneUnformatted": "+919997117770",
    "location": {
      "lat": 30.3127622,
      "lng": 78.0459396
    },
    "totalScore": 3.8,
    "permanentlyClosed": false,
    "temporarilyClosed": false,
    "placeId": "ChIJ55Pu0sMpCTkR-LAKxW2lZ0g",
    "categories": [
      "Used car dealer",
      "Auto auction",
      "Car dealer",
      "Motor vehicle dealer"
    ],
    "reviewsCount": 9,
    "imagesCount": 50,
    "openingHours": [
      {
        "day": "Monday",
        "hours": "10:30 AM to 7 PM"
      },
      {
        "day": "Tuesday",
        "hours": "10:30 AM to 7 PM"
      },
      {
        "day": "Wednesday",
        "hours": "10:30 AM to 7 PM"
      },
      {
        "day": "Thursday",
        "hours": "10:30 AM to 7 PM"
      },
      {
        "day": "Friday",
        "hours": "10:30 AM to 7 PM"
      },
      {
        "day": "Saturday",
        "hours": "10:30 AM to 7 PM"
      },
      {
        "day": "Sunday",
        "hours": "10:30 AM to 2 PM"
      }
    ],
    "imageUrl": "https://lh3.googleusercontent.com/p/AF1QipMt5FhFvGY0YrYB7WrLXVCu1DiZBJS7Ezt9q6Cl=w408-h612-k-no",
    "url": "https://www.google.com/maps/search/?api=1&query=Shammi%20Motors%20-%20Best%20Car%20Bazar%20in%20Dehradun%2C%20Used%20Car%20Dealer%20in%20Dehradun%2C%20Used%20Maruti%20Cars%20in%20Race%20Course%20Road%2C%20Suri%20Chowk&query_place_id=ChIJ55Pu0sMpCTkR-LAKxW2lZ0g"
  },
  {
    "title": "Shivaye Luxury Cars",
    "subTitle": "शिवाय लक्जरी कार्स",
    "categoryName": "Used car dealer",
    "address": "Near, Aaraghar Chowk, East Rest Camp, Guru Nanak Vihar, Race Course, Dehradun, Uttarakhand 248001, India",
    "neighborhood": "East Rest Camp, Guru Nanak Vihar, Race Course",
    "street": "Near, Aaraghar Chowk",
    "city": "Dehradun",
    "postalCode": "248001",
    "state": "Uttarakhand",
    "countryCode": "IN",
    "website": "https://shivayeluxurycars.com/",
    "phone": "+917055488999",
    "phoneUnformatted": "+917055488999",
    "location": {
      "lat": 30.311353,
      "lng": 78.0481521
    },
    "totalScore": 4.5,
    "permanentlyClosed": false,
    "temporarilyClosed": false,
    "placeId": "ChIJI45nzgQpCTkREhjIlU7E4kk",
    "categories": [
      "Used car dealer"
    ],
    "reviewsCount": 13,
    "imagesCount": 12,
    "openingHours": [
      {
        "day": "Monday",
        "hours": "11 AM to 8 PM"
      },
      {
        "day": "Tuesday",
        "hours": "11 AM to 8 PM"
      },
      {
        "day": "Wednesday",
        "hours": "11 AM to 8 PM"
      },
      {
        "day": "Thursday",
        "hours": "11 AM to 8 PM"
      },
      {
        "day": "Friday",
        "hours": "11 AM to 8 PM"
      },
      {
        "day": "Saturday",
        "hours": "11 AM to 8 PM"
      },
      {
        "day": "Sunday",
        "hours": "Closed"
      }
    ],
    "imageUrl": "https://lh3.googleusercontent.com/p/AF1QipP4XxpUxbqFG0hUnLZrF2v8QGeLMJkERe6YLhZ4=w408-h306-k-no",
    "url": "https://www.google.com/maps/search/?api=1&query=Shivaye%20Luxury%20Cars&query_place_id=ChIJI45nzgQpCTkREhjIlU7E4kk"
  },
  {
    "title": "Siya Ram Car Rental - Car rental in Dehradun | Self drive cars in Dehradun | Cabs in dehradun",
    "subTitle": "सिया राम कार रेंटल - कार रेंटल इन देहरादून | सेल्फ ड्राइव कार्स इन देहरादून | कैब्स इन देहरादून",
    "categoryName": "Car rental agency",
    "address": "Chandan Vihar Marg, Kandoli, Saundhon wali, Chironwali, Dehradun, Uttarakhand 248013, India",
    "neighborhood": "Kandoli, Saundhon wali, Chironwali",
    "street": "Chandan Vihar Marg",
    "city": "Dehradun",
    "postalCode": "248013",
    "state": "Uttarakhand",
    "countryCode": "IN",
    "website": "https://siyaramcarrentals.in/",
    "phone": "+919536754942",
    "phoneUnformatted": "+919536754942",
    "location": {
      "lat": 30.3440314,
      "lng": 78.0677162
    },
    "totalScore": 5,
    "permanentlyClosed": false,
    "temporarilyClosed": false,
    "placeId": "ChIJH6APWespCTkR92P0y2aRvuk",
    "categories": [
      "Car rental agency",
      "Car leasing service"
    ],
    "reviewsCount": 143,
    "imagesCount": 31,
    "openingHours": [
      {
        "day": "Monday",
        "hours": "7 AM to 9 PM"
      },
      {
        "day": "Tuesday",
        "hours": "7 AM to 9 PM"
      },
      {
        "day": "Wednesday",
        "hours": "7 AM to 9 PM"
      },
      {
        "day": "Thursday",
        "hours": "7 AM to 9 PM"
      },
      {
        "day": "Friday",
        "hours": "7 AM to 9 PM"
      },
      {
        "day": "Saturday",
        "hours": "7 AM to 9 PM"
      },
      {
        "day": "Sunday",
        "hours": "7 AM to 9 PM"
      }
    ],
    "imageUrl": "https://lh3.googleusercontent.com/p/AF1QipNWTPBnQW5V8pAIBAiuxwnSOR3rlSvBO2vzlMgt=w408-h544-k-no",
    "url": "https://www.google.com/maps/search/?api=1&query=Siya%20Ram%20Car%20Rental%20-%20Car%20rental%20in%20Dehradun%20%7C%20Self%20drive%20cars%20in%20Dehradun%20%7C%20Cabs%20in%20dehradun&query_place_id=ChIJH6APWespCTkR92P0y2aRvuk"
  },
  {
    "title": "Thee Cars",
    "subTitle": "थी कार्स",
    "categoryName": "Used car dealer",
    "address": "Canal Rd, Jakhan, Dehradun, Uttarakhand 248001, India",
    "neighborhood": "Jakhan",
    "street": "Canal Rd",
    "city": "Dehradun",
    "postalCode": "248001",
    "state": "Uttarakhand",
    "countryCode": "IN",
    "phone": "+918077466841",
    "phoneUnformatted": "+918077466841",
    "location": {
      "lat": 30.3610184,
      "lng": 78.0720502
    },
    "totalScore": 5,
    "permanentlyClosed": false,
    "temporarilyClosed": false,
    "placeId": "ChIJz9IhLXLXCDkRrTmE_W9sc60",
    "categories": [
      "Used car dealer"
    ],
    "reviewsCount": 12,
    "imagesCount": 4,
    "openingHours": [
      {
        "day": "Monday",
        "hours": "11 AM to 7 PM"
      },
      {
        "day": "Tuesday",
        "hours": "11 AM to 7 PM"
      },
      {
        "day": "Wednesday",
        "hours": "11 AM to 7 PM"
      },
      {
        "day": "Thursday",
        "hours": "11 AM to 7 PM"
      },
      {
        "day": "Friday",
        "hours": "11 AM to 7 PM"
      },
      {
        "day": "Saturday",
        "hours": "11 AM to 7 PM"
      },
      {
        "day": "Sunday",
        "hours": "11 AM to 7 PM"
      }
    ],
    "imageUrl": "https://lh3.googleusercontent.com/p/AF1QipO3JC0JEijMpO-UPAbDfsmpIMsP2shS8RYs8viW=w408-h306-k-no",
    "url": "https://www.google.com/maps/search/?api=1&query=Thee%20Cars&query_place_id=ChIJz9IhLXLXCDkRrTmE_W9sc60"
  },
  {
    "title": "Trevalia - Car Rentals in Dehradun, Tempo Traveller Services",
    "subTitle": "ट्रेवलिया॰इन",
    "categoryName": "Car rental agency",
    "address": "H. No 241, Bhramawala, Block C, Mandakini Vihar, Sahastradhara Rd, Barmawala Khala, Saundhon wali, Chironwali, Dehradun, Uttarakhand 248013, India",
    "neighborhood": "Barmawala Khala, Saundhon wali, Chironwali",
    "street": "H. No 241, Bhramawala, Block C, Mandakini Vihar, Sahastradhara Rd",
    "city": "Dehradun",
    "postalCode": "248013",
    "state": "Uttarakhand",
    "countryCode": "IN",
    "website": "http://trevalia.in/",
    "phone": "+919808410052",
    "phoneUnformatted": "+919808410052",
    "location": {
      "lat": 30.3454035,
      "lng": 78.0719416
    },
    "totalScore": 5,
    "permanentlyClosed": false,
    "temporarilyClosed": false,
    "placeId": "ChIJx1miLsMpCTkROAVD_8QMtV0",
    "categories": [
      "Car rental agency",
      "Bus tour agency",
      "Taxi service"
    ],
    "reviewsCount": 476,
    "imagesCount": 254,
    "openingHours": [
      {
        "day": "Monday",
        "hours": "Open 24 hours"
      },
      {
        "day": "Tuesday",
        "hours": "Open 24 hours"
      },
      {
        "day": "Wednesday",
        "hours": "Open 24 hours"
      },
      {
        "day": "Thursday",
        "hours": "Open 24 hours"
      },
      {
        "day": "Friday",
        "hours": "Open 24 hours"
      },
      {
        "day": "Saturday",
        "hours": "Open 24 hours"
      },
      {
        "day": "Sunday",
        "hours": "Open 24 hours"
      }
    ],
    "imageUrl": "https://lh3.googleusercontent.com/p/AF1QipOt_fG1ujc4xb0Wim99D9XzMekGUsrmQuoZNKL3=w408-h544-k-no",
    "url": "https://www.google.com/maps/search/?api=1&query=Trevalia%20-%20Car%20Rentals%20in%20Dehradun%2C%20Tempo%20Traveller%20Services&query_place_id=ChIJx1miLsMpCTkROAVD_8QMtV0"
  },
  {
    "title": "Trueway Taxis Pvt. Ltd.",
    "subTitle": "ट्रवे टैक्सिस पीवीटी. एलटीडी.",
    "categoryName": "Car rental agency",
    "address": "83H3+R7J unit of Udupi cafe, above Moms Parantha, E. C Road, Karanpur, Dehradun, Uttarakhand 248001, India",
    "neighborhood": "E. C Road, Karanpur",
    "street": "83H3+R7J unit of Udupi cafe, above Moms Parantha",
    "city": "Dehradun",
    "postalCode": "248001",
    "state": "Uttarakhand",
    "countryCode": "IN",
    "website": "https://truewaytaxis.com/",
    "phone": "+917895665566",
    "phoneUnformatted": "+917895665566",
    "location": {
      "lat": 30.3295059,
      "lng": 78.0531612
    },
    "totalScore": 4.8,
    "permanentlyClosed": false,
    "temporarilyClosed": false,
    "placeId": "ChIJHSPXdEEpCTkRSrD8EuI5--0",
    "categories": [
      "Car rental agency",
      "Car leasing service",
      "Taxi service"
    ],
    "reviewsCount": 1399,
    "imagesCount": 209,
    "openingHours": [],
    "imageUrl": "https://lh3.googleusercontent.com/p/AF1QipO_SnR7TR-MMBbOYahnl-7l4lloBTpvGjaeR7bh=w427-h240-k-no",
    "url": "https://www.google.com/maps/search/?api=1&query=Trueway%20Taxis%20Pvt.%20Ltd.&query_place_id=ChIJHSPXdEEpCTkRSrD8EuI5--0"
  },
  {
    "title": "UK Hills Travels - Taxi Services, Tempo Traveller in Dehradun",
    "subTitle": "यूके हिल्स ट्रैवल्स - टैक्सी सर्विसेज, टेम्पो ट्रैवलर इन देहरादून",
    "categoryName": "Car leasing service",
    "address": "2/3, Tyagi Rd, Prince Chowk, Govind Nagar, Race Course, Dehradun, Uttarakhand 248001, India",
    "neighborhood": "Prince Chowk, Govind Nagar, Race Course",
    "street": "2/3, Tyagi Rd",
    "city": "Dehradun",
    "postalCode": "248001",
    "state": "Uttarakhand",
    "countryCode": "IN",
    "website": "https://ukhillstravels.com/",
    "phone": "+919997171161",
    "phoneUnformatted": "+919997171161",
    "location": {
      "lat": 30.3154757,
      "lng": 78.0369292
    },
    "totalScore": 4.5,
    "permanentlyClosed": false,
    "temporarilyClosed": false,
    "placeId": "ChIJjekQ_mApCTkRAwwZYKsQ2TM",
    "categories": [
      "Car leasing service",
      "Airline ticket agency",
      "Airport shuttle service",
      "Bus tour agency",
      "Taxi service",
      "Minibus taxi service",
      "Tour operator",
      "Transportation service",
      "Travel agency"
    ],
    "reviewsCount": 281,
    "imagesCount": 124,
    "openingHours": [],
    "imageUrl": "https://lh3.googleusercontent.com/p/AF1QipNnoj8rIBVKOrJwctCQA20xByGylMwyw0BbLynu=w408-h544-k-no",
    "url": "https://www.google.com/maps/search/?api=1&query=UK%20Hills%20Travels%20-%20Taxi%20Services%2C%20Tempo%20Traveller%20in%20Dehradun&query_place_id=ChIJjekQ_mApCTkRAwwZYKsQ2TM"
  },
  {
    "title": "Used CARS Dehradun",
    "subTitle": "यूज्ड कार्स देहरादून",
    "categoryName": "Used car dealer",
    "address": "Tower, Kargi, Haridwar By pass Road, Kargi Chowk, Dehradun, Uttarakhand 248121, India",
    "neighborhood": "Kargi Chowk, Brahmanwala",
    "street": "Tower, Kargi, Haridwar By pass Road",
    "city": "Dehradun",
    "postalCode": "248121",
    "state": "Uttarakhand",
    "countryCode": "IN",
    "website": "https://www.carandbike.com/used/sell-your-car",
    "phone": "+919930565555",
    "phoneUnformatted": "+919930565555",
    "location": {
      "lat": 30.2885115,
      "lng": 78.0247582
    },
    "totalScore": 4,
    "permanentlyClosed": false,
    "temporarilyClosed": false,
    "placeId": "ChIJn955I8opCTkRMrJnFlW8jNY",
    "categories": [
      "Used car dealer",
      "Car dealer",
      "Motor vehicle dealer",
      "Vehicle inspection service"
    ],
    "reviewsCount": 4,
    "imagesCount": 2,
    "openingHours": [],
    "imageUrl": "https://streetviewpixels-pa.googleapis.com/v1/thumbnail?panoid=Qrc_p5U_8luyZSbBLdzEFw&cb_client=search.gws-prod.gps&w=408&h=240&yaw=3.5299506&pitch=0&thumbfov=100",
    "url": "https://www.google.com/maps/search/?api=1&query=Used%20CARS%20Dehradun&query_place_id=ChIJn955I8opCTkRMrJnFlW8jNY"
  },
  {
    "title": "Uttarakhand Cab 24/7",
    "subTitle": "उत्तराखंड कैब 24/7",
    "categoryName": "Car leasing service",
    "address": "Punj 86/1, Ballupur Rd, Mitralok Colony, Deeplok Colony, Khurbura Mohalla, Dehradun, Uttarakhand 248001, India",
    "neighborhood": "Mitralok Colony, Deeplok Colony, Khurbura Mohalla",
    "street": "Punj 86/1, Ballupur Rd",
    "city": "Dehradun",
    "postalCode": "248001",
    "state": "Uttarakhand",
    "countryCode": "IN",
    "website": "https://uttarakhandcab.in/",
    "phone": "+919675212169",
    "phoneUnformatted": "+919675212169",
    "location": {
      "lat": 30.3333202,
      "lng": 78.0244915
    },
    "totalScore": 4.9,
    "permanentlyClosed": false,
    "temporarilyClosed": false,
    "placeId": "ChIJOxX5OEcpCTkRrNxU0i8fCcA",
    "categories": [
      "Car leasing service",
      "Airport shuttle service",
      "Taxi service",
      "Tour operator",
      "Transportation service",
      "Travel agency"
    ],
    "reviewsCount": 136,
    "imagesCount": 99,
    "openingHours": [],
    "imageUrl": "https://lh3.googleusercontent.com/p/AF1QipPnwxkd09cSFRqd22-N5_bUqqS08Sdc4TB03P0y=w408-h306-k-no",
    "url": "https://www.google.com/maps/search/?api=1&query=Uttarakhand%20Cab%2024%2F7&query_place_id=ChIJOxX5OEcpCTkRrNxU0i8fCcA"
  },
  {
    "title": "Vamika Taxi Services - Taxi & Cab Service in Dehradun",
    "subTitle": "वामिका टैक्सी सर्विसेस - टैक्सी & कैब सर्विस इन देहरादून",
    "categoryName": "Car rental agency",
    "address": "58, Guru Rd, near Calista Hotel, Sanjay Colony, Patel Nagar, Dehradun, Uttarakhand 248001, India",
    "neighborhood": "Sanjay Colony, Patel Nagar",
    "street": "58, Guru Rd, near Calista Hotel",
    "city": "Dehradun",
    "postalCode": "248001",
    "state": "Uttarakhand",
    "countryCode": "IN",
    "website": "https://vamikataxiservice.in/",
    "phone": "+918218788865",
    "phoneUnformatted": "+918218788865",
    "location": {
      "lat": 30.3123656,
      "lng": 78.0169663
    },
    "totalScore": 5,
    "permanentlyClosed": false,
    "temporarilyClosed": false,
    "placeId": "ChIJm6RJcLwrCTkRi1c6Xb8KHXg",
    "categories": [
      "Car rental agency",
      "Airport shuttle service",
      "Bus tour agency",
      "Car leasing service",
      "Taxi service",
      "Minibus taxi service",
      "Sightseeing tour agency",
      "Tour operator",
      "Tourist information center",
      "Transportation service"
    ],
    "reviewsCount": 26,
    "imagesCount": 3,
    "openingHours": [],
    "imageUrl": "https://lh3.googleusercontent.com/p/AF1QipM3wfRsaMscbRlg3eCduJs8gNNjjM-mzbcQYU9D=w408-h725-k-no",
    "url": "https://www.google.com/maps/search/?api=1&query=Vamika%20Taxi%20Services%20-%20Taxi%20%26%20Cab%20Service%20in%20Dehradun&query_place_id=ChIJm6RJcLwrCTkRi1c6Xb8KHXg"
  },
  {
    "title": "Vintage Car for Wedding",
    "subTitle": "विंटेज कार फॉर वेडिंग",
    "categoryName": "Car rental agency",
    "address": "103, parasnath Eleganza mallRajpur Road , Rajpur, Dehradun, Uttarakhand 248001, India",
    "neighborhood": "Hathibarkala Salwala",
    "street": "103, parasnath Eleganza mallRajpur Road , Rajpur",
    "city": "Dehradun",
    "postalCode": "248001",
    "state": "Uttarakhand",
    "countryCode": "IN",
    "phone": "+919818919082",
    "phoneUnformatted": "+919818919082",
    "location": {
      "lat": 30.342631,
      "lng": 78.0606779
    },
    "totalScore": 5,
    "permanentlyClosed": false,
    "temporarilyClosed": false,
    "placeId": "ChIJ381Lmc8pCTkRrZs3qCAIeh8",
    "categories": [
      "Car rental agency"
    ],
    "reviewsCount": 2,
    "imagesCount": 9,
    "openingHours": [
      {
        "day": "Monday",
        "hours": "Open 24 hours"
      },
      {
        "day": "Tuesday",
        "hours": "Open 24 hours"
      },
      {
        "day": "Wednesday",
        "hours": "Open 24 hours"
      },
      {
        "day": "Thursday",
        "hours": "Open 24 hours"
      },
      {
        "day": "Friday",
        "hours": "Open 24 hours"
      },
      {
        "day": "Saturday",
        "hours": "Open 24 hours"
      },
      {
        "day": "Sunday",
        "hours": "Open 24 hours"
      }
    ],
    "imageUrl": "https://lh3.googleusercontent.com/p/AF1QipPBvxgFjApBSJnhmJHZosMEy23LCptA5UVFJyk=w426-h240-k-no",
    "url": "https://www.google.com/maps/search/?api=1&query=Vintage%20Car%20for%20Wedding&query_place_id=ChIJ381Lmc8pCTkRrZs3qCAIeh8"
  },
  {
    "title": "VINTAGE CLASSIC LUXURY CAR",
    "subTitle": "विंटेज क्लासिक लक्जरी कार",
    "categoryName": "Car leasing service",
    "address": "161/157, 2, Park Rd, near kanwali bridge, Khurbura Mohalla, Dehradun, Uttarakhand 248001, India",
    "neighborhood": "Khurbura Mohalla",
    "street": "161/157, 2, Park Rd, near kanwali bridge",
    "city": "Dehradun",
    "postalCode": "248001",
    "state": "Uttarakhand",
    "countryCode": "IN",
    "location": {
      "lat": 30.3223575,
      "lng": 78.0176279
    },
    "permanentlyClosed": false,
    "temporarilyClosed": false,
    "placeId": "ChIJsXilPwArCTkR16iFBppsIBg",
    "categories": [
      "Car leasing service",
      "Car rental agency"
    ],
    "imagesCount": 5,
    "openingHours": [
      {
        "day": "Monday",
        "hours": "Open 24 hours"
      },
      {
        "day": "Tuesday",
        "hours": "Open 24 hours"
      },
      {
        "day": "Wednesday",
        "hours": "Open 24 hours"
      },
      {
        "day": "Thursday",
        "hours": "Open 24 hours"
      },
      {
        "day": "Friday",
        "hours": "Open 24 hours"
      },
      {
        "day": "Saturday",
        "hours": "Open 24 hours"
      },
      {
        "day": "Sunday",
        "hours": "Open 24 hours"
      }
    ],
    "imageUrl": "https://lh3.googleusercontent.com/p/AF1QipM9OUoYh7wr5Cs5dO14lElaLejE8fwcUc07GFoU=w408-h542-k-no",
    "url": "https://www.google.com/maps/search/?api=1&query=VINTAGE%20CLASSIC%20LUXURY%20CAR&query_place_id=ChIJsXilPwArCTkR16iFBppsIBg"
  },
  {
    "title": "Wedding Jeep\\'s & Vintage Car Luxury Cars",
    "subTitle": "वेडिंग जीप\\'स & विंटेज कार लक्जरी कार्स",
    "categoryName": "Car rental agency",
    "address": "73X5+8VX, Haridwar Rd, Rajeev Nagar, Danda Dharampur, Race Course, Dehradun, Uttarakhand 248001, India",
    "neighborhood": "Rajeev Nagar, Danda Dharampur, Race Course",
    "street": "73X5+8VX, Haridwar Rd",
    "city": "Dehradun",
    "postalCode": "248001",
    "state": "Uttarakhand",
    "countryCode": "IN",
    "location": {
      "lat": 30.298369,
      "lng": 78.0597359
    },
    "permanentlyClosed": false,
    "temporarilyClosed": false,
    "placeId": "ChIJMRQ31AApCTkRTAYn9qum330",
    "categories": [
      "Car rental agency"
    ],
    "imagesCount": 1,
    "openingHours": [],
    "imageUrl": "https://streetviewpixels-pa.googleapis.com/v1/thumbnail?panoid=VJsr7WEZzcrftKTKXRywOw&cb_client=search.gws-prod.gps&w=408&h=240&yaw=306.34177&pitch=0&thumbfov=100",
    "url": "https://www.google.com/maps/search/?api=1&query=Wedding%20Jeep%5C's%20%26%20Vintage%20Car%20Luxury%20Cars&query_place_id=ChIJMRQ31AApCTkRTAYn9qum330"
  }
]
