[
  {
    "title": "3A Luxury Cars Head Office Delhi",
    "subTitle": "3ए लक्जरी कार्स हेड ऑफिस दिल्ली",
    "categoryName": "Used car dealer",
    "address": "SFS FLATS, 348, Gate No. 2, near Water tank, Bunkar Colony, Block A, Ashok Vihar IV, Ashok Vihar, Delhi, 110052, India",
    "neighborhood": "Bunkar Colony, Block A, Ashok Vihar IV, Ashok Vihar",
    "street": "SFS FLATS, 348, Gate No. 2, near Water tank",
    "city": "Delhi",
    "postalCode": "110052",
    "state": "Delhi",
    "countryCode": "IN",
    "location": {
      "lat": 28.6855032,
      "lng": 77.1732252
    },
    "totalScore": 5,
    "permanentlyClosed": false,
    "temporarilyClosed": false,
    "placeId": "ChIJfVeEYAADDTkRfkodTdzzuZE",
    "categories": [
      "Used car dealer"
    ],
    "reviewsCount": 2,
    "openingHours": [],
    "url": "https://www.google.com/maps/search/?api=1&query=3A%20Luxury%20Cars%20Head%20Office%20Delhi&query_place_id=ChIJfVeEYAADDTkRfkodTdzzuZE"
  },
  {
    "title": "Apna Car House",
    "subTitle": "अपना कार हाउस",
    "categoryName": "Car dealer",
    "address": "Shop No. 3, C-2/22, near Bansiwala Sweets, Pocket 2, Sector 11, Rohini, Delhi, 110085, India",
    "neighborhood": "Pocket 2, Sector 11, Rohini",
    "street": "Shop No. 3, C-2/22, near Bansiwala Sweets",
    "city": "Delhi",
    "postalCode": "110085",
    "state": "Delhi",
    "countryCode": "IN",
    "phone": "+919310904836",
    "phoneUnformatted": "+919310904836",
    "location": {
      "lat": 28.7322164,
      "lng": 77.1179393
    },
    "totalScore": 5,
    "permanentlyClosed": false,
    "temporarilyClosed": false,
    "placeId": "ChIJvddGl10BDTkRaFsMrzKYcpg",
    "categories": [
      "Car dealer"
    ],
    "reviewsCount": 21,
    "imagesCount": 71,
    "openingHours": [
      {
        "day": "Monday",
        "hours": "9 AM to 8:30 PM"
      },
      {
        "day": "Tuesday",
        "hours": "9 AM to 8:30 PM"
      },
      {
        "day": "Wednesday",
        "hours": "9 AM to 8:30 PM"
      },
      {
        "day": "Thursday",
        "hours": "9 AM to 8:30 PM"
      },
      {
        "day": "Friday",
        "hours": "9 AM to 8:30 PM"
      },
      {
        "day": "Saturday",
        "hours": "9 AM to 8:30 PM"
      },
      {
        "day": "Sunday",
        "hours": "9 AM to 8:30 PM"
      }
    ],
    "imageUrl": "https://lh3.googleusercontent.com/p/AF1QipOzHNNwuJ5i4UZgHmuxzSYxGUz7g7Y67GhPgLBY=w408-h725-k-no",
    "url": "https://www.google.com/maps/search/?api=1&query=Apna%20Car%20House&query_place_id=ChIJvddGl10BDTkRaFsMrzKYcpg"
  },
  {
    "title": "Arouse Automotive (Multi-Brand Virtual Car Showroom)",
    "subTitle": "अराउस ऑटोमोटिव (मल्टी-ब्रांड वर्चुअल कार शोरूम)",
    "categoryName": "Car dealer",
    "address": "Plot No.60 1st Floor Suraj Vihar Sector-15 Dwarka, Near NSIT College New Delhi, New, Delhi, 110078, India",
    "neighborhood": "Bajaj Enclave, Sector 15 Dwarka, Dwarka",
    "street": "Plot No.60 1st Floor Suraj Vihar Sector-15 Dwarka, Near NSIT College New Delhi, New",
    "city": "Delhi",
    "postalCode": "110078",
    "state": "Delhi",
    "countryCode": "IN",
    "website": "http://arouseindia.com/",
    "phone": "+911147508777",
    "phoneUnformatted": "+911147508777",
    "location": {
      "lat": 28.6137418,
      "lng": 77.0328285
    },
    "totalScore": 4.7,
    "permanentlyClosed": false,
    "temporarilyClosed": false,
    "placeId": "ChIJ5-GzMBAFDTkRDIuC1QCeYBA",
    "categories": [
      "Car dealer"
    ],
    "reviewsCount": 453,
    "imagesCount": 249,
    "openingHours": [
      {
        "day": "Monday",
        "hours": "9:30 AM to 6:30 PM"
      },
      {
        "day": "Tuesday",
        "hours": "9:30 AM to 6:30 PM"
      },
      {
        "day": "Wednesday",
        "hours": "9:30 AM to 6:30 PM"
      },
      {
        "day": "Thursday",
        "hours": "9:30 AM to 6:30 PM"
      },
      {
        "day": "Friday",
        "hours": "9:30 AM to 6:30 PM"
      },
      {
        "day": "Saturday",
        "hours": "9:30 AM to 6:30 PM"
      },
      {
        "day": "Sunday",
        "hours": "9:30 AM to 6:30 PM"
      }
    ],
    "imageUrl": "https://lh3.googleusercontent.com/p/AF1QipP3xHVR88xe05omis0sEcmBxtGjAH6fYFRDPynU=w408-h544-k-no",
    "url": "https://www.google.com/maps/search/?api=1&query=Arouse%20Automotive%20(Multi-Brand%20Virtual%20Car%20Showroom)&query_place_id=ChIJ5-GzMBAFDTkRDIuC1QCeYBA"
  },
  {
    "title": "AutoBest Emperio",
    "subTitle": "ऑटोबेस्ट एम्पोरियो",
    "categoryName": "Used car dealer",
    "address": "Showroom, Pillar No. 177, C - 4, First Floor, Ring Rd, next to BMW, Rajouri Garden, Delhi, 110027, India",
    "neighborhood": "Block C, Rajouri Garden",
    "street": "Showroom, Pillar No. 177, C - 4, First Floor, Ring Rd, next to BMW",
    "city": "Delhi",
    "postalCode": "110027",
    "state": "Delhi",
    "countryCode": "IN",
    "website": "https://autobest.co.in/",
    "phone": "+918888588886",
    "phoneUnformatted": "+918888588886",
    "location": {
      "lat": 28.6445535,
      "lng": 77.1269668
    },
    "totalScore": 4.6,
    "permanentlyClosed": false,
    "temporarilyClosed": false,
    "placeId": "ChIJl_HwjyQDDTkRSjzDiDdweMA",
    "categories": [
      "Used car dealer",
      "Audi dealer",
      "BMW dealer",
      "Car dealer",
      "Jaguar dealer",
      "Land Rover dealer",
      "Mercedes-Benz dealer",
      "Porsche dealer",
      "Volvo dealer"
    ],
    "reviewsCount": 649,
    "imagesCount": 725,
    "openingHours": [
      {
        "day": "Monday",
        "hours": "11 AM to 7:30 PM"
      },
      {
        "day": "Tuesday",
        "hours": "11 AM to 7:30 PM"
      },
      {
        "day": "Wednesday",
        "hours": "11 AM to 7:30 PM"
      },
      {
        "day": "Thursday",
        "hours": "11 AM to 7:30 PM"
      },
      {
        "day": "Friday",
        "hours": "11 AM to 7:30 PM"
      },
      {
        "day": "Saturday",
        "hours": "11 AM to 7:30 PM"
      },
      {
        "day": "Sunday",
        "hours": "11 AM to 7:30 PM"
      }
    ],
    "imageUrl": "https://lh3.googleusercontent.com/gps-cs-s/AG0ilSxHCrdQQlhsGed28zYeat0VuzU1Hf_HuTBED5KIepo7Qj32QpozONnRX1gCsqqZ4mHFpTYpWqZdwht_JQaDQ6pi1bzmxOZQY7EB6AfqbdP-4cIqx12Z0SHc7IASLCArcs864yvXig=w426-h240-k-no",
    "url": "https://www.google.com/maps/search/?api=1&query=AutoBest%20Emperio&query_place_id=ChIJl_HwjyQDDTkRSjzDiDdweMA"
  },
  {
    "title": "Automotive Xperts",
    "subTitle": "ऑटोमोटिव क्स्पेर्ट्स",
    "categoryName": "Used car dealer",
    "address": "Plot No. 32, near Anaj Mandi, Mahesh Garden, Najafgarh, Delhi, 110072, India",
    "neighborhood": "Mahesh Garden, Najafgarh",
    "street": "Plot No. 32, near Anaj Mandi",
    "city": "Delhi",
    "postalCode": "110072",
    "state": "Delhi",
    "countryCode": "IN",
    "phone": "+919810706909",
    "phoneUnformatted": "+919810706909",
    "location": {
      "lat": 28.6232969,
      "lng": 76.9706388
    },
    "totalScore": 5,
    "permanentlyClosed": false,
    "temporarilyClosed": false,
    "placeId": "ChIJY0s8rgYPDTkRbgZVMAu_K4g",
    "categories": [
      "Used car dealer"
    ],
    "reviewsCount": 39,
    "imagesCount": 37,
    "openingHours": [
      {
        "day": "Monday",
        "hours": "10 AM to 6 PM"
      },
      {
        "day": "Tuesday",
        "hours": "10 AM to 6 PM"
      },
      {
        "day": "Wednesday",
        "hours": "10 AM to 6 PM"
      },
      {
        "day": "Thursday",
        "hours": "10 AM to 6 PM"
      },
      {
        "day": "Friday",
        "hours": "10 AM to 6 PM"
      },
      {
        "day": "Saturday",
        "hours": "10 AM to 6 PM"
      },
      {
        "day": "Sunday",
        "hours": "10 AM to 6 PM"
      }
    ],
    "imageUrl": "https://lh3.googleusercontent.com/p/AF1QipOkEHTrxUEmLi5sl22415d5Szn_m8hW8ip321m-=w428-h240-k-no",
    "url": "https://www.google.com/maps/search/?api=1&query=Automotive%20Xperts&query_place_id=ChIJY0s8rgYPDTkRbgZVMAu_K4g"
  },
  {
    "title": "Autonation",
    "subTitle": "औतोनातिओं",
    "categoryName": "Car dealer",
    "address": "B 8/240, Pocket B8, Sector 3, Sector 3B, Rohini, Delhi, 110085, India",
    "neighborhood": "Pocket B8, Sector 3, Sector 3B, Rohini",
    "street": "B 8/240",
    "city": "Delhi",
    "postalCode": "110085",
    "state": "Delhi",
    "countryCode": "IN",
    "phone": "+918860898160",
    "phoneUnformatted": "+918860898160",
    "location": {
      "lat": 28.7009207,
      "lng": 77.1113587
    },
    "totalScore": 4.5,
    "permanentlyClosed": false,
    "temporarilyClosed": false,
    "placeId": "ChIJpZuATasDDTkRdKF8naUbBzQ",
    "categories": [
      "Car dealer"
    ],
    "reviewsCount": 16,
    "imagesCount": 3,
    "openingHours": [
      {
        "day": "Monday",
        "hours": "Closed"
      },
      {
        "day": "Tuesday",
        "hours": "9:30 AM to 7:30 PM"
      },
      {
        "day": "Wednesday",
        "hours": "9:30 AM to 7:30 PM"
      },
      {
        "day": "Thursday",
        "hours": "9:30 AM to 7:30 PM"
      },
      {
        "day": "Friday",
        "hours": "9:30 AM to 7:30 PM"
      },
      {
        "day": "Saturday",
        "hours": "9:30 AM to 7:30 PM"
      },
      {
        "day": "Sunday",
        "hours": "9:30 AM to 7:30 PM"
      }
    ],
    "imageUrl": "https://lh3.googleusercontent.com/p/AF1QipOfP8294a1WrovbUL5CvCoeiY1H_vmqHgrDyIod=w408-h380-k-no",
    "url": "https://www.google.com/maps/search/?api=1&query=Autonation&query_place_id=ChIJpZuATasDDTkRdKF8naUbBzQ"
  },
  {
    "title": "Avry Motors",
    "subTitle": "अवर्य मोटर्स",
    "categoryName": "Used car dealer",
    "address": "Pocket A, 77A, Outer Ring Rd, Krishna Park, Vikashpuri Extension, Vikaspuri, Delhi, 110018, India",
    "neighborhood": "Krishna Park, Vikashpuri Extension, Vikaspuri",
    "street": "Pocket A, 77A, Outer Ring Rd",
    "city": "Delhi",
    "postalCode": "110018",
    "state": "Delhi",
    "countryCode": "IN",
    "website": "http://www.avrymotors.com/",
    "phone": "+919999731333",
    "phoneUnformatted": "+919999731333",
    "location": {
      "lat": 28.6409799,
      "lng": 77.0829021
    },
    "totalScore": 4.2,
    "permanentlyClosed": false,
    "temporarilyClosed": false,
    "placeId": "ChIJPWDo4JQEDTkRXdDA-A8ku0I",
    "categories": [
      "Used car dealer"
    ],
    "reviewsCount": 51,
    "imagesCount": 258,
    "openingHours": [
      {
        "day": "Monday",
        "hours": "10:30 AM to 7:30 PM"
      },
      {
        "day": "Tuesday",
        "hours": "10:30 AM to 7:30 PM"
      },
      {
        "day": "Wednesday",
        "hours": "10:30 AM to 7:30 PM"
      },
      {
        "day": "Thursday",
        "hours": "10:30 AM to 7:30 PM"
      },
      {
        "day": "Friday",
        "hours": "10:30 AM to 7:30 PM"
      },
      {
        "day": "Saturday",
        "hours": "10:30 AM to 7:30 PM"
      },
      {
        "day": "Sunday",
        "hours": "10:30 AM to 7:30 PM"
      }
    ],
    "imageUrl": "https://lh3.googleusercontent.com/p/AF1QipP-og3Gsg1FAMH47P0bsLlE3tFFY9KiMln8DPkf=w408-h318-k-no",
    "url": "https://www.google.com/maps/search/?api=1&query=Avry%20Motors&query_place_id=ChIJPWDo4JQEDTkRXdDA-A8ku0I"
  },
  {
    "title": "Baba Luxury Car",
    "subTitle": "बाबा लक्जरी कार",
    "categoryName": "Used car dealer",
    "address": "Emaya Mall, Paschim Vihar, Delhi, 110063, India",
    "neighborhood": "Block BG 2, Paschim Vihar",
    "street": "Emaya Mall",
    "city": "Delhi",
    "postalCode": "110063",
    "state": "Delhi",
    "countryCode": "IN",
    "location": {
      "lat": 28.6679851,
      "lng": 77.112211
    },
    "totalScore": 3.7,
    "permanentlyClosed": false,
    "temporarilyClosed": false,
    "placeId": "ChIJjWyHwvYDDTkRDCh_lIIsGrg",
    "categories": [
      "Used car dealer"
    ],
    "reviewsCount": 116,
    "imagesCount": 36,
    "openingHours": [
      {
        "day": "Monday",
        "hours": "11 AM to 8 PM"
      },
      {
        "day": "Tuesday",
        "hours": "11 AM to 8 PM"
      },
      {
        "day": "Wednesday",
        "hours": "11 AM to 8 PM"
      },
      {
        "day": "Thursday",
        "hours": "11 AM to 8 PM"
      },
      {
        "day": "Friday",
        "hours": "11 AM to 8 PM"
      },
      {
        "day": "Saturday",
        "hours": "11 AM to 8 PM"
      },
      {
        "day": "Sunday",
        "hours": "11 AM to 8 PM"
      }
    ],
    "imageUrl": "https://lh3.googleusercontent.com/gps-cs-s/AG0ilSwPaq2Wdk4MuwBoD9c7s_Lp0fgHFHLpam-qg7qJSdnpzMZFq44WVIIEaiWXn-fnF_YlG9VHM_IeLoFdVyh7tQW7PyWErttLcavmzLGoUVCJTvZ9mvHFAKefBO-RDXutdJDJupDzZg=w532-h240-k-no",
    "url": "https://www.google.com/maps/search/?api=1&query=Baba%20Luxury%20Car&query_place_id=ChIJjWyHwvYDDTkRDCh_lIIsGrg"
  },
  {
    "title": "BEST MOTORS",
    "subTitle": "श्रेष्ठ मोटर्स",
    "categoryName": "Used car dealer",
    "address": "764a, Outer Ring Rd, opp. CRPF camp, Block JG 2, Vikaspuri, Delhi, 110018, India",
    "neighborhood": "Block JG 2, Vikaspuri",
    "street": "764a, Outer Ring Rd, opp. CRPF camp",
    "city": "Delhi",
    "postalCode": "110018",
    "state": "Delhi",
    "countryCode": "IN",
    "phone": "+918766332749",
    "phoneUnformatted": "+918766332749",
    "location": {
      "lat": 28.6460088,
      "lng": 77.0840208
    },
    "totalScore": 5,
    "permanentlyClosed": false,
    "temporarilyClosed": false,
    "placeId": "ChIJz1zC-o4EDTkR8Fq6mFdNhcg",
    "categories": [
      "Used car dealer"
    ],
    "reviewsCount": 198,
    "imagesCount": 137,
    "openingHours": [
      {
        "day": "Monday",
        "hours": "9:30 AM to 7:30 PM"
      },
      {
        "day": "Tuesday",
        "hours": "9:30 AM to 7:30 PM"
      },
      {
        "day": "Wednesday",
        "hours": "9:30 AM to 2 PM"
      },
      {
        "day": "Thursday",
        "hours": "9:30 AM to 7:30 PM"
      },
      {
        "day": "Friday",
        "hours": "9:30 AM to 7:30 PM"
      },
      {
        "day": "Saturday",
        "hours": "9:30 AM to 7:30 PM"
      },
      {
        "day": "Sunday",
        "hours": "9:30 AM to 7:30 PM"
      }
    ],
    "imageUrl": "https://lh3.googleusercontent.com/p/AF1QipPIGzwpwgxlDyv6JCLnhR_ZGWkENCl2OEve1a5U=w408-h1111-k-no",
    "url": "https://www.google.com/maps/search/?api=1&query=BEST%20MOTORS&query_place_id=ChIJz1zC-o4EDTkR8Fq6mFdNhcg"
  },
  {
    "title": "BIHAR MOTORS Auto broker in Delhi",
    "subTitle": "बिहार मोटर्स ऑटो ब्रोकर इन दिल्ली",
    "categoryName": "Used car dealer",
    "address": "R71 Sai Baba Mandir, Nala Rd, Vikas Nagar, Uttam Nagar, Vikaspuri, Delhi, 110059, India",
    "neighborhood": "Vikas Nagar, Uttam Nagar, Vikaspuri",
    "street": "R71 Sai Baba Mandir, Nala Rd",
    "city": "Delhi",
    "postalCode": "110059",
    "state": "Delhi",
    "countryCode": "IN",
    "location": {
      "lat": 28.6497416,
      "lng": 77.044134
    },
    "totalScore": 5,
    "permanentlyClosed": false,
    "temporarilyClosed": false,
    "placeId": "ChIJEXtDFwEFDTkR5ggtu_C72uM",
    "categories": [
      "Used car dealer"
    ],
    "reviewsCount": 35,
    "imagesCount": 67,
    "openingHours": [
      {
        "day": "Monday",
        "hours": "12 to 8:30 AM"
      },
      {
        "day": "Tuesday",
        "hours": "9:30 AM to 12 AM"
      },
      {
        "day": "Wednesday",
        "hours": "12 to 8:30 AM, 9 AM to 12 AM"
      },
      {
        "day": "Thursday",
        "hours": "12 to 8:30 AM, 9 AM to 12 AM"
      },
      {
        "day": "Friday",
        "hours": "12 to 8:30 AM, 9 AM to 12 AM"
      },
      {
        "day": "Saturday",
        "hours": "12 to 8:30 AM, 9 AM to 12 AM"
      },
      {
        "day": "Sunday",
        "hours": "12 to 8:30 AM, 9 AM to 12 AM"
      }
    ],
    "imageUrl": "https://lh3.googleusercontent.com/gps-cs-s/AG0ilSxoyv0ReJFDlercb1BCaHbMqEWerCjOWJitT6kHpOLyZvFZfhp3jLvADngspeHwtj9lY_YO8cjFrVGuOiiU7A7ETrOvS2Jtl-fdMzJmQSmVkkCzEpackw8vMFmXqOIwpZ6EtZA=w408-h306-k-no",
    "url": "https://www.google.com/maps/search/?api=1&query=BIHAR%20MOTORS%20Auto%20broker%20in%20Delhi&query_place_id=ChIJEXtDFwEFDTkR5ggtu_C72uM"
  },
  {
    "title": "Bimmer Luxury Car on Rent for Wedding - Vintage Car on Rent - BMW, Mercedes Benz on Rent Delhi, Gurgaon",
    "subTitle": "बिम्मर लक्जरी कार ऑन रेंट फॉर वेडिंग - विंटेज कार ऑन रेंट - बीएमडब्ल्यू, मर्सिडीज़ बेंज ऑन रेंट दिल्ली, गुड़गांव",
    "categoryName": "Car rental agency",
    "address": "689, Pocket E, Mayur Vihar Phase II, Mayur Vihar, Delhi, 110091, India",
    "neighborhood": "Pocket E, Mayur Vihar Phase II, Mayur Vihar",
    "street": "689",
    "city": "Delhi",
    "postalCode": "110091",
    "state": "Delhi",
    "countryCode": "IN",
    "website": "https://bimmercarrental.com/",
    "phone": "+919999999116",
    "phoneUnformatted": "+919999999116",
    "location": {
      "lat": 28.61734,
      "lng": 77.297117
    },
    "totalScore": 4.9,
    "permanentlyClosed": false,
    "temporarilyClosed": false,
    "placeId": "ChIJ66qqqrvkDDkRFnd_tV-JstQ",
    "categories": [
      "Car rental agency",
      "Car leasing service"
    ],
    "reviewsCount": 37,
    "imagesCount": 110,
    "openingHours": [
      {
        "day": "Monday",
        "hours": "Open 24 hours"
      },
      {
        "day": "Tuesday",
        "hours": "Open 24 hours"
      },
      {
        "day": "Wednesday",
        "hours": "Open 24 hours"
      },
      {
        "day": "Thursday",
        "hours": "Open 24 hours"
      },
      {
        "day": "Friday",
        "hours": "Open 24 hours"
      },
      {
        "day": "Saturday",
        "hours": "Open 24 hours"
      },
      {
        "day": "Sunday",
        "hours": "Open 24 hours"
      }
    ],
    "imageUrl": "https://lh3.googleusercontent.com/p/AF1QipO4S3wDIAor_ads6Bg-DDhrwsblwqrv8AlH7qmZ=w459-h240-k-no",
    "url": "https://www.google.com/maps/search/?api=1&query=Bimmer%20Luxury%20Car%20on%20Rent%20for%20Wedding%20-%20Vintage%20Car%20on%20Rent%20-%20BMW%2C%20Mercedes%20Benz%20on%20Rent%20Delhi%2C%20Gurgaon&query_place_id=ChIJ66qqqrvkDDkRFnd_tV-JstQ"
  },
  {
    "title": "Car Emporio. Pre-Owned Luxury Cars Showroom",
    "subTitle": "कार एंपोरियो. प्री-ओन्ड लक्जरी कार्स शोरूम",
    "categoryName": "Car dealer",
    "address": "Ground Floor, Gate No 3, Metro Station, 9, Pankha Rd, near Dabri, Block E, Sitapuri Part 1, Sitapuri, Delhi, 110059, India",
    "neighborhood": "Block E, Sitapuri Part 1, Sitapuri",
    "street": "Ground Floor, Gate No 3, Metro Station, 9, Pankha Rd, near Dabri",
    "city": "Delhi",
    "postalCode": "110059",
    "state": "Delhi",
    "countryCode": "IN",
    "website": "https://www.caremporio.in/",
    "phone": "+918069229743",
    "phoneUnformatted": "+918069229743",
    "location": {
      "lat": 28.6149025,
      "lng": 77.0831333
    },
    "totalScore": 5,
    "permanentlyClosed": false,
    "temporarilyClosed": false,
    "placeId": "ChIJFfrq8vYFDTkRLstKbT4vmE4",
    "categories": [
      "Car dealer",
      "Audi dealer",
      "BMW dealer",
      "Mercedes-Benz dealer"
    ],
    "reviewsCount": 29,
    "imagesCount": 14,
    "openingHours": [
      {
        "day": "Monday",
        "hours": "10 AM to 8 PM"
      },
      {
        "day": "Tuesday",
        "hours": "10 AM to 8 PM"
      },
      {
        "day": "Wednesday",
        "hours": "10 AM to 8 PM"
      },
      {
        "day": "Thursday",
        "hours": "10 AM to 8 PM"
      },
      {
        "day": "Friday",
        "hours": "10 AM to 8 PM"
      },
      {
        "day": "Saturday",
        "hours": "10 AM to 8 PM"
      },
      {
        "day": "Sunday",
        "hours": "10 AM to 8 PM"
      }
    ],
    "imageUrl": "https://lh3.googleusercontent.com/gps-cs-s/AG0ilSyhWhxmvv7_ACQxy-PgfF1CGQjx_m20_q_FzuSZylWIwwauyKQY_MEmm9zeZQYUf5sMXxOCZfse6K-f_MQQ8ZEuAO8mgEgCQ5TbkjgiCqcpt9wfRl3wAKgVpWaxTEHA9npwtiLILA=w408-h306-k-no",
    "url": "https://www.google.com/maps/search/?api=1&query=Car%20Emporio.%20Pre-Owned%20Luxury%20Cars%20Showroom&query_place_id=ChIJFfrq8vYFDTkRLstKbT4vmE4"
  },
  {
    "title": "Car Galaxy Point",
    "subTitle": "कार गैलेक्सी पॉइंट",
    "categoryName": "Used car dealer",
    "address": "Nathupura Road, 100, 25 Feet Rd, Amrit Vihar, Burari, Delhi, 110084, India",
    "neighborhood": "Amrit Vihar, A Block, Shankarpura, Burari",
    "street": "Nathupura Road, 100, 25 Feet Rd",
    "city": "Delhi",
    "postalCode": "110084",
    "state": "Delhi",
    "countryCode": "IN",
    "phone": "+919873303818",
    "phoneUnformatted": "+919873303818",
    "location": {
      "lat": 28.7624019,
      "lng": 77.1857278
    },
    "totalScore": 4.5,
    "permanentlyClosed": false,
    "temporarilyClosed": false,
    "placeId": "ChIJk8axW98BDTkRAi-98a7Gpaw",
    "categories": [
      "Used car dealer"
    ],
    "reviewsCount": 32,
    "imagesCount": 575,
    "openingHours": [
      {
        "day": "Monday",
        "hours": "Closed"
      },
      {
        "day": "Tuesday",
        "hours": "10 AM to 8 PM"
      },
      {
        "day": "Wednesday",
        "hours": "10 AM to 8 PM"
      },
      {
        "day": "Thursday",
        "hours": "10 AM to 8 PM"
      },
      {
        "day": "Friday",
        "hours": "10 AM to 8 PM"
      },
      {
        "day": "Saturday",
        "hours": "10 AM to 8 PM"
      },
      {
        "day": "Sunday",
        "hours": "10 AM to 8 PM"
      }
    ],
    "imageUrl": "https://lh3.googleusercontent.com/p/AF1QipOnj-RDOxg_r8IPTx5dwuJj8k1Sq2cM53mSRJe3=w408-h306-k-no",
    "url": "https://www.google.com/maps/search/?api=1&query=Car%20Galaxy%20Point&query_place_id=ChIJk8axW98BDTkRAi-98a7Gpaw"
  },
  {
    "title": "CAR STREET DELHI",
    "subTitle": "कार स्ट्रीट दिल्ली",
    "categoryName": "Car dealer",
    "address": "J5QP+27C, Goswami Girdhari Lal Marg, Block E, Naraina Vihar, Naraina, Delhi, 110060, India",
    "neighborhood": "Block E, Naraina Vihar, Naraina",
    "street": "J5QP+27C, Goswami Girdhari Lal Marg",
    "city": "Delhi",
    "postalCode": "110060",
    "state": "Delhi",
    "countryCode": "IN",
    "website": "https://www.carstreetindia.com/",
    "phone": "+919716381138",
    "phoneUnformatted": "+919716381138",
    "location": {
      "lat": 28.6375554,
      "lng": 77.1856334
    },
    "totalScore": 4.6,
    "permanentlyClosed": false,
    "temporarilyClosed": false,
    "placeId": "ChIJ2RMXMSUDDTkR5gzXQC6YQJo",
    "categories": [
      "Car dealer"
    ],
    "reviewsCount": 18,
    "imagesCount": 3,
    "openingHours": [
      {
        "day": "Monday",
        "hours": "10 AM to 8 PM"
      },
      {
        "day": "Tuesday",
        "hours": "10 AM to 8 PM"
      },
      {
        "day": "Wednesday",
        "hours": "10 AM to 8 PM"
      },
      {
        "day": "Thursday",
        "hours": "10 AM to 8 PM"
      },
      {
        "day": "Friday",
        "hours": "10 AM to 8 PM"
      },
      {
        "day": "Saturday",
        "hours": "10 AM to 8 PM"
      },
      {
        "day": "Sunday",
        "hours": "10 AM to 8 PM"
      }
    ],
    "imageUrl": "https://lh3.googleusercontent.com/gps-cs-s/AG0ilSyEUU7J5CUCUprCGMXNqp23n4cFxpBjfltQZ2A8GH3DHlajeAjbeorzvUneJuzBD9VzHnCBCIPaqBsd1uFr6sBdj8bZ_GHZMlxqjJ3VZVlCQlIdVpzJyJZBR7C4htG1c167K197eQ=w426-h240-k-no",
    "url": "https://www.google.com/maps/search/?api=1&query=CAR%20STREET%20DELHI&query_place_id=ChIJ2RMXMSUDDTkR5gzXQC6YQJo"
  },
  {
    "title": "Car Vyapar Luxury used car showroom",
    "subTitle": "कार व्यापार लक्जरी यूज्ड कार शोरूम",
    "categoryName": "Used car dealer",
    "address": "33, Street Number 8, Shiv Puri, Block RZ, Sitapuri Part 1, Sitapuri, Delhi, 110059, India",
    "neighborhood": "Shiv Puri, Block RZ, Sitapuri Part 1, Sitapuri",
    "street": "33, Street Number 8",
    "city": "Delhi",
    "postalCode": "110059",
    "state": "Delhi",
    "countryCode": "IN",
    "website": "https://carvyapar.com/",
    "phone": "+918882310155",
    "phoneUnformatted": "+918882310155",
    "location": {
      "lat": 28.6142671,
      "lng": 77.0839828
    },
    "totalScore": 4.8,
    "permanentlyClosed": false,
    "temporarilyClosed": false,
    "placeId": "ChIJ883ZKwAFDTkRgQ4ycg1G3HY",
    "categories": [
      "Used car dealer"
    ],
    "reviewsCount": 12,
    "imagesCount": 60,
    "openingHours": [
      {
        "day": "Monday",
        "hours": "10 AM to 9 PM"
      },
      {
        "day": "Tuesday",
        "hours": "10 AM to 9 PM"
      },
      {
        "day": "Wednesday",
        "hours": "10 AM to 9 PM"
      },
      {
        "day": "Thursday",
        "hours": "10 AM to 9 PM"
      },
      {
        "day": "Friday",
        "hours": "10 AM to 9 PM"
      },
      {
        "day": "Saturday",
        "hours": "10 AM to 9 PM"
      },
      {
        "day": "Sunday",
        "hours": "10 AM to 9 PM"
      }
    ],
    "imageUrl": "https://lh3.googleusercontent.com/p/AF1QipP6hEcR1j05xiOVyTXR1CUGE9wjHLG_LIvSgj7M=w408-h544-k-no",
    "url": "https://www.google.com/maps/search/?api=1&query=Car%20Vyapar%20Luxury%20used%20car%20showroom&query_place_id=ChIJ883ZKwAFDTkRgQ4ycg1G3HY"
  },
  {
    "title": "Carplex",
    "subTitle": "कार्प्लेक्स",
    "categoryName": "Car dealer",
    "address": "G-6/10 Sikka Complex, Preet Vihar, Delhi, 110092, India",
    "neighborhood": "C Block, Preet Vihar",
    "street": "G-6/10 Sikka Complex",
    "city": "Delhi",
    "postalCode": "110092",
    "state": "Delhi",
    "countryCode": "IN",
    "phone": "+918700866341",
    "phoneUnformatted": "+918700866341",
    "location": {
      "lat": 28.6396454,
      "lng": 77.2948045
    },
    "totalScore": 4.5,
    "permanentlyClosed": false,
    "temporarilyClosed": false,
    "placeId": "ChIJTYx4m_v7DDkRkd7iOikJCc0",
    "categories": [
      "Car dealer"
    ],
    "reviewsCount": 6,
    "imagesCount": 22,
    "openingHours": [
      {
        "day": "Monday",
        "hours": "10:30 AM to 8 PM"
      },
      {
        "day": "Tuesday",
        "hours": "10:30 AM to 8 PM"
      },
      {
        "day": "Wednesday",
        "hours": "10:30 AM to 8 PM"
      },
      {
        "day": "Thursday",
        "hours": "10:30 AM to 8 PM"
      },
      {
        "day": "Friday",
        "hours": "10:30 AM to 8 PM"
      },
      {
        "day": "Saturday",
        "hours": "10:30 AM to 8 PM"
      },
      {
        "day": "Sunday",
        "hours": "9 AM to 9 PM"
      }
    ],
    "imageUrl": "https://lh3.googleusercontent.com/p/AF1QipPDQaKDLInZPDS4cRKD7iJ9TUvuYexPbxjP6qtD=w653-h240-k-no",
    "url": "https://www.google.com/maps/search/?api=1&query=Carplex&query_place_id=ChIJTYx4m_v7DDkRkd7iOikJCc0"
  },
  {
    "title": "Cars 4 U",
    "subTitle": "कार्स 4 उ",
    "categoryName": "Car dealer",
    "address": "11 Y, Paprawat Rd, Roshanpura, Najafgarh, Delhi, 110043, India",
    "neighborhood": "Roshanpura, Najafgarh",
    "street": "11 Y, Paprawat Rd",
    "city": "Delhi",
    "postalCode": "110043",
    "state": "Delhi",
    "countryCode": "IN",
    "location": {
      "lat": 28.6034694,
      "lng": 76.9835256
    },
    "totalScore": 4.8,
    "permanentlyClosed": false,
    "temporarilyClosed": false,
    "placeId": "ChIJud-ii2kPDTkREabLW4WBtzk",
    "categories": [
      "Car dealer"
    ],
    "reviewsCount": 9,
    "imagesCount": 13,
    "openingHours": [
      {
        "day": "Monday",
        "hours": "10 AM to 12 AM"
      },
      {
        "day": "Tuesday",
        "hours": "12 to 7:30 AM, 10 AM to 6:30 PM"
      },
      {
        "day": "Wednesday",
        "hours": "10 AM to 6:30 PM"
      },
      {
        "day": "Thursday",
        "hours": "10 AM to 6:30 PM"
      },
      {
        "day": "Friday",
        "hours": "10 AM to 6:30 PM"
      },
      {
        "day": "Saturday",
        "hours": "10:30 AM to 7 PM"
      },
      {
        "day": "Sunday",
        "hours": "11 AM to 5 PM"
      }
    ],
    "imageUrl": "https://lh3.googleusercontent.com/p/AF1QipNQtVItVO4Gq5LUMrebR6pK57U_1VPkBtsZtFlf=w408-h544-k-no",
    "url": "https://www.google.com/maps/search/?api=1&query=Cars%204%20U&query_place_id=ChIJud-ii2kPDTkREabLW4WBtzk"
  },
  {
    "title": "CARS24 - Buy, Sell, Finance Used Cars in Rohini, Delhi",
    "subTitle": "कार्स24 हब - बाय, सेल, फाइनेंस यूज़्ड कार्स इन रोहिणी, नई दिल्ली",
    "categoryName": "Used car dealer",
    "address": "Gate no. 4, Ground, Metro walk, Parking, Swarn Jayanti Park, Sector 10, Rohini, Delhi, 110085, India",
    "neighborhood": "Swarn Jayanti Park, Sector 10, Rohini",
    "street": "Gate no. 4, Ground, Metro walk, Parking",
    "city": "Delhi",
    "postalCode": "110085",
    "state": "Delhi",
    "countryCode": "IN",
    "website": "https://www.cars24.com/",
    "phone": "+918929759586",
    "phoneUnformatted": "+918929759586",
    "location": {
      "lat": 28.7228792,
      "lng": 77.1108368
    },
    "totalScore": 4.7,
    "permanentlyClosed": false,
    "temporarilyClosed": false,
    "placeId": "ChIJhcY2upkBDTkRa-1OS4z-34Q",
    "categories": [
      "Used car dealer",
      "Audi dealer",
      "BMW dealer",
      "Car finance and loan company",
      "Honda dealer",
      "Hyundai dealer",
      "Jeep dealer",
      "Kia dealer",
      "Suzuki dealer",
      "Toyota dealer"
    ],
    "reviewsCount": 1679,
    "imagesCount": 451,
    "openingHours": [
      {
        "day": "Monday",
        "hours": "11 AM to 8 PM"
      },
      {
        "day": "Tuesday",
        "hours": "11 AM to 8 PM"
      },
      {
        "day": "Wednesday",
        "hours": "11 AM to 8 PM"
      },
      {
        "day": "Thursday",
        "hours": "11 AM to 8 PM"
      },
      {
        "day": "Friday",
        "hours": "11 AM to 8 PM"
      },
      {
        "day": "Saturday",
        "hours": "11 AM to 8 PM"
      },
      {
        "day": "Sunday",
        "hours": "11 AM to 8 PM"
      }
    ],
    "imageUrl": "https://lh3.googleusercontent.com/p/AF1QipPKjsIGvkeBN5ZYNXmyMTT7jwbmr8Br7CGL9ZNl=w408-h306-k-no",
    "url": "https://www.google.com/maps/search/?api=1&query=CARS24%20-%20Buy%2C%20Sell%2C%20Finance%20Used%20Cars%20in%20Rohini%2C%20Delhi&query_place_id=ChIJhcY2upkBDTkRa-1OS4z-34Q"
  },
  {
    "title": "CARS24 - Sell Used Cars in Rajouri Garden, Delhi",
    "subTitle": "कार्स24 - सेल यूज्ड कार्स इन राजौरी गार्डन, दिल्ली",
    "categoryName": "Used car dealer",
    "address": "Shivaji Marg, near Rajouri Garden, Block J, Rajouri Garden, Delhi, 110027, India",
    "neighborhood": "Block J, Rajouri Garden",
    "street": "Shivaji Marg, near Rajouri Garden",
    "city": "Delhi",
    "postalCode": "110027",
    "state": "Delhi",
    "countryCode": "IN",
    "website": "https://www.cars24.com/",
    "phone": "+918929759586",
    "phoneUnformatted": "+918929759586",
    "location": {
      "lat": 28.6481286,
      "lng": 77.1202372
    },
    "totalScore": 4.3,
    "permanentlyClosed": false,
    "temporarilyClosed": false,
    "placeId": "ChIJHXu-8a4DDTkR39CYF8AvdZY",
    "categories": [
      "Used car dealer",
      "Audi dealer",
      "BMW dealer",
      "Car finance and loan company",
      "Honda dealer",
      "Hyundai dealer",
      "Jeep dealer",
      "Kia dealer",
      "Suzuki dealer",
      "Toyota dealer"
    ],
    "reviewsCount": 50,
    "imagesCount": 124,
    "openingHours": [
      {
        "day": "Monday",
        "hours": "9:30 AM to 6:30 PM"
      },
      {
        "day": "Tuesday",
        "hours": "9:30 AM to 6:30 PM"
      },
      {
        "day": "Wednesday",
        "hours": "9:30 AM to 6:30 PM"
      },
      {
        "day": "Thursday",
        "hours": "9:30 AM to 6:30 PM"
      },
      {
        "day": "Friday",
        "hours": "9:30 AM to 6:30 PM"
      },
      {
        "day": "Saturday",
        "hours": "9:30 AM to 6:30 PM"
      },
      {
        "day": "Sunday",
        "hours": "9:30 AM to 6:30 PM"
      }
    ],
    "imageUrl": "https://lh3.googleusercontent.com/p/AF1QipM3iuDvhv2q1KbM863f1E3i4ehrTWN4Xt9MGIMR=w408-h279-k-no",
    "url": "https://www.google.com/maps/search/?api=1&query=CARS24%20-%20Sell%20Used%20Cars%20in%20Rajouri%20Garden%2C%20Delhi&query_place_id=ChIJHXu-8a4DDTkR39CYF8AvdZY"
  },
  {
    "title": "CarWale abSure Kinship Automobiles",
    "subTitle": "करवाले एब्सर किंशिप ऑटोमोबिल्स",
    "categoryName": "Used car dealer",
    "address": "C1, 98, opposite CNG Station, Pocket 1, Sector 11, Rohini, Delhi, 110085, India",
    "neighborhood": "Pocket 1, Sector 11, Rohini",
    "street": "C1, 98, opposite CNG Station",
    "city": "Delhi",
    "postalCode": "110085",
    "state": "Delhi",
    "countryCode": "IN",
    "phone": "+919871448606",
    "phoneUnformatted": "+919871448606",
    "location": {
      "lat": 28.7313005,
      "lng": 77.1176902
    },
    "totalScore": 5,
    "permanentlyClosed": false,
    "temporarilyClosed": false,
    "placeId": "ChIJEej-OV4BDTkRv72NueDgtmw",
    "categories": [
      "Used car dealer",
      "Auto broker",
      "Car dealer",
      "Second hand store"
    ],
    "reviewsCount": 322,
    "imagesCount": 1023,
    "openingHours": [
      {
        "day": "Monday",
        "hours": "10 AM to 7 PM"
      },
      {
        "day": "Tuesday",
        "hours": "10 AM to 7 PM"
      },
      {
        "day": "Wednesday",
        "hours": "10 AM to 7 PM"
      },
      {
        "day": "Thursday",
        "hours": "11 AM to 7 PM"
      },
      {
        "day": "Friday",
        "hours": "10 AM to 7 PM"
      },
      {
        "day": "Saturday",
        "hours": "10 AM to 7 PM"
      },
      {
        "day": "Sunday",
        "hours": "10 AM to 7 PM"
      }
    ],
    "imageUrl": "https://lh3.googleusercontent.com/p/AF1QipN9Ecucbs-E42N1b_X_B0BrkGdvOoYoHoXQoLyp=w408-h297-k-no",
    "url": "https://www.google.com/maps/search/?api=1&query=CarWale%20abSure%20Kinship%20Automobiles&query_place_id=ChIJEej-OV4BDTkRv72NueDgtmw"
  },
  {
    "title": "Cherish Cars | Used Car Dealer In Delhi",
    "subTitle": "चेरिश कार्स | यूज्ड कार डीलर इन दिल्ली",
    "categoryName": "Used car dealer",
    "address": "G 37-38, Pearls Omaxe Tower, beside Bikanerwala, Netaji Subhash Place, Pitampura, Delhi, 110034, India",
    "neighborhood": "Netaji Subhash Place, Pitampura",
    "street": "G 37-38, Pearls Omaxe Tower, beside Bikanerwala",
    "city": "Delhi",
    "postalCode": "110034",
    "state": "Delhi",
    "countryCode": "IN",
    "website": "http://cherishcars.com/",
    "phone": "+917290011011",
    "phoneUnformatted": "+917290011011",
    "location": {
      "lat": 28.6905841,
      "lng": 77.1517968
    },
    "totalScore": 4.6,
    "permanentlyClosed": false,
    "temporarilyClosed": false,
    "placeId": "ChIJ7U5EO-YDDTkR3rKsuL9iplk",
    "categories": [
      "Used car dealer",
      "Car dealer"
    ],
    "reviewsCount": 560,
    "imagesCount": 202,
    "openingHours": [
      {
        "day": "Monday",
        "hours": "10 AM to 7:30 PM"
      },
      {
        "day": "Tuesday",
        "hours": "10 AM to 7:30 PM"
      },
      {
        "day": "Wednesday",
        "hours": "10 AM to 7:30 PM"
      },
      {
        "day": "Thursday",
        "hours": "10 AM to 7:30 PM"
      },
      {
        "day": "Friday",
        "hours": "10 AM to 7:30 PM"
      },
      {
        "day": "Saturday",
        "hours": "10 AM to 7:30 PM"
      },
      {
        "day": "Sunday",
        "hours": "10 AM to 7:30 PM"
      }
    ],
    "imageUrl": "https://lh3.googleusercontent.com/p/AF1QipOV_vxIBDgE5lUtfaVtHw4qh0dYK7keURulCUv8=w408-h306-k-no",
    "url": "https://www.google.com/maps/search/?api=1&query=Cherish%20Cars%20%7C%20Used%20Car%20Dealer%20In%20Delhi&query_place_id=ChIJ7U5EO-YDDTkR3rKsuL9iplk"
  },
  {
    "title": "Crown Cars & Super Bikes.",
    "subTitle": "क्राउन कार्स & सुपर बाइक्स.",
    "categoryName": "Car dealer",
    "address": "Lal Sai Marg, Block C2B, Janakpuri, Delhi, 110058, India",
    "neighborhood": "Block C2B, Janakpuri",
    "street": "Lal Sai Marg",
    "city": "Delhi",
    "postalCode": "110058",
    "state": "Delhi",
    "countryCode": "IN",
    "phone": "+919810159189",
    "phoneUnformatted": "+919810159189",
    "location": {
      "lat": 28.6217144,
      "lng": 77.0886072
    },
    "totalScore": 3.6,
    "permanentlyClosed": false,
    "temporarilyClosed": false,
    "placeId": "ChIJKblorCoFDTkRQMWjOeFGNXo",
    "categories": [
      "Car dealer"
    ],
    "reviewsCount": 9,
    "imagesCount": 22,
    "openingHours": [
      {
        "day": "Monday",
        "hours": "10 AM to 7 PM"
      },
      {
        "day": "Tuesday",
        "hours": "10 AM to 7 PM"
      },
      {
        "day": "Wednesday",
        "hours": "11 AM to 5 PM"
      },
      {
        "day": "Thursday",
        "hours": "10 AM to 7 PM"
      },
      {
        "day": "Friday",
        "hours": "10 AM to 7 PM"
      },
      {
        "day": "Saturday",
        "hours": "10 AM to 7 PM"
      },
      {
        "day": "Sunday",
        "hours": "10 AM to 7 PM"
      }
    ],
    "imageUrl": "https://lh3.googleusercontent.com/gps-cs-s/AG0ilSwgkJESFkTqbaF60aCU-s-XGAdlIPy54ejwEWnyx79kojx6dRnfhMi61W_zhMjn2ECmiekmD7lrgdb7ONNZzBdlGksnV0w2RU3kDeRZFqwPMf8Lib-rjmp5REIYbsknc63gOpXh=w408-h306-k-no",
    "url": "https://www.google.com/maps/search/?api=1&query=Crown%20Cars%20%26%20Super%20Bikes.&query_place_id=ChIJKblorCoFDTkRQMWjOeFGNXo"
  },
  {
    "title": "Deepak Motors",
    "subTitle": "दीपक मोटर्स",
    "categoryName": "Used car dealer",
    "address": "L-2/105, Outer Ring Rd, opposite Arya Samaj Mandir, New Mahavir Nagar, Vikaspuri, Delhi, 110018, India",
    "neighborhood": "New Mahavir Nagar, Vikaspuri",
    "street": "L-2/105, Outer Ring Rd, opposite Arya Samaj Mandir",
    "city": "Delhi",
    "postalCode": "110018",
    "state": "Delhi",
    "countryCode": "IN",
    "website": "http://deepakmotors.co.in/",
    "phone": "+919811165050",
    "phoneUnformatted": "+919811165050",
    "location": {
      "lat": 28.6365233,
      "lng": 77.081204
    },
    "totalScore": 4.5,
    "permanentlyClosed": false,
    "temporarilyClosed": false,
    "placeId": "ChIJ3Q9eQZIEDTkRyRxGRq_EXPQ",
    "categories": [
      "Used car dealer"
    ],
    "reviewsCount": 101,
    "imagesCount": 171,
    "openingHours": [
      {
        "day": "Monday",
        "hours": "10:30 AM to 8 PM"
      },
      {
        "day": "Tuesday",
        "hours": "10:30 AM to 8 PM"
      },
      {
        "day": "Wednesday",
        "hours": "11:30 AM to 3 PM"
      },
      {
        "day": "Thursday",
        "hours": "10:30 AM to 8 PM"
      },
      {
        "day": "Friday",
        "hours": "10:30 AM to 8 PM"
      },
      {
        "day": "Saturday",
        "hours": "10:30 AM to 8 PM"
      },
      {
        "day": "Sunday",
        "hours": "10:30 AM to 8 PM"
      }
    ],
    "imageUrl": "https://lh3.googleusercontent.com/p/AF1QipMMH1m1zDiO0BngXi6Pae0XESTPHdquB5Bo3hxt=w408-h544-k-no",
    "url": "https://www.google.com/maps/search/?api=1&query=Deepak%20Motors&query_place_id=ChIJ3Q9eQZIEDTkRyRxGRq_EXPQ"
  },
  {
    "title": "Delhi Unlocked",
    "subTitle": "दिल्ली अनलॉक्ड",
    "categoryName": "Car rental agency",
    "address": "RZF-762/22, Gali No-5, Raj nagar, ll, Palam, Delhi, 110077, India",
    "neighborhood": "Dev Kunj, Block F, ll, Palam",
    "street": "RZF-762/22, Gali No-5, Raj nagar",
    "city": "Delhi",
    "postalCode": "110077",
    "state": "Delhi",
    "countryCode": "IN",
    "website": "https://delhiunlocked.com/",
    "phone": "+919540242808",
    "phoneUnformatted": "+919540242808",
    "location": {
      "lat": 28.5747381,
      "lng": 77.0815135
    },
    "totalScore": 5,
    "permanentlyClosed": false,
    "temporarilyClosed": false,
    "placeId": "ChIJQ_p7fh1YX0URgyDA3MVKFKg",
    "categories": [
      "Car rental agency"
    ],
    "reviewsCount": 45,
    "imagesCount": 2,
    "openingHours": [
      {
        "day": "Monday",
        "hours": "Open 24 hours"
      },
      {
        "day": "Tuesday",
        "hours": "Open 24 hours"
      },
      {
        "day": "Wednesday",
        "hours": "Open 24 hours"
      },
      {
        "day": "Thursday",
        "hours": "Open 24 hours"
      },
      {
        "day": "Friday",
        "hours": "Open 24 hours"
      },
      {
        "day": "Saturday",
        "hours": "Open 24 hours"
      },
      {
        "day": "Sunday",
        "hours": "Open 24 hours"
      }
    ],
    "imageUrl": "https://lh3.googleusercontent.com/p/AF1QipPPOGNRU6QFyp-kog-ul8Km1RueOo1y-szxiwt3=w408-h408-k-no",
    "url": "https://www.google.com/maps/search/?api=1&query=Delhi%20Unlocked&query_place_id=ChIJQ_p7fh1YX0URgyDA3MVKFKg"
  },
  {
    "title": "DG MOTOR AND PROPERTY - Used Car Dealer In Sector 3 Rohini - Secondhand Car Dealer In Sector 3 Rohini",
    "subTitle": "डीजी क्रेडिट",
    "categoryName": "Car dealer",
    "address": "G-26/142, Pocket 26, Sector 3, Rohini, Delhi, 110085, India",
    "neighborhood": "Pocket 26, Sector 3, Rohini",
    "street": "G-26/142",
    "city": "Delhi",
    "postalCode": "110085",
    "state": "Delhi",
    "countryCode": "IN",
    "phone": "+919717248398",
    "phoneUnformatted": "+919717248398",
    "location": {
      "lat": 28.702981,
      "lng": 77.104364
    },
    "totalScore": 4.9,
    "permanentlyClosed": false,
    "temporarilyClosed": false,
    "placeId": "ChIJsQOxz_8DDTkRkakj48XA7Qk",
    "categories": [
      "Car dealer",
      "Auto broker",
      "Car finance and loan company",
      "Insurance broker",
      "Real estate consultant",
      "Real estate rental agency"
    ],
    "reviewsCount": 174,
    "imagesCount": 182,
    "openingHours": [
      {
        "day": "Monday",
        "hours": "11 AM to 8 PM"
      },
      {
        "day": "Tuesday",
        "hours": "11 AM to 8 PM"
      },
      {
        "day": "Wednesday",
        "hours": "11 AM to 8 PM"
      },
      {
        "day": "Thursday",
        "hours": "11 AM to 8 PM"
      },
      {
        "day": "Friday",
        "hours": "11 AM to 8 PM"
      },
      {
        "day": "Saturday",
        "hours": "11 AM to 8 PM"
      },
      {
        "day": "Sunday",
        "hours": "11 AM to 8 PM"
      }
    ],
    "imageUrl": "https://lh3.googleusercontent.com/p/AF1QipNoRN81h7iUnFyoOAlZ84jJba4lWjPc4JhYPJg=w408-h543-k-no",
    "url": "https://www.google.com/maps/search/?api=1&query=DG%20MOTOR%20AND%20PROPERTY%20-%20Used%20Car%20Dealer%20In%20Sector%203%20Rohini%20-%20Secondhand%20Car%20Dealer%20In%20Sector%203%20Rohini&query_place_id=ChIJsQOxz_8DDTkRkakj48XA7Qk"
  },
  {
    "title": "Dia Motors",
    "subTitle": "दिया मोटर्स",
    "categoryName": "Car dealer",
    "address": "F2-53, Kotla Rd, Pocket F2, Pocket 1, Sector 11F, Rohini, Delhi, 110085, India",
    "neighborhood": "Pocket F2, Pocket 1, Sector 11F, Rohini",
    "street": "F2-53, Kotla Rd",
    "city": "Delhi",
    "postalCode": "110085",
    "state": "Delhi",
    "countryCode": "IN",
    "website": "http://www.diamotorsdelhi.com/",
    "phone": "+919870246869",
    "phoneUnformatted": "+919870246869",
    "location": {
      "lat": 28.7324538,
      "lng": 77.1071773
    },
    "totalScore": 4.3,
    "permanentlyClosed": false,
    "temporarilyClosed": false,
    "placeId": "ChIJ2_8bSB4BDTkRFfPVkLYCGbU",
    "categories": [
      "Car dealer"
    ],
    "reviewsCount": 109,
    "imagesCount": 21,
    "openingHours": [
      {
        "day": "Monday",
        "hours": "10 AM to 7 PM"
      },
      {
        "day": "Tuesday",
        "hours": "10 AM to 7 PM"
      },
      {
        "day": "Wednesday",
        "hours": "10 AM to 7 PM"
      },
      {
        "day": "Thursday",
        "hours": "10 AM to 7 PM"
      },
      {
        "day": "Friday",
        "hours": "10 AM to 7 PM"
      },
      {
        "day": "Saturday",
        "hours": "10 AM to 7 PM"
      },
      {
        "day": "Sunday",
        "hours": "10 AM to 7 PM"
      }
    ],
    "imageUrl": "https://lh3.googleusercontent.com/p/AF1QipNpRiAVAq2XuRu8x9N9Bgh86FJE-_uxwQA6zkFk=w408-h544-k-no",
    "url": "https://www.google.com/maps/search/?api=1&query=Dia%20Motors&query_place_id=ChIJ2_8bSB4BDTkRFfPVkLYCGbU"
  },
  {
    "title": "Dwarka Motors",
    "subTitle": "द्वारका मोटर्स",
    "categoryName": "Used car dealer",
    "address": "Vardhaman Prakash Plaza, near HDFC Bank, Sector 20 Dwarka, Dwarka, Delhi, 110075, India",
    "neighborhood": "Sector 20 Dwarka, Dwarka",
    "street": "Vardhaman Prakash Plaza, near HDFC Bank",
    "city": "Delhi",
    "postalCode": "110075",
    "state": "Delhi",
    "countryCode": "IN",
    "website": "https://dwarkamotors.com/",
    "phone": "+919953800008",
    "phoneUnformatted": "+919953800008",
    "location": {
      "lat": 28.5679299,
      "lng": 77.0626478
    },
    "totalScore": 4.6,
    "permanentlyClosed": false,
    "temporarilyClosed": false,
    "placeId": "ChIJpVfosPMbDTkRXvZ1C8qw4wc",
    "categories": [
      "Used car dealer"
    ],
    "reviewsCount": 56,
    "imagesCount": 35,
    "openingHours": [
      {
        "day": "Monday",
        "hours": "10:30 AM to 8 PM"
      },
      {
        "day": "Tuesday",
        "hours": "10:30 AM to 8 PM"
      },
      {
        "day": "Wednesday",
        "hours": "10:30 AM to 8 PM"
      },
      {
        "day": "Thursday",
        "hours": "10:30 AM to 8 PM"
      },
      {
        "day": "Friday",
        "hours": "10:30 AM to 8 PM"
      },
      {
        "day": "Saturday",
        "hours": "8:30 AM to 8 PM"
      },
      {
        "day": "Sunday",
        "hours": "10:30 AM to 8 PM"
      }
    ],
    "imageUrl": "https://lh3.googleusercontent.com/gps-cs-s/AG0ilSzo05SOvy5wFs49cpmG8lVxlK5L6grJ59jL3biAgffmedf5zgkJlCWx1HKsQJusXccXGUIvwcr0LzZRWWl5viBd0RHE26JTHp1qJtU7byWb-jyiPeyVvel9WBxPm_wRfwmhQjjgw23KzEOG=w408-h306-k-no",
    "url": "https://www.google.com/maps/search/?api=1&query=Dwarka%20Motors&query_place_id=ChIJpVfosPMbDTkRXvZ1C8qw4wc"
  },
  {
    "title": "Expert motors",
    "subTitle": "एक्सपर्ट मोटर्स",
    "categoryName": "Used car dealer",
    "address": "Shop no 28, DDA Market, Rajdhani Enclave, Pitampura, Delhi, 110034, India",
    "neighborhood": "DDA Market, Rajdhani Enclave, Pitampura",
    "street": "Shop no 28",
    "city": "Delhi",
    "postalCode": "110034",
    "state": "Delhi",
    "countryCode": "IN",
    "location": {
      "lat": 28.6876949,
      "lng": 77.1368565
    },
    "totalScore": 4.4,
    "permanentlyClosed": false,
    "temporarilyClosed": false,
    "placeId": "ChIJp-AP_1MDDTkReaYWu2jAJg0",
    "categories": [
      "Used car dealer"
    ],
    "reviewsCount": 14,
    "imagesCount": 38,
    "openingHours": [
      {
        "day": "Monday",
        "hours": "Closed"
      },
      {
        "day": "Tuesday",
        "hours": "10:30 AM to 7:30 PM"
      },
      {
        "day": "Wednesday",
        "hours": "10:30 AM to 7:30 PM"
      },
      {
        "day": "Thursday",
        "hours": "10:30 AM to 7:30 PM"
      },
      {
        "day": "Friday",
        "hours": "10:30 AM to 7:30 PM"
      },
      {
        "day": "Saturday",
        "hours": "10:30 AM to 7:30 PM"
      },
      {
        "day": "Sunday",
        "hours": "10:30 AM to 7:30 PM"
      }
    ],
    "imageUrl": "https://lh3.googleusercontent.com/p/AF1QipMMVsKIwnQZnckR3GVl67pjanVme1AxcHTV_Fe1=w408-h306-k-no",
    "url": "https://www.google.com/maps/search/?api=1&query=Expert%20motors&query_place_id=ChIJp-AP_1MDDTkReaYWu2jAJg0"
  },
  {
    "title": "Fusion Cars",
    "subTitle": "फ्यूजन कारें",
    "categoryName": "Car dealer",
    "address": "A-99/100, Ganesh Nagar, Tilak Nagar, Delhi, 110018, India",
    "neighborhood": "Ganesh Nagar, Tilak Nagar",
    "street": "A-99/100",
    "city": "Delhi",
    "postalCode": "110018",
    "state": "Delhi",
    "countryCode": "IN",
    "website": "http://www.fusioncars.in/",
    "phone": "+919999992532",
    "phoneUnformatted": "+919999992532",
    "location": {
      "lat": 28.6354942,
      "lng": 77.0914602
    },
    "totalScore": 4.5,
    "permanentlyClosed": false,
    "temporarilyClosed": false,
    "placeId": "ChIJzU5itewEDTkRxUh69RycfRc",
    "categories": [
      "Car dealer",
      "Used car dealer"
    ],
    "reviewsCount": 373,
    "imagesCount": 96,
    "openingHours": [
      {
        "day": "Monday",
        "hours": "10:30 AM to 8:30 PM"
      },
      {
        "day": "Tuesday",
        "hours": "10:30 AM to 8:30 PM"
      },
      {
        "day": "Wednesday",
        "hours": "10:30 AM to 8:30 PM"
      },
      {
        "day": "Thursday",
        "hours": "10:30 AM to 8:30 PM"
      },
      {
        "day": "Friday",
        "hours": "10:30 AM to 8:30 PM"
      },
      {
        "day": "Saturday",
        "hours": "10:30 AM to 8:30 PM"
      },
      {
        "day": "Sunday",
        "hours": "10:30 AM to 8:30 PM"
      }
    ],
    "imageUrl": "https://lh3.googleusercontent.com/p/AF1QipNr8oxeoERhXeVPXiv5wdAVa-QWTcyFtYPWwPdv=w426-h240-k-no",
    "url": "https://www.google.com/maps/search/?api=1&query=Fusion%20Cars&query_place_id=ChIJzU5itewEDTkRxUh69RycfRc"
  },
  {
    "title": "Fusion Motors",
    "subTitle": "फ्यूजन मोटर्स",
    "categoryName": "Used car dealer",
    "address": "Jg-2 768-A, near crpf camp, opp. pillar no 27, Kunwar Singh Nagar, Kamruddin Nagar, Delhi, 110041, India",
    "neighborhood": "Kunwar Singh Nagar, Kamruddin Nagar",
    "street": "Jg-2 768-A, near crpf camp, opp. pillar no 27",
    "city": "Delhi",
    "postalCode": "110041",
    "state": "Delhi",
    "countryCode": "IN",
    "location": {
      "lat": 28.6663088,
      "lng": 77.046912
    },
    "totalScore": 4.3,
    "permanentlyClosed": false,
    "temporarilyClosed": true,
    "placeId": "ChIJpzf6AWsFDTkRYjViAsP86b4",
    "categories": [
      "Used car dealer"
    ],
    "reviewsCount": 3,
    "imagesCount": 1,
    "openingHours": [],
    "imageUrl": "https://streetviewpixels-pa.googleapis.com/v1/thumbnail?panoid=pQPv2FM4VXqALmsQAFg2ow&cb_client=search.gws-prod.gps&w=408&h=240&yaw=271.22522&pitch=0&thumbfov=100",
    "url": "https://www.google.com/maps/search/?api=1&query=Fusion%20Motors&query_place_id=ChIJpzf6AWsFDTkRYjViAsP86b4"
  },
  {
    "title": "GALAXY KARS",
    "subTitle": "गैलेक्सी कार्स",
    "categoryName": "Used car dealer",
    "address": "G-44, VARDHMAN MARKET, Outer Ring Rd, Block J, Vikaspuri, Delhi, 110018, India",
    "neighborhood": "Block J, Vikaspuri",
    "street": "G-44, VARDHMAN MARKET, Outer Ring Rd",
    "city": "Delhi",
    "postalCode": "110018",
    "state": "Delhi",
    "countryCode": "IN",
    "phone": "+919818168936",
    "phoneUnformatted": "+919818168936",
    "location": {
      "lat": 28.6395955,
      "lng": 77.0813129
    },
    "totalScore": 4.9,
    "permanentlyClosed": false,
    "temporarilyClosed": false,
    "placeId": "ChIJ012Ma5IEDTkR6-P_lhW1TL0",
    "categories": [
      "Used car dealer"
    ],
    "reviewsCount": 30,
    "imagesCount": 51,
    "openingHours": [
      {
        "day": "Monday",
        "hours": "10 AM to 8 PM"
      },
      {
        "day": "Tuesday",
        "hours": "10 AM to 8 PM"
      },
      {
        "day": "Wednesday",
        "hours": "Closed"
      },
      {
        "day": "Thursday",
        "hours": "10 AM to 8 PM"
      },
      {
        "day": "Friday",
        "hours": "10 AM to 8 PM"
      },
      {
        "day": "Saturday",
        "hours": "10 AM to 8 PM"
      },
      {
        "day": "Sunday",
        "hours": "10 AM to 8 PM"
      }
    ],
    "imageUrl": "https://lh3.googleusercontent.com/p/AF1QipO1s7MyACxLcqzVm9sD3y_K9vRISTJQav7Rw6-Q=w408-h489-k-no",
    "url": "https://www.google.com/maps/search/?api=1&query=GALAXY%20KARS&query_place_id=ChIJ012Ma5IEDTkR6-P_lhW1TL0"
  },
  {
    "title": "Golden Cars",
    "subTitle": "गोल्डन कार्स",
    "categoryName": "Used car dealer",
    "address": "G-22, near Bhagwan Mahavir Hospital, Co-operative Group Housing Societies Pitampura, Pitampura, Delhi, 110034, India",
    "neighborhood": "Co-operative Group Housing Societies Pitampura, Pitampura",
    "street": "G-22, near Bhagwan Mahavir Hospital",
    "city": "Delhi",
    "postalCode": "110034",
    "state": "Delhi",
    "countryCode": "IN",
    "phone": "+918800111432",
    "phoneUnformatted": "+918800111432",
    "location": {
      "lat": 28.6883591,
      "lng": 77.1137736
    },
    "totalScore": 4,
    "permanentlyClosed": false,
    "temporarilyClosed": false,
    "placeId": "ChIJUWue2GoDDTkR1ybXgTTQ2Jw",
    "categories": [
      "Used car dealer"
    ],
    "reviewsCount": 9,
    "imagesCount": 71,
    "openingHours": [
      {
        "day": "Monday",
        "hours": "11:30 AM to 6:30 PM"
      },
      {
        "day": "Tuesday",
        "hours": "11:30 AM to 6:30 PM"
      },
      {
        "day": "Wednesday",
        "hours": "11:30 AM to 6:30 PM"
      },
      {
        "day": "Thursday",
        "hours": "11:30 AM to 6:30 PM"
      },
      {
        "day": "Friday",
        "hours": "11:30 AM to 6:30 PM"
      },
      {
        "day": "Saturday",
        "hours": "11:30 AM to 6:30 PM"
      },
      {
        "day": "Sunday",
        "hours": "11:30 AM to 6:30 PM"
      }
    ],
    "imageUrl": "https://lh3.googleusercontent.com/p/AF1QipO2udrfi_j1vhSLdhp6hiuE8mJBYUZZQym8jsdu=w408-h544-k-no",
    "url": "https://www.google.com/maps/search/?api=1&query=Golden%20Cars&query_place_id=ChIJUWue2GoDDTkR1ybXgTTQ2Jw"
  },
  {
    "title": "House of cars HOC",
    "subTitle": "हाउस ऑफ़ कार्स हॉक",
    "categoryName": "Used car dealer",
    "address": "Shop no G61, Vardhman Grand Plaza, Sector 3, Rohini, Delhi, 110085, India",
    "neighborhood": "Sector 3, Rohini",
    "street": "Shop no G61, Vardhman Grand Plaza",
    "city": "Delhi",
    "postalCode": "110085",
    "state": "Delhi",
    "countryCode": "IN",
    "phone": "+919811501020",
    "phoneUnformatted": "+919811501020",
    "location": {
      "lat": 28.6989592,
      "lng": 77.1141332
    },
    "totalScore": 5,
    "permanentlyClosed": false,
    "temporarilyClosed": false,
    "placeId": "ChIJQfzAWjcDDTkRraBxb5AoU-c",
    "categories": [
      "Used car dealer"
    ],
    "reviewsCount": 10,
    "imagesCount": 3,
    "openingHours": [
      {
        "day": "Monday",
        "hours": "10 AM to 7 PM"
      },
      {
        "day": "Tuesday",
        "hours": "10 AM to 7 PM"
      },
      {
        "day": "Wednesday",
        "hours": "10 AM to 7 PM"
      },
      {
        "day": "Thursday",
        "hours": "10 AM to 7 PM"
      },
      {
        "day": "Friday",
        "hours": "10 AM to 7 PM"
      },
      {
        "day": "Saturday",
        "hours": "10 AM to 7 PM"
      },
      {
        "day": "Sunday",
        "hours": "10 AM to 7 PM"
      }
    ],
    "imageUrl": "https://lh3.googleusercontent.com/gps-cs-s/AG0ilSyZ8G5z4FNE5Q6rsAfkteoS7BZLHSpClkLq2TVCKIkdP66zI1C8dYE1UXBtC93tenYnU6SPPgRkbjrHqa261i3RlL-kl8TeIedCFWJ_-Ll_SDY6T_Sl_vTIEOsPdYCP-v_e1fuIJQ=w408-h306-k-no",
    "url": "https://www.google.com/maps/search/?api=1&query=House%20of%20cars%20HOC&query_place_id=ChIJQfzAWjcDDTkRraBxb5AoU-c"
  },
  {
    "title": "JMD Motors",
    "subTitle": "जेएमडी मोटर्स",
    "categoryName": "Used car dealer",
    "address": "बगल में Radhe Radhe sweets, A-6/66, Pocket 6, Sector 16, Rohini, Delhi, 110089, India",
    "neighborhood": "Pocket 6, Sector 16, Rohini",
    "street": "बगल में Radhe Radhe sweets, A-6/66",
    "city": "Delhi",
    "postalCode": "110089",
    "state": "Delhi",
    "countryCode": "IN",
    "phone": "+919873689445",
    "phoneUnformatted": "+919873689445",
    "location": {
      "lat": 28.7346849,
      "lng": 77.1273082
    },
    "totalScore": 4.8,
    "permanentlyClosed": false,
    "temporarilyClosed": false,
    "placeId": "ChIJ36w26JsBDTkRafVGnhadZ9Y",
    "categories": [
      "Used car dealer",
      "Car dealer"
    ],
    "reviewsCount": 195,
    "imagesCount": 652,
    "openingHours": [
      {
        "day": "Monday",
        "hours": "8 AM to 10:30 PM"
      },
      {
        "day": "Tuesday",
        "hours": "8 AM to 10 PM"
      },
      {
        "day": "Wednesday",
        "hours": "8 AM to 10:30 PM"
      },
      {
        "day": "Thursday",
        "hours": "8 AM to 10 PM"
      },
      {
        "day": "Friday",
        "hours": "8 AM to 10:30 PM"
      },
      {
        "day": "Saturday",
        "hours": "8 AM to 10:30 PM"
      },
      {
        "day": "Sunday",
        "hours": "8 AM to 10:30 PM"
      }
    ],
    "imageUrl": "https://lh3.googleusercontent.com/p/AF1QipOybcGf8he_x3LlMXULC6Y3Y2QSdk9pwehBSLYj=w408-h408-k-no",
    "url": "https://www.google.com/maps/search/?api=1&query=JMD%20Motors&query_place_id=ChIJ36w26JsBDTkRafVGnhadZ9Y"
  },
  {
    "title": "Karim Motors",
    "subTitle": "करीम मोटर्स",
    "categoryName": "Car dealer",
    "address": "A-1 / 44 Ground floor, Sector 3, Sector 3A, Rohini, Delhi, 110085, India",
    "neighborhood": "Sector 3, Sector 3A, Rohini",
    "street": "A-1 / 44 Ground floor",
    "city": "Delhi",
    "postalCode": "110085",
    "state": "Delhi",
    "countryCode": "IN",
    "phone": "+919599017051",
    "phoneUnformatted": "+919599017051",
    "location": {
      "lat": 28.69686,
      "lng": 77.1073206
    },
    "totalScore": 4.5,
    "permanentlyClosed": false,
    "temporarilyClosed": false,
    "placeId": "ChIJJXNuDqEDDTkRdl-TsSOp-gs",
    "categories": [
      "Car dealer"
    ],
    "reviewsCount": 15,
    "imagesCount": 3,
    "openingHours": [
      {
        "day": "Monday",
        "hours": "Closed"
      },
      {
        "day": "Tuesday",
        "hours": "10:30 AM to 8:30 PM"
      },
      {
        "day": "Wednesday",
        "hours": "10:30 AM to 8:30 PM"
      },
      {
        "day": "Thursday",
        "hours": "10:30 AM to 8:30 PM"
      },
      {
        "day": "Friday",
        "hours": "10:30 AM to 8:30 PM"
      },
      {
        "day": "Saturday",
        "hours": "10:30 AM to 8:30 PM"
      },
      {
        "day": "Sunday",
        "hours": "10 AM to 9 PM"
      }
    ],
    "imageUrl": "https://lh3.googleusercontent.com/p/AF1QipPqwcP3XZ1TQtNmeeWOezzo4IGuk-ar03Bcbk2D=w408-h544-k-no",
    "url": "https://www.google.com/maps/search/?api=1&query=Karim%20Motors&query_place_id=ChIJJXNuDqEDDTkRdl-TsSOp-gs"
  },
  {
    "title": "Luxury Rentals INDIA - Luxury Car Hire | Luxury Wedding Car On Rent | Vintage Car Rental Services in Delhi, Gurgaon & Noida",
    "subTitle": "लक्जरी रेंटल्स इंडिया - लक्जरी कार हीरे | लक्जरी वेडिंग कार ऑन रेंट | विंटेज कार रेंटल सर्विसेस इन दिल्ली, गुड़गांव & नोएडा",
    "categoryName": "Car rental agency",
    "address": "B1, Block B1, Janakpuri, Delhi, 110058, India",
    "neighborhood": "Block B1, Janakpuri",
    "street": "B1",
    "city": "Delhi",
    "postalCode": "110058",
    "state": "Delhi",
    "countryCode": "IN",
    "website": "http://www.luxuryrentalsindia.com/",
    "phone": "+919899567302",
    "phoneUnformatted": "+919899567302",
    "location": {
      "lat": 28.6308053,
      "lng": 77.0899191
    },
    "totalScore": 5,
    "permanentlyClosed": false,
    "temporarilyClosed": false,
    "placeId": "ChIJE1xCsjoFDTkRHXPQJswp_64",
    "categories": [
      "Car rental agency",
      "Car leasing service",
      "Chauffeur service",
      "Taxi service",
      "Tour agency",
      "Travel agency"
    ],
    "reviewsCount": 3,
    "imagesCount": 83,
    "openingHours": [
      {
        "day": "Monday",
        "hours": "Open 24 hours"
      },
      {
        "day": "Tuesday",
        "hours": "Open 24 hours"
      },
      {
        "day": "Wednesday",
        "hours": "Open 24 hours"
      },
      {
        "day": "Thursday",
        "hours": "Open 24 hours"
      },
      {
        "day": "Friday",
        "hours": "Open 24 hours"
      },
      {
        "day": "Saturday",
        "hours": "Open 24 hours"
      },
      {
        "day": "Sunday",
        "hours": "Open 24 hours"
      }
    ],
    "imageUrl": "https://lh3.googleusercontent.com/p/AF1QipO1nPnM5-ebX7KQYb6Ucv6C4XSRgOQxx-WndtfT=w426-h240-k-no",
    "url": "https://www.google.com/maps/search/?api=1&query=Luxury%20Rentals%20INDIA%20-%20Luxury%20Car%20Hire%20%7C%20Luxury%20Wedding%20Car%20On%20Rent%20%7C%20Vintage%20Car%20Rental%20Services%20in%20Delhi%2C%20Gurgaon%20%26%20Noida&query_place_id=ChIJE1xCsjoFDTkRHXPQJswp_64"
  },
  {
    "title": "Mercy Luxury Cars",
    "subTitle": "मर्सी लक्जरी कार्स",
    "categoryName": "Car leasing service",
    "address": "A44, Indraprastha Enclave Main Rd, Pocket B, Sector 17 Dwarka, Dwarka, Delhi, 110078, India",
    "neighborhood": "Pocket B, Sector 17 Dwarka, Dwarka",
    "street": "A44, Indraprastha Enclave Main Rd",
    "city": "Delhi",
    "postalCode": "110078",
    "state": "Delhi",
    "countryCode": "IN",
    "phone": "+918882328871",
    "phoneUnformatted": "+918882328871",
    "location": {
      "lat": 28.5917612,
      "lng": 77.0274003
    },
    "permanentlyClosed": false,
    "temporarilyClosed": false,
    "placeId": "ChIJpczMY5obDTkR9rX1Zq6UPCY",
    "categories": [
      "Car leasing service"
    ],
    "imagesCount": 11,
    "openingHours": [
      {
        "day": "Monday",
        "hours": "Open 24 hours"
      },
      {
        "day": "Tuesday",
        "hours": "Open 24 hours"
      },
      {
        "day": "Wednesday",
        "hours": "Open 24 hours"
      },
      {
        "day": "Thursday",
        "hours": "Open 24 hours"
      },
      {
        "day": "Friday",
        "hours": "Open 24 hours"
      },
      {
        "day": "Saturday",
        "hours": "Open 24 hours"
      },
      {
        "day": "Sunday",
        "hours": "Open 24 hours"
      }
    ],
    "imageUrl": "https://lh3.googleusercontent.com/p/AF1QipOUIMSBKDoKOzcEEJtk7_yklHVn8E3eMRuHMblz=w408-h540-k-no",
    "url": "https://www.google.com/maps/search/?api=1&query=Mercy%20Luxury%20Cars&query_place_id=ChIJpczMY5obDTkR9rX1Zq6UPCY"
  },
  {
    "title": "NEXA (Fair Deal Premium Wheels, New Delhi, Akshardham)",
    "subTitle": "नेक्सा (फेयर डील प्रीमियम व्हील्स, न्यू दिल्ली, अक्षरधाम)",
    "categoryName": "Car dealer",
    "address": "Akshardham Metro Station, Unit no.33, Ground Floor, Parsvnath Metro Mall, Pramukh Swami Maharaj Marg, Pandav Nagar, Delhi, 110092, India",
    "neighborhood": "Pandav Nagar",
    "street": "Akshardham Metro Station, Unit no.33, Ground Floor, Parsvnath Metro Mall, Pramukh Swami Maharaj Marg",
    "city": "Delhi",
    "postalCode": "110092",
    "state": "Delhi",
    "countryCode": "IN",
    "website": "https://www.nexaofakshardham.com/?utm_source=gmb&utm_medium=google&utm_campaign=seo-local",
    "phone": "+918062217274",
    "phoneUnformatted": "+918062217274",
    "location": {
      "lat": 28.6184974,
      "lng": 77.2790329
    },
    "totalScore": 4.2,
    "permanentlyClosed": false,
    "temporarilyClosed": false,
    "placeId": "ChIJ870IIlL7DDkR5-YKVnL6hww",
    "categories": [
      "Car dealer"
    ],
    "reviewsCount": 763,
    "imagesCount": 258,
    "openingHours": [
      {
        "day": "Monday",
        "hours": "10 AM to 8 PM"
      },
      {
        "day": "Tuesday",
        "hours": "10 AM to 8 PM"
      },
      {
        "day": "Wednesday",
        "hours": "10 AM to 8 PM"
      },
      {
        "day": "Thursday",
        "hours": "10 AM to 8 PM"
      },
      {
        "day": "Friday",
        "hours": "10 AM to 8 PM"
      },
      {
        "day": "Saturday",
        "hours": "10 AM to 8 PM"
      },
      {
        "day": "Sunday",
        "hours": "10 AM to 8 PM"
      }
    ],
    "imageUrl": "https://lh3.googleusercontent.com/gps-cs-s/AG0ilSz0oApOh2jAadPGk1aiWpwCRpR3bi3k_hg45e2OHp9H_5nXLyEYHuZbheUnfHYNTtlKBu3odck2JNNk0DGW1K9Lyk-ZcK2TooqXS4ZhNfMgNLL1ZZ2mzFZZr-7qYhr2lEqnCkWTKw=w408-h272-k-no",
    "url": "https://www.google.com/maps/search/?api=1&query=NEXA%20(Fair%20Deal%20Premium%20Wheels%2C%20New%20Delhi%2C%20Akshardham)&query_place_id=ChIJ870IIlL7DDkR5-YKVnL6hww"
  },
  {
    "title": "NEXXT LEVEL CARS PRE-OWNED LUXURY",
    "subTitle": "नेक्स्ट लेवल कार्स प्री-ओन्ड लक्जरी",
    "categoryName": "Used car dealer",
    "address": "KC, 28-A, Ashok Vihar Phase 1 Rd, Block KC, Delhi, 110052, India",
    "neighborhood": "Block KC, Wazirpur Village, Ashok Vihar",
    "street": "KC, 28-A, Ashok Vihar Phase 1 Rd",
    "city": "Delhi",
    "postalCode": "110052",
    "state": "Delhi",
    "countryCode": "IN",
    "phone": "+918091991980",
    "phoneUnformatted": "+918091991980",
    "location": {
      "lat": 28.6887125,
      "lng": 77.1748106
    },
    "totalScore": 4.8,
    "permanentlyClosed": false,
    "temporarilyClosed": false,
    "placeId": "ChIJqZrH0BQCDTkRhdq9VBIGiAw",
    "categories": [
      "Used car dealer"
    ],
    "reviewsCount": 24,
    "imagesCount": 22,
    "openingHours": [
      {
        "day": "Monday",
        "hours": "Closed"
      },
      {
        "day": "Tuesday",
        "hours": "11 AM to 8 PM"
      },
      {
        "day": "Wednesday",
        "hours": "11 AM to 8 PM"
      },
      {
        "day": "Thursday",
        "hours": "11 AM to 8 PM"
      },
      {
        "day": "Friday",
        "hours": "11 AM to 8 PM"
      },
      {
        "day": "Saturday",
        "hours": "11 AM to 8 PM"
      },
      {
        "day": "Sunday",
        "hours": "11 AM to 8 PM"
      }
    ],
    "imageUrl": "https://lh3.googleusercontent.com/p/AF1QipPQ_LHU-JGHmJWglkoOvc6L3V89ApfbUw3i3FIn=w408-h544-k-no",
    "url": "https://www.google.com/maps/search/?api=1&query=NEXXT%20LEVEL%20CARS%20PRE-OWNED%20LUXURY&query_place_id=ChIJqZrH0BQCDTkRhdq9VBIGiAw"
  },
  {
    "title": "Paint Protection Film- SUNMASK",
    "subTitle": "पेंट प्रोटेक्शन फिल्म- सन्मस्क",
    "categoryName": "Distribution service",
    "address": "Khasra No 566, Seed Farm Rd, near Rajhdhani Dharm Kanta, Alipur, Delhi, 110036, India",
    "neighborhood": "Alipur",
    "street": "Khasra No 566, Seed Farm Rd, near Rajhdhani Dharm Kanta",
    "city": "Delhi",
    "postalCode": "110036",
    "state": "Delhi",
    "countryCode": "IN",
    "website": "https://sunmaskfilm.com/",
    "location": {
      "lat": 28.79273,
      "lng": 77.1357975
    },
    "totalScore": 5,
    "permanentlyClosed": false,
    "temporarilyClosed": false,
    "placeId": "ChIJd-JVTw8BDTkRBJb4AAgMt2M",
    "categories": [
      "Distribution service",
      "Auto accessories wholesaler",
      "Auto window tinting service",
      "Automation company",
      "Boat detailing service",
      "Car dealer",
      "Car wash",
      "DS Automobiles dealer"
    ],
    "reviewsCount": 12,
    "imagesCount": 183,
    "openingHours": [
      {
        "day": "Monday",
        "hours": "10 AM to 7 PM"
      },
      {
        "day": "Tuesday",
        "hours": "10 AM to 7 PM"
      },
      {
        "day": "Wednesday",
        "hours": "10 AM to 7 PM"
      },
      {
        "day": "Thursday",
        "hours": "10 AM to 7 PM"
      },
      {
        "day": "Friday",
        "hours": "10 AM to 7 PM"
      },
      {
        "day": "Saturday",
        "hours": "10 AM to 7 PM"
      },
      {
        "day": "Sunday",
        "hours": "12 to 5 PM"
      }
    ],
    "imageUrl": "https://lh3.googleusercontent.com/p/AF1QipOcwNHzoMe-PwLWM5nUPqkhPPVH7l_Q_Sd3CQHS=w408-h409-k-no",
    "url": "https://www.google.com/maps/search/?api=1&query=Paint%20Protection%20Film-%20SUNMASK&query_place_id=ChIJd-JVTw8BDTkRBJb4AAgMt2M"
  },
  {
    "title": "Pannu Car Rentals Pvt. Ltd.",
    "subTitle": "पन्नू कार किराये प्रा। लिमिटेड",
    "categoryName": "Car rental agency",
    "address": "Shop No.124-125, Vardhman Bahnoff Plaza, Plot No.10, Pocket 7, Sector -12, Dwarka, Delhi, 110078, India",
    "neighborhood": "Pocket 7, Sector -12, Dwarka",
    "street": "Shop No.124-125, Vardhman Bahnoff Plaza, Plot No.10",
    "city": "Delhi",
    "postalCode": "110078",
    "state": "Delhi",
    "countryCode": "IN",
    "website": "http://www.pannucarrental.com/",
    "phone": "+919818010389",
    "phoneUnformatted": "+919818010389",
    "location": {
      "lat": 28.5911898,
      "lng": 77.042779
    },
    "totalScore": 3.2,
    "permanentlyClosed": false,
    "temporarilyClosed": false,
    "placeId": "ChIJDaHJDM8aDTkRWzDlcC48kV0",
    "categories": [
      "Car rental agency"
    ],
    "reviewsCount": 164,
    "imagesCount": 95,
    "openingHours": [
      {
        "day": "Monday",
        "hours": "Open 24 hours"
      },
      {
        "day": "Tuesday",
        "hours": "Open 24 hours"
      },
      {
        "day": "Wednesday",
        "hours": "Open 24 hours"
      },
      {
        "day": "Thursday",
        "hours": "Open 24 hours"
      },
      {
        "day": "Friday",
        "hours": "Open 24 hours"
      },
      {
        "day": "Saturday",
        "hours": "Open 24 hours"
      },
      {
        "day": "Sunday",
        "hours": "Open 24 hours"
      }
    ],
    "imageUrl": "https://lh3.googleusercontent.com/gps-cs-s/AG0ilSyAqaqPYTu8kpvjb2zBzdlIDMPFSuQex8oOHGzXBh6kisyb073EqYc8rxwis_wtOgCOxlAUwv6219hlp86oKlX_DvjyfBkxpxSxwp27UtwugNLAxoPWc4tVbVsI-C6U8MCY5mvh=w533-h240-k-no",
    "url": "https://www.google.com/maps/search/?api=1&query=Pannu%20Car%20Rentals%20Pvt.%20Ltd.&query_place_id=ChIJDaHJDM8aDTkRWzDlcC48kV0"
  },
  {
    "title": "Prime Car- Used car dealer in Najafgarh, Pre-owned car in Najafgarh, second hand car in Najafgarh",
    "subTitle": "प्रधानमंत्री कार कंसल्टेंट्स",
    "categoryName": "Used car dealer",
    "address": "A-62, opp. Train metro depot, opp. pillar no 91, Indra Park, Masudabad, Najafgarh, Delhi, 110043, India",
    "neighborhood": "Indra Park, Masudabad, Najafgarh",
    "street": "A-62, opp. Train metro depot, opp. pillar no 91",
    "city": "Delhi",
    "postalCode": "110043",
    "state": "Delhi",
    "countryCode": "IN",
    "location": {
      "lat": 28.6161839,
      "lng": 77.0009899
    },
    "totalScore": 3.2,
    "permanentlyClosed": false,
    "temporarilyClosed": false,
    "placeId": "ChIJwR4ZlDUFDTkRKVNJwpIKzqQ",
    "categories": [
      "Used car dealer"
    ],
    "reviewsCount": 16,
    "imagesCount": 9,
    "openingHours": [
      {
        "day": "Monday",
        "hours": "9 AM to 7 PM"
      },
      {
        "day": "Tuesday",
        "hours": "9 AM to 7 PM"
      },
      {
        "day": "Wednesday",
        "hours": "9 AM to 7 PM"
      },
      {
        "day": "Thursday",
        "hours": "9 AM to 7 PM"
      },
      {
        "day": "Friday",
        "hours": "9 AM to 7 PM"
      },
      {
        "day": "Saturday",
        "hours": "9 AM to 7 PM"
      },
      {
        "day": "Sunday",
        "hours": "9 AM to 7 PM"
      }
    ],
    "imageUrl": "https://lh3.googleusercontent.com/gps-cs-s/AG0ilSwuuk4Th-S9GVKc1aHysFLY8qhyReXcBQ4XQaHlZK5z3bq1P8YpRiYOaEWqHnuJtIThL2WFT-U6A7YPcXZXAbkpTTP4xusbUxhZkx_qW3S0UQiEFLp_d1GcDs6joYWdZXzkzv29kQ=w408-h533-k-no",
    "url": "https://www.google.com/maps/search/?api=1&query=Prime%20Car-%20Used%20car%20dealer%20in%20Najafgarh%2C%20Pre-owned%20car%20in%20Najafgarh%2C%20second%20hand%20car%20in%20Najafgarh&query_place_id=ChIJwR4ZlDUFDTkRKVNJwpIKzqQ"
  },
  {
    "title": "Prime Motors Delhi - Best Used Cars in Delhi | Second Hand Cars in Delhi | Best Used Car Dealer | Rohini | Pitampura",
    "subTitle": "प्राइम मोटर्स दिल्ली - बेस्ट यूज्ड कार्स इन दिल्ली | सेकंड हैंड कार्स इन दिल्ली | बेस्ट यूज्ड कार डीलर | रोहिणी | पीतमपुरा",
    "categoryName": "Used car dealer",
    "address": "15 And UB-1, Vardhman Premium Mall, G-14, Deepali, Pitampura, Delhi, 110034, India",
    "neighborhood": "Deepali, Pitampura",
    "street": "15 And UB-1, Vardhman Premium Mall, G-14",
    "city": "Delhi",
    "postalCode": "110034",
    "state": "Delhi",
    "countryCode": "IN",
    "website": "https://primeautorev.in/",
    "phone": "+919205410740",
    "phoneUnformatted": "+919205410740",
    "location": {
      "lat": 28.6965267,
      "lng": 77.1155276
    },
    "totalScore": 4.7,
    "permanentlyClosed": false,
    "temporarilyClosed": false,
    "placeId": "ChIJ_WTEGx4BDTkRzf6PAh1fbcI",
    "categories": [
      "Used car dealer"
    ],
    "reviewsCount": 103,
    "imagesCount": 123,
    "openingHours": [
      {
        "day": "Monday",
        "hours": "10 AM to 8 PM"
      },
      {
        "day": "Tuesday",
        "hours": "10 AM to 8 PM"
      },
      {
        "day": "Wednesday",
        "hours": "10 AM to 8 PM"
      },
      {
        "day": "Thursday",
        "hours": "10 AM to 8 PM"
      },
      {
        "day": "Friday",
        "hours": "10 AM to 8 PM"
      },
      {
        "day": "Saturday",
        "hours": "10 AM to 8 PM"
      },
      {
        "day": "Sunday",
        "hours": "10 AM to 8 PM"
      }
    ],
    "imageUrl": "https://lh3.googleusercontent.com/gps-cs-s/AG0ilSzoYWCRAbCYTbjknxRJI6LxYDDSiWyFH79U48567xC-XMjEiDGiXieNq-UqIve4MpCxU8bQtD4O5icQnmsGcRQYpsotUknU33P8CGab76JWVPfXuplIz9zfijyC5jzJYjpK5Z3SiaEge6OD=w426-h240-k-no",
    "url": "https://www.google.com/maps/search/?api=1&query=Prime%20Motors%20Delhi%20-%20Best%20Used%20Cars%20in%20Delhi%20%7C%20Second%20Hand%20Cars%20in%20Delhi%20%7C%20Best%20Used%20Car%20Dealer%20%7C%20Rohini%20%7C%20Pitampura&query_place_id=ChIJ_WTEGx4BDTkRzf6PAh1fbcI"
  },
  {
    "title": "Progressive Auto Sports",
    "subTitle": "प्रोग्रेसिव ऑटो स्पोर्ट्स",
    "categoryName": "Car dealer",
    "address": "Plot no 82, near Anand Vihar Bus Terminal Metro Station Anand Vihar 1, Patparganj Industrial Area, Patparganj, Delhi, 110092, India",
    "neighborhood": "Patparganj Industrial Area, Patparganj",
    "street": "Plot no 82, near Anand Vihar Bus Terminal Metro Station Anand Vihar 1",
    "city": "Delhi",
    "postalCode": "110092",
    "state": "Delhi",
    "countryCode": "IN",
    "website": "http://progressiveautosports.co.in/",
    "phone": "+919871617270",
    "phoneUnformatted": "+919871617270",
    "location": {
      "lat": 28.638739,
      "lng": 77.3130941
    },
    "totalScore": 4.4,
    "permanentlyClosed": false,
    "temporarilyClosed": false,
    "placeId": "ChIJXzshOFn7DDkRMUaCMv11BF4",
    "categories": [
      "Car dealer"
    ],
    "reviewsCount": 173,
    "imagesCount": 107,
    "openingHours": [
      {
        "day": "Monday",
        "hours": "10 AM to 7 PM"
      },
      {
        "day": "Tuesday",
        "hours": "10 AM to 7 PM"
      },
      {
        "day": "Wednesday",
        "hours": "10 AM to 7 PM"
      },
      {
        "day": "Thursday",
        "hours": "10 AM to 7 PM"
      },
      {
        "day": "Friday",
        "hours": "10 AM to 7 PM"
      },
      {
        "day": "Saturday",
        "hours": "10 AM to 7 PM"
      },
      {
        "day": "Sunday",
        "hours": "Closed"
      }
    ],
    "imageUrl": "https://lh3.googleusercontent.com/p/AF1QipPfkMUk17-qkWeDnOpCmE9xr2n70A5L3_9EW23b=w427-h240-k-no",
    "url": "https://www.google.com/maps/search/?api=1&query=Progressive%20Auto%20Sports&query_place_id=ChIJXzshOFn7DDkRMUaCMv11BF4"
  },
  {
    "title": "RCS Motors",
    "subTitle": "आरसीएस मोटर्स",
    "categoryName": "Used car dealer",
    "address": "200-201 ground floor, Pocket 3, Sector 25, Rohini, Delhi, 110085, India",
    "neighborhood": "Pocket 3, Sector 25, Rohini",
    "street": "200-201 ground floor",
    "city": "Delhi",
    "postalCode": "110085",
    "state": "Delhi",
    "countryCode": "IN",
    "phone": "+919350155368",
    "phoneUnformatted": "+919350155368",
    "location": {
      "lat": 28.7349041,
      "lng": 77.0979304
    },
    "totalScore": 5,
    "permanentlyClosed": false,
    "temporarilyClosed": false,
    "placeId": "ChIJaxCwHswBDTkRS0ExTl9Qr70",
    "categories": [
      "Used car dealer",
      "Auto auction",
      "Auto broker",
      "Bentley dealer",
      "Car dealer",
      "Motor scooter dealer",
      "Race car dealer",
      "Smart Car dealer"
    ],
    "reviewsCount": 35,
    "imagesCount": 65,
    "openingHours": [
      {
        "day": "Monday",
        "hours": "10 AM to 8 PM"
      },
      {
        "day": "Tuesday",
        "hours": "10 AM to 8 PM"
      },
      {
        "day": "Wednesday",
        "hours": "10 AM to 8 PM"
      },
      {
        "day": "Thursday",
        "hours": "10 AM to 8 PM"
      },
      {
        "day": "Friday",
        "hours": "10 AM to 8 PM"
      },
      {
        "day": "Saturday",
        "hours": "10 AM to 8 PM"
      },
      {
        "day": "Sunday",
        "hours": "10 AM to 8 PM"
      }
    ],
    "imageUrl": "https://lh3.googleusercontent.com/p/AF1QipPT13Gn23rEqDC1bByTtyA88Nq8lfdA6JTqnNrQ=w408-h544-k-no",
    "url": "https://www.google.com/maps/search/?api=1&query=RCS%20Motors&query_place_id=ChIJaxCwHswBDTkRS0ExTl9Qr70"
  },
  {
    "title": "RM Luxury Cars | Luxury Car Rental Delhi | Wedding Car Rental Delhi and Gurgaon",
    "subTitle": "आरएम लक्जरी कार्स | लक्जरी कार रेंटल दिल्ली | वेडिंग कार रेंटल दिल्ली एंड गुड़गांव",
    "categoryName": "Car rental agency",
    "address": "C2, Police Lines, Block C2, Co-operative Group Housing Societies Pitampura, Pitampura, Delhi, 110034, India",
    "neighborhood": "Block C2, Co-operative Group Housing Societies Pitampura, Pitampura",
    "street": "C2, Police Lines",
    "city": "Delhi",
    "postalCode": "110034",
    "state": "Delhi",
    "countryCode": "IN",
    "website": "https://rmluxurycars.com/",
    "phone": "+919999772570",
    "phoneUnformatted": "+919999772570",
    "location": {
      "lat": 28.69163,
      "lng": 77.1057038
    },
    "totalScore": 1,
    "permanentlyClosed": false,
    "temporarilyClosed": false,
    "placeId": "ChIJeahgZeADDTkRnPoLF_DPnDg",
    "categories": [
      "Car rental agency",
      "Car leasing service"
    ],
    "reviewsCount": 1,
    "imagesCount": 10,
    "openingHours": [
      {
        "day": "Monday",
        "hours": "Open 24 hours"
      },
      {
        "day": "Tuesday",
        "hours": "Open 24 hours"
      },
      {
        "day": "Wednesday",
        "hours": "Open 24 hours"
      },
      {
        "day": "Thursday",
        "hours": "Open 24 hours"
      },
      {
        "day": "Friday",
        "hours": "Open 24 hours"
      },
      {
        "day": "Saturday",
        "hours": "Open 24 hours"
      },
      {
        "day": "Sunday",
        "hours": "Open 24 hours"
      }
    ],
    "imageUrl": "https://lh3.googleusercontent.com/p/AF1QipM88j9O5fwtOYHMEsa8VuSIluOn29Ngrs6nLmi2=w408-h316-k-no",
    "url": "https://www.google.com/maps/search/?api=1&query=RM%20Luxury%20Cars%20%7C%20Luxury%20Car%20Rental%20Delhi%20%7C%20Wedding%20Car%20Rental%20Delhi%20and%20Gurgaon&query_place_id=ChIJeahgZeADDTkRnPoLF_DPnDg"
  },
  {
    "title": "Royal Cars",
    "subTitle": "रॉयल कारें",
    "categoryName": "Used car dealer",
    "address": "A-36, A-Block, Vikaspuri, Delhi, 110018, India",
    "neighborhood": "A-Block, Vikaspuri",
    "street": "A-36",
    "city": "Delhi",
    "postalCode": "110018",
    "state": "Delhi",
    "countryCode": "IN",
    "phone": "+919711982381",
    "phoneUnformatted": "+919711982381",
    "location": {
      "lat": 28.6273271,
      "lng": 77.0698676
    },
    "totalScore": 3.5,
    "permanentlyClosed": false,
    "temporarilyClosed": false,
    "placeId": "ChIJpXK3ZOwEDTkRLzf0pCGg5YI",
    "categories": [
      "Used car dealer"
    ],
    "reviewsCount": 11,
    "imagesCount": 4,
    "openingHours": [
      {
        "day": "Monday",
        "hours": "10 AM to 8 PM"
      },
      {
        "day": "Tuesday",
        "hours": "10 AM to 8 PM"
      },
      {
        "day": "Wednesday",
        "hours": "10 AM to 8 PM"
      },
      {
        "day": "Thursday",
        "hours": "10 AM to 8 PM"
      },
      {
        "day": "Friday",
        "hours": "10 AM to 8 PM"
      },
      {
        "day": "Saturday",
        "hours": "10 AM to 8 PM"
      },
      {
        "day": "Sunday",
        "hours": "10 AM to 8 PM"
      }
    ],
    "imageUrl": "https://lh3.googleusercontent.com/p/AF1QipO1cuyYATllps_QYShwbA4pR_gHd_MQgmPrrh40=w408-h725-k-no",
    "url": "https://www.google.com/maps/search/?api=1&query=Royal%20Cars&query_place_id=ChIJpXK3ZOwEDTkRLzf0pCGg5YI"
  },
  {
    "title": "SAGAR MOTORS [ HEADQUARTERS ]",
    "subTitle": "सागर मोटर्स",
    "categoryName": "Used car dealer",
    "address": "78-A , Pocket-A, Outer Ring Road, Opposite Fly Over Piller No : 13, Krishna Park, Krishna Park Extension, Tilak Nagar, Delhi, 110018, India",
    "neighborhood": "Krishna Park, Krishna Park Extension, Tilak Nagar",
    "street": "78-A , Pocket-A, Outer Ring Road, Opposite Fly Over Piller No : 13",
    "city": "Delhi",
    "postalCode": "110018",
    "state": "Delhi",
    "countryCode": "IN",
    "phone": "+919810064864",
    "phoneUnformatted": "+919810064864",
    "location": {
      "lat": 28.6409565,
      "lng": 77.0828904
    },
    "totalScore": 4.3,
    "permanentlyClosed": false,
    "temporarilyClosed": false,
    "placeId": "ChIJ3fRhppMEDTkRDilnrDDD_ig",
    "categories": [
      "Used car dealer",
      "Car dealer",
      "Motor vehicle dealer"
    ],
    "reviewsCount": 202,
    "imagesCount": 1164,
    "openingHours": [
      {
        "day": "Monday",
        "hours": "11 AM to 8 PM"
      },
      {
        "day": "Tuesday",
        "hours": "11 AM to 8 PM"
      },
      {
        "day": "Wednesday",
        "hours": "Closed"
      },
      {
        "day": "Thursday",
        "hours": "11 AM to 8 PM"
      },
      {
        "day": "Friday",
        "hours": "11 AM to 8 PM"
      },
      {
        "day": "Saturday",
        "hours": "11 AM to 8 PM"
      },
      {
        "day": "Sunday",
        "hours": "11 AM to 8 PM"
      }
    ],
    "imageUrl": "https://lh3.googleusercontent.com/p/AF1QipNJvGwa4UAuYbvHmBNocaFhB4Lq5fRhj9FCQBE7=w408-h246-k-no",
    "url": "https://www.google.com/maps/search/?api=1&query=SAGAR%20MOTORS%20%5B%20HEADQUARTERS%20%5D&query_place_id=ChIJ3fRhppMEDTkRDilnrDDD_ig"
  },
  {
    "title": "Satguru Motors",
    "subTitle": "सतगुरु मोटर्स",
    "categoryName": "Used car dealer",
    "address": "Ground floor, i6/16, Pocket 6, Sector 16, Rohini, Delhi, 110089, India",
    "neighborhood": "Pocket 6, Sector 16, Rohini",
    "street": "Ground floor, i6/16",
    "city": "Delhi",
    "postalCode": "110089",
    "state": "Delhi",
    "countryCode": "IN",
    "website": "http://www.instagram.com/satgurumotor_rohini",
    "phone": "+919999185830",
    "phoneUnformatted": "+919999185830",
    "location": {
      "lat": 28.7419344,
      "lng": 77.1204858
    },
    "totalScore": 4.1,
    "permanentlyClosed": false,
    "temporarilyClosed": false,
    "placeId": "ChIJ7YFI1RYBDTkRE37Wbl-ut0Y",
    "categories": [
      "Used car dealer"
    ],
    "reviewsCount": 63,
    "imagesCount": 65,
    "openingHours": [
      {
        "day": "Monday",
        "hours": "10 AM to 8 PM"
      },
      {
        "day": "Tuesday",
        "hours": "10 AM to 8 PM"
      },
      {
        "day": "Wednesday",
        "hours": "10 AM to 8 PM"
      },
      {
        "day": "Thursday",
        "hours": "10 AM to 8 PM"
      },
      {
        "day": "Friday",
        "hours": "10 AM to 8 PM"
      },
      {
        "day": "Saturday",
        "hours": "10 AM to 8 PM"
      },
      {
        "day": "Sunday",
        "hours": "10 AM to 8 PM"
      }
    ],
    "imageUrl": "https://lh3.googleusercontent.com/p/AF1QipN1fqGD9s23cYp15KKXOJhsZxeuo1cFA4BTG4Hw=w408-h545-k-no",
    "url": "https://www.google.com/maps/search/?api=1&query=Satguru%20Motors&query_place_id=ChIJ7YFI1RYBDTkRE37Wbl-ut0Y"
  },
  {
    "title": "SHAKTI MOTORS",
    "subTitle": "शक्ति मोटर्स",
    "categoryName": "Used car dealer",
    "address": "E-21/245, 85, Sector 3, Rohini, Delhi, 110085, India",
    "neighborhood": "Pocket 21, Sector 3, Rohini",
    "street": "E-21/245, 85",
    "city": "Delhi",
    "postalCode": "110085",
    "state": "Delhi",
    "countryCode": "IN",
    "phone": "+919811604447",
    "phoneUnformatted": "+919811604447",
    "location": {
      "lat": 28.7001949,
      "lng": 77.1026189
    },
    "totalScore": 4.5,
    "permanentlyClosed": false,
    "temporarilyClosed": false,
    "placeId": "ChIJVVVVaQAEDTkRuhRePIUSjsU",
    "categories": [
      "Used car dealer"
    ],
    "reviewsCount": 32,
    "imagesCount": 13,
    "openingHours": [],
    "imageUrl": "https://lh3.googleusercontent.com/gps-cs-s/AG0ilSzSs2b-2puWnqFRNiA4pzG8aKRIiLEGmMI8wQpN7ao94JuGlCKjAvwyx_HY0Bi4yVS7LjdhqWuIUrE0JEt3UEIcXeSxKaCIpS0VBC4L2hm_s27aZkgED90Y7c3o7-ZhmR7CjHp-=w519-h240-k-no",
    "url": "https://www.google.com/maps/search/?api=1&query=SHAKTI%20MOTORS&query_place_id=ChIJVVVVaQAEDTkRuhRePIUSjsU"
  },
  {
    "title": "Shiv Car Sales-Used Car Dealer In Vikas Puri-Luxury Used Car Dealer In Vikas Puri.",
    "subTitle": "शिव कार सेल्स-उस्ड कार डीलर इन विकास पुरी-लग्जरी यूज्ड कार डीलर इन विकास पुरी.",
    "categoryName": "Used car dealer",
    "address": "JG 2/772 A, Outer Ring Rd, opp. C.R.P.F. Camp, Block JG 2, Vikaspuri, Delhi, 110018, India",
    "neighborhood": "Block JG 2, Vikaspuri",
    "street": "JG 2/772 A, Outer Ring Rd, opp. C.R.P.F. Camp",
    "city": "Delhi",
    "postalCode": "110018",
    "state": "Delhi",
    "countryCode": "IN",
    "website": "https://www.instagram.com/shiv.carsales?igsh=MXNueTFvM29jd3N3",
    "phone": "+919810677665",
    "phoneUnformatted": "+919810677665",
    "location": {
      "lat": 28.644982,
      "lng": 77.0836631
    },
    "totalScore": 4.8,
    "permanentlyClosed": false,
    "temporarilyClosed": false,
    "placeId": "ChIJz8ZKPZMEDTkRGnZNZkzOGps",
    "categories": [
      "Used car dealer"
    ],
    "reviewsCount": 262,
    "imagesCount": 105,
    "openingHours": [
      {
        "day": "Monday",
        "hours": "10:30 AM to 8 PM"
      },
      {
        "day": "Tuesday",
        "hours": "10:30 AM to 8 PM"
      },
      {
        "day": "Wednesday",
        "hours": "Closed"
      },
      {
        "day": "Thursday",
        "hours": "10:30 AM to 8 PM"
      },
      {
        "day": "Friday",
        "hours": "10:30 AM to 8 PM"
      },
      {
        "day": "Saturday",
        "hours": "10:30 AM to 8 PM"
      },
      {
        "day": "Sunday",
        "hours": "10:30 AM to 8 PM"
      }
    ],
    "imageUrl": "https://lh3.googleusercontent.com/p/AF1QipMX8hwKgLZWGDg9Q8rlDHb2qcgVfDpL9vq-IEod=w408-h385-k-no",
    "url": "https://www.google.com/maps/search/?api=1&query=Shiv%20Car%20Sales-Used%20Car%20Dealer%20In%20Vikas%20Puri-Luxury%20Used%20Car%20Dealer%20In%20Vikas%20Puri.&query_place_id=ChIJz8ZKPZMEDTkRGnZNZkzOGps"
  },
  {
    "title": "SHRI RAM MOTORS : Used Car Dealers | Second Hand Car | Luxury Car | Rohini",
    "subTitle": "श्री राम मोटर्स : यूज्ड कार डीलर्स | सेकंड हैंड कार | लक्जरी कार | रोहिणी",
    "categoryName": "Used car dealer",
    "address": "D-17/182 opp MAHARAJA AGRASEN BHAWAN, Sector 3, Rohini, Delhi, 110085, India",
    "neighborhood": "Pocket C-13, Sector 3, Sector 3C, Rohini",
    "street": "D-17/182 opp MAHARAJA AGRASEN BHAWAN",
    "city": "Delhi",
    "postalCode": "110085",
    "state": "Delhi",
    "countryCode": "IN",
    "website": "https://sites.google.com/view/shrirammotors/home",
    "phone": "+919310369996",
    "phoneUnformatted": "+919310369996",
    "location": {
      "lat": 28.704693,
      "lng": 77.1126611
    },
    "totalScore": 4.3,
    "permanentlyClosed": false,
    "temporarilyClosed": false,
    "placeId": "ChIJ2frsBJkBDTkRtJXlD_jGNEE",
    "categories": [
      "Used car dealer"
    ],
    "reviewsCount": 8,
    "imagesCount": 2,
    "openingHours": [
      {
        "day": "Monday",
        "hours": "9 AM to 9 PM"
      },
      {
        "day": "Tuesday",
        "hours": "9 AM to 9 PM"
      },
      {
        "day": "Wednesday",
        "hours": "9 AM to 9 PM"
      },
      {
        "day": "Thursday",
        "hours": "9 AM to 9 PM"
      },
      {
        "day": "Friday",
        "hours": "9 AM to 9 PM"
      },
      {
        "day": "Saturday",
        "hours": "9 AM to 9 PM"
      },
      {
        "day": "Sunday",
        "hours": "9 AM to 9 PM"
      }
    ],
    "imageUrl": "https://streetviewpixels-pa.googleapis.com/v1/thumbnail?panoid=9r751-ip725qtO4eZrRD_g&cb_client=search.gws-prod.gps&w=408&h=240&yaw=215.88838&pitch=0&thumbfov=100",
    "url": "https://www.google.com/maps/search/?api=1&query=SHRI%20RAM%20MOTORS%20%3A%20Used%20Car%20Dealers%20%7C%20Second%20Hand%20Car%20%7C%20Luxury%20Car%20%7C%20Rohini&query_place_id=ChIJ2frsBJkBDTkRtJXlD_jGNEE"
  },
  {
    "title": "Shuban Sai Mahindra Showroom Najafgarh",
    "subTitle": "शुभन साई महिंद्रा शोरूम नजफगढ़",
    "categoryName": "Car dealer",
    "address": "Plot No - A 67, Indra Park, Masudabad, Najafgarh, Delhi, 110043, India",
    "neighborhood": "Indra Park, Masudabad, Najafgarh",
    "street": "Plot No - A 67",
    "city": "Delhi",
    "postalCode": "110043",
    "state": "Delhi",
    "countryCode": "IN",
    "website": "https://mahindrashowroom.shubansai.in/",
    "phone": "+919218039118",
    "phoneUnformatted": "+919218039118",
    "location": {
      "lat": 28.614542,
      "lng": 77.0027973
    },
    "totalScore": 4.9,
    "permanentlyClosed": false,
    "temporarilyClosed": false,
    "placeId": "ChIJKRtorT4PDTkRDidCJCNPeYc",
    "categories": [
      "Car dealer"
    ],
    "reviewsCount": 484,
    "imagesCount": 17,
    "openingHours": [
      {
        "day": "Monday",
        "hours": "9:30 AM to 6:30 PM"
      },
      {
        "day": "Tuesday",
        "hours": "9:30 AM to 6:30 PM"
      },
      {
        "day": "Wednesday",
        "hours": "9:30 AM to 6:30 PM"
      },
      {
        "day": "Thursday",
        "hours": "9:30 AM to 6:30 PM"
      },
      {
        "day": "Friday",
        "hours": "9:30 AM to 6:30 PM"
      },
      {
        "day": "Saturday",
        "hours": "9:30 AM to 6:30 PM"
      },
      {
        "day": "Sunday",
        "hours": "9:30 AM to 6:30 PM"
      }
    ],
    "imageUrl": "https://lh3.googleusercontent.com/p/AF1QipNcXB-OHC4301qHM0ZaT9NMkjBzvQKIhm47AIoO=w408-h254-k-no",
    "url": "https://www.google.com/maps/search/?api=1&query=Shuban%20Sai%20Mahindra%20Showroom%20Najafgarh&query_place_id=ChIJKRtorT4PDTkRDidCJCNPeYc"
  },
  {
    "title": "Sultan wedding luxury cars",
    "subTitle": "सुल्तान वेडिंग लक्जरी कार्स",
    "categoryName": "Car leasing service",
    "address": "house no, 489, Block 28, Himmatpuri, Trilokpuri, Delhi, 110091, India",
    "neighborhood": "Block 28, Himmatpuri, Trilokpuri",
    "street": "house no, 489",
    "city": "Delhi",
    "postalCode": "110091",
    "state": "Delhi",
    "countryCode": "IN",
    "phone": "+919871820715",
    "phoneUnformatted": "+919871820715",
    "location": {
      "lat": 28.6038369,
      "lng": 77.3043606
    },
    "totalScore": 5,
    "permanentlyClosed": false,
    "temporarilyClosed": false,
    "placeId": "ChIJrRxhtMLlDDkRF2YtRcVBLbg",
    "categories": [
      "Car leasing service"
    ],
    "reviewsCount": 27,
    "imagesCount": 74,
    "openingHours": [
      {
        "day": "Monday",
        "hours": "Open 24 hours"
      },
      {
        "day": "Tuesday",
        "hours": "Open 24 hours"
      },
      {
        "day": "Wednesday",
        "hours": "Open 24 hours"
      },
      {
        "day": "Thursday",
        "hours": "Open 24 hours"
      },
      {
        "day": "Friday",
        "hours": "Open 24 hours"
      },
      {
        "day": "Saturday",
        "hours": "Open 24 hours"
      },
      {
        "day": "Sunday",
        "hours": "Open 24 hours"
      }
    ],
    "imageUrl": "https://lh3.googleusercontent.com/p/AF1QipOsqcP4zGE-9_3MK-AwMOU5kHAGk-3c1glcgywQ=w408-h349-k-no",
    "url": "https://www.google.com/maps/search/?api=1&query=Sultan%20wedding%20luxury%20cars&query_place_id=ChIJrRxhtMLlDDkRF2YtRcVBLbg"
  },
  {
    "title": "Sumit Motors - Car Dealer",
    "subTitle": "सुमित मोटर्स - कार डीलर",
    "categoryName": "Used car dealer",
    "address": "Flat no 82, Pocket 7, Sector 2, Rohini, Delhi, 110085, India",
    "neighborhood": "Pocket 7, Sector 2, Rohini",
    "street": "Flat no 82",
    "city": "Delhi",
    "postalCode": "110085",
    "state": "Delhi",
    "countryCode": "IN",
    "website": "https://secondhandcardealer.in/",
    "phone": "+919212361001",
    "phoneUnformatted": "+919212361001",
    "location": {
      "lat": 28.7001716,
      "lng": 77.0997395
    },
    "totalScore": 3.5,
    "permanentlyClosed": false,
    "temporarilyClosed": false,
    "placeId": "ChIJn3yWAQEEDTkRIHXt40clH_w",
    "categories": [
      "Used car dealer"
    ],
    "reviewsCount": 8,
    "imagesCount": 56,
    "openingHours": [
      {
        "day": "Monday",
        "hours": "Closed"
      },
      {
        "day": "Tuesday",
        "hours": "10 AM to 8 PM"
      },
      {
        "day": "Wednesday",
        "hours": "10 AM to 8 PM"
      },
      {
        "day": "Thursday",
        "hours": "10 AM to 8 PM"
      },
      {
        "day": "Friday",
        "hours": "10 AM to 8 PM"
      },
      {
        "day": "Saturday",
        "hours": "10 AM to 8 PM"
      },
      {
        "day": "Sunday",
        "hours": "10 AM to 8 PM"
      }
    ],
    "imageUrl": "https://lh3.googleusercontent.com/gps-cs-s/AG0ilSzYQmYUu6AOe6RXgzFbIgyDMCCA9IxpW4S9emBZkPCUiztY-_vQhkgMIg_nTM-hqQDoW5PYXpNMf3MQ8-qCxwWt-3vdJ85dHAs2TsW30QHgSHP5EH4W8RJTaf4XK8faPF_-ap6t=w408-h306-k-no",
    "url": "https://www.google.com/maps/search/?api=1&query=Sumit%20Motors%20-%20Car%20Dealer&query_place_id=ChIJn3yWAQEEDTkRIHXt40clH_w"
  },
  {
    "title": "SUNNY DHAWAN MOTORS",
    "subTitle": "सनी धवन मोटर्स",
    "categoryName": "Used car dealer",
    "address": "JG-||, 771A, Outer Ring Rd, opp. CRPF Camp, Keshopur Village, Vikaspuri, Delhi, 110018, India",
    "neighborhood": "Keshopur Village, Vikaspuri",
    "street": "JG-||, 771A, Outer Ring Rd, opp. CRPF Camp",
    "city": "Delhi",
    "postalCode": "110018",
    "state": "Delhi",
    "countryCode": "IN",
    "phone": "+919810034549",
    "phoneUnformatted": "+919810034549",
    "location": {
      "lat": 28.6449796,
      "lng": 77.0836622
    },
    "totalScore": 4.9,
    "permanentlyClosed": false,
    "temporarilyClosed": false,
    "placeId": "ChIJz1zC-o4EDTkRzIB4MLS3PPA",
    "categories": [
      "Used car dealer"
    ],
    "reviewsCount": 67,
    "imagesCount": 55,
    "openingHours": [
      {
        "day": "Monday",
        "hours": "10 AM to 8 PM"
      },
      {
        "day": "Tuesday",
        "hours": "10 AM to 8 PM"
      },
      {
        "day": "Wednesday",
        "hours": "10 AM to 8 PM"
      },
      {
        "day": "Thursday",
        "hours": "10 AM to 8 PM"
      },
      {
        "day": "Friday",
        "hours": "10 AM to 8 PM"
      },
      {
        "day": "Saturday",
        "hours": "10 AM to 8 PM"
      },
      {
        "day": "Sunday",
        "hours": "10 AM to 8 PM"
      }
    ],
    "imageUrl": "https://lh3.googleusercontent.com/p/AF1QipPRBL4nlZMCJ1cGLAnsj3cyDm_4A2hCSjNOu28t=w408-h544-k-no",
    "url": "https://www.google.com/maps/search/?api=1&query=SUNNY%20DHAWAN%20MOTORS&query_place_id=ChIJz1zC-o4EDTkRzIB4MLS3PPA"
  },
  {
    "title": "Super Native Motors",
    "subTitle": "सुपर नेटिव मोटर्स",
    "categoryName": "Used car dealer",
    "address": "B-71, North Ex Mall, Rohini sector-14, Delhi-85, Delhi, 110085, India",
    "neighborhood": "Rajapur, Pocket 18, Sector 9, Rohini",
    "street": "B-71, North Ex Mall, Rohini sector-14, Delhi-85",
    "city": "Delhi",
    "postalCode": "110085",
    "state": "Delhi",
    "countryCode": "IN",
    "phone": "+919310983324",
    "phoneUnformatted": "+919310983324",
    "location": {
      "lat": 28.7146557,
      "lng": 77.1296291
    },
    "totalScore": 4.2,
    "permanentlyClosed": false,
    "temporarilyClosed": false,
    "placeId": "ChIJ5cDWkmYBDTkRIrfH3smu9Gs",
    "categories": [
      "Used car dealer"
    ],
    "reviewsCount": 19,
    "imagesCount": 5,
    "openingHours": [
      {
        "day": "Monday",
        "hours": "10 AM to 8 PM"
      },
      {
        "day": "Tuesday",
        "hours": "10 AM to 8 PM"
      },
      {
        "day": "Wednesday",
        "hours": "10 AM to 8 PM"
      },
      {
        "day": "Thursday",
        "hours": "10 AM to 8 PM"
      },
      {
        "day": "Friday",
        "hours": "10 AM to 8 PM"
      },
      {
        "day": "Saturday",
        "hours": "10 AM to 8 PM"
      },
      {
        "day": "Sunday",
        "hours": "10 AM to 8 PM"
      }
    ],
    "imageUrl": "https://lh3.googleusercontent.com/p/AF1QipOuwPLUvhc9Y9f4hIKBmi8CNtuSNL1FzY9IVKS9=w408-h408-k-no",
    "url": "https://www.google.com/maps/search/?api=1&query=Super%20Native%20Motors&query_place_id=ChIJ5cDWkmYBDTkRIrfH3smu9Gs"
  },
  {
    "title": "Suri Motors",
    "subTitle": "सूरी मोटर्स",
    "categoryName": "Used car dealer",
    "address": "J - 191, RBI Colony, Paschim Vihar, Opposite Radisson Blu Hotel, Delhi, 110026, India",
    "neighborhood": "West Punjabi Bagh, Punjabi Bagh",
    "street": "J - 191, RBI Colony, Paschim Vihar, Opposite Radisson Blu Hotel",
    "city": "Delhi",
    "postalCode": "110026",
    "state": "Delhi",
    "countryCode": "IN",
    "website": "http://www.romymotors.com/",
    "phone": "+919911111567",
    "phoneUnformatted": "+919911111567",
    "location": {
      "lat": 28.666676,
      "lng": 77.12139
    },
    "totalScore": 2.6,
    "permanentlyClosed": false,
    "temporarilyClosed": false,
    "placeId": "ChIJ_____3gEDTkRkQ0mRTiH1aQ",
    "categories": [
      "Used car dealer"
    ],
    "reviewsCount": 5,
    "imagesCount": 8,
    "openingHours": [
      {
        "day": "Monday",
        "hours": "10 AM to 9 PM"
      },
      {
        "day": "Tuesday",
        "hours": "10 AM to 9 PM"
      },
      {
        "day": "Wednesday",
        "hours": "10 AM to 9 PM"
      },
      {
        "day": "Thursday",
        "hours": "10 AM to 9 PM"
      },
      {
        "day": "Friday",
        "hours": "10 AM to 9 PM"
      },
      {
        "day": "Saturday",
        "hours": "10 AM to 9 PM"
      },
      {
        "day": "Sunday",
        "hours": "10 AM to 9 PM"
      }
    ],
    "imageUrl": "https://lh3.googleusercontent.com/gps-cs-s/AG0ilSzM63YDyxgfs3OtuJLDWNVMIcDToDkMlb7WaPfi8x1NSM3TgPgk_URiddLsg4KNr8QjZAAYnYHj1P0SFwRFmk3K_kLtUmaI8Y2w5WrZe7p6noCVas_gtE-tLYTy5BxLJwUGeJUFtg=w408-h861-k-no",
    "url": "https://www.google.com/maps/search/?api=1&query=Suri%20Motors&query_place_id=ChIJ_____3gEDTkRkQ0mRTiH1aQ"
  },
  {
    "title": "THE CAR EXPERT",
    "subTitle": "द कार एक्सपर्ट",
    "categoryName": "Motor vehicle dealer",
    "address": "4, Nangloi - Najafgarh Rd, D Block Extension, Najafgarh Extension, Najafgarh, Delhi, 110043, India",
    "neighborhood": "D Block Extension, Najafgarh Extension, Najafgarh",
    "street": "4, Nangloi - Najafgarh Rd",
    "city": "Delhi",
    "postalCode": "110043",
    "state": "Delhi",
    "countryCode": "IN",
    "website": "https://www.carexpertindia.com/",
    "phone": "+919266223333",
    "phoneUnformatted": "+919266223333",
    "location": {
      "lat": 28.6184417,
      "lng": 76.9852476
    },
    "totalScore": 4,
    "permanentlyClosed": false,
    "temporarilyClosed": false,
    "placeId": "ChIJY1n_gzIPDTkRZav61m3sCbY",
    "categories": [
      "Motor vehicle dealer"
    ],
    "reviewsCount": 4,
    "imagesCount": 8,
    "openingHours": [
      {
        "day": "Monday",
        "hours": "8 AM to 9 PM"
      },
      {
        "day": "Tuesday",
        "hours": "8 AM to 9 PM"
      },
      {
        "day": "Wednesday",
        "hours": "8 AM to 9 PM"
      },
      {
        "day": "Thursday",
        "hours": "8 AM to 9 PM"
      },
      {
        "day": "Friday",
        "hours": "8 AM to 9 PM"
      },
      {
        "day": "Saturday",
        "hours": "8 AM to 9 PM"
      },
      {
        "day": "Sunday",
        "hours": "8 AM to 9 PM"
      }
    ],
    "imageUrl": "https://lh3.googleusercontent.com/p/AF1QipOYsZGERNPFHGeIwXEGItPd16V0bJeZSBvY-_vy=w408-h305-k-no",
    "url": "https://www.google.com/maps/search/?api=1&query=THE%20CAR%20EXPERT&query_place_id=ChIJY1n_gzIPDTkRZav61m3sCbY"
  },
  {
    "title": "The Car Mall",
    "subTitle": "कार मॉल",
    "categoryName": "Car dealer",
    "address": "17/10, Ground Floor, Old Rajinder Nagar, New Delhi-110008, Delhi, 110060, India",
    "neighborhood": "Block 17, Rajinder Nagar",
    "street": "17/10, Ground Floor, Old Rajinder Nagar, New Delhi-110008",
    "city": "Delhi",
    "postalCode": "110060",
    "state": "Delhi",
    "countryCode": "IN",
    "website": "http://thecarmall.co.in/",
    "phone": "+919811242588",
    "phoneUnformatted": "+919811242588",
    "location": {
      "lat": 28.639032,
      "lng": 77.1838446
    },
    "totalScore": 4.3,
    "permanentlyClosed": false,
    "temporarilyClosed": false,
    "placeId": "ChIJG3m3OaMCDTkR8GyIOAwfAHc",
    "categories": [
      "Car dealer",
      "Used car dealer"
    ],
    "reviewsCount": 165,
    "imagesCount": 58,
    "openingHours": [
      {
        "day": "Monday",
        "hours": "10 AM to 7 PM"
      },
      {
        "day": "Tuesday",
        "hours": "10 AM to 7 PM"
      },
      {
        "day": "Wednesday",
        "hours": "10 AM to 7 PM"
      },
      {
        "day": "Thursday",
        "hours": "10 AM to 7 PM"
      },
      {
        "day": "Friday",
        "hours": "10 AM to 7 PM"
      },
      {
        "day": "Saturday",
        "hours": "10 AM to 7 PM"
      },
      {
        "day": "Sunday",
        "hours": "10 AM to 7 PM"
      }
    ],
    "imageUrl": "https://lh3.googleusercontent.com/p/AF1QipNY24w11YhMWtoFsIyqu-nZgrUtthvzgjjMr9ef=w426-h240-k-no",
    "url": "https://www.google.com/maps/search/?api=1&query=The%20Car%20Mall&query_place_id=ChIJG3m3OaMCDTkR8GyIOAwfAHc"
  },
  {
    "title": "Tishika Tour & Travel",
    "subTitle": "तिषिका टूर & ट्रैवल",
    "categoryName": "Car rental agency",
    "address": "Kh. No. 91, 18, Seed Farm raod, Block, Alipur, Delhi, 110036, India",
    "neighborhood": "Block, Alipur",
    "street": "Kh. No. 91, 18, Seed Farm raod",
    "city": "Delhi",
    "postalCode": "110036",
    "state": "Delhi",
    "countryCode": "IN",
    "website": "https://tishikatourandtravel.com/",
    "phone": "+917428810154",
    "phoneUnformatted": "+917428810154",
    "location": {
      "lat": 28.7924876,
      "lng": 77.1392945
    },
    "totalScore": 4.7,
    "permanentlyClosed": false,
    "temporarilyClosed": false,
    "placeId": "ChIJqT8i4-4BDTkRYo5k0Nz96rY",
    "categories": [
      "Car rental agency",
      "Bus tour agency",
      "Car leasing service",
      "Taxi service",
      "Minibus taxi service",
      "Rental car return location",
      "Tour operator",
      "Travel agency"
    ],
    "reviewsCount": 66,
    "imagesCount": 68,
    "openingHours": [],
    "imageUrl": "https://lh3.googleusercontent.com/p/AF1QipOGiNItoATDDqYUfXuiPOyCOsO3P9lXS3GzcQPb=w408-h306-k-no",
    "url": "https://www.google.com/maps/search/?api=1&query=Tishika%20Tour%20%26%20Travel&query_place_id=ChIJqT8i4-4BDTkRYo5k0Nz96rY"
  },
  {
    "title": "TRAVEL IN LUXURY",
    "subTitle": "ट्रैवल इन लक्जरी",
    "categoryName": "Car dealer",
    "address": "Ground Floor, Deep Enclave, 114 - A, Phase 3, Ashok Vihar III, Ashok Vihar, Delhi, 110052, India",
    "neighborhood": "Phase 3, Ashok Vihar III, Ashok Vihar",
    "street": "Ground Floor, Deep Enclave, 114 - A",
    "city": "Delhi",
    "postalCode": "110052",
    "state": "Delhi",
    "countryCode": "IN",
    "phone": "+918750010001",
    "phoneUnformatted": "+918750010001",
    "location": {
      "lat": 28.6917629,
      "lng": 77.1773246
    },
    "totalScore": 4.4,
    "permanentlyClosed": false,
    "temporarilyClosed": false,
    "placeId": "ChIJN9WPpw8CDTkRNOUzz2bCMPk",
    "categories": [
      "Car dealer"
    ],
    "reviewsCount": 21,
    "imagesCount": 137,
    "openingHours": [],
    "imageUrl": "https://lh3.googleusercontent.com/p/AF1QipPST5ufnn54Qw0QTAKnucyNLRIE6j9dUr_9Aaou=w426-h240-k-no",
    "url": "https://www.google.com/maps/search/?api=1&query=TRAVEL%20IN%20LUXURY&query_place_id=ChIJN9WPpw8CDTkRNOUzz2bCMPk"
  },
  {
    "title": "TSG Used Cars",
    "subTitle": "टीएसजी यूज्ड कार्स",
    "categoryName": "Used car dealer",
    "address": "1 A, Najafgarh Rd, Moti Nagar, Shahpura, Chaukhandi, Vishnu Garden, Delhi, 110018, India",
    "neighborhood": "Moti Nagar, Shahpura, Chaukhandi, Vishnu Garden",
    "street": "1 A, Najafgarh Rd",
    "city": "Delhi",
    "postalCode": "110018",
    "state": "Delhi",
    "countryCode": "IN",
    "phone": "+919205582202",
    "phoneUnformatted": "+919205582202",
    "location": {
      "lat": 28.6473006,
      "lng": 77.0890363
    },
    "totalScore": 5,
    "permanentlyClosed": false,
    "temporarilyClosed": false,
    "placeId": "ChIJZ7Qsw1gDDTkRYK_jUXPYo9E",
    "categories": [
      "Used car dealer",
      "Car dealer"
    ],
    "reviewsCount": 2,
    "imagesCount": 2,
    "openingHours": [
      {
        "day": "Monday",
        "hours": "9:30 AM to 6:30 PM"
      },
      {
        "day": "Tuesday",
        "hours": "9:30 AM to 6:30 PM"
      },
      {
        "day": "Wednesday",
        "hours": "9:30 AM to 6:30 PM"
      },
      {
        "day": "Thursday",
        "hours": "9:30 AM to 6:30 PM"
      },
      {
        "day": "Friday",
        "hours": "9:30 AM to 6:30 PM"
      },
      {
        "day": "Saturday",
        "hours": "9:30 AM to 6:30 PM"
      },
      {
        "day": "Sunday",
        "hours": "9:30 AM to 6:30 PM"
      }
    ],
    "imageUrl": "https://lh3.googleusercontent.com/p/AF1QipNuEpG4Z7uTDehbRwiqZ0rHMB0sWXhk7FKlxgY=w630-h240-k-no",
    "url": "https://www.google.com/maps/search/?api=1&query=TSG%20Used%20Cars&query_place_id=ChIJZ7Qsw1gDDTkRYK_jUXPYo9E"
  },
  {
    "title": "Vriddhi Dream Wheels",
    "subTitle": "वृद्धि ड्रीम व्हील्स",
    "categoryName": "Used car dealer",
    "address": "Plot-63, Pocket, 7, Sector 23b, Dwarka, Delhi, 110077, India",
    "neighborhood": "Sector 23b, Dwarka",
    "street": "Plot-63, Pocket, 7",
    "city": "Delhi",
    "postalCode": "110077",
    "state": "Delhi",
    "countryCode": "IN",
    "phone": "+918700479742",
    "phoneUnformatted": "+918700479742",
    "location": {
      "lat": 28.5608779,
      "lng": 77.0403026
    },
    "totalScore": 4.7,
    "permanentlyClosed": false,
    "temporarilyClosed": false,
    "placeId": "ChIJXey4gkAbDTkRwnkoSj2RyGk",
    "categories": [
      "Used car dealer"
    ],
    "reviewsCount": 29,
    "imagesCount": 64,
    "openingHours": [
      {
        "day": "Monday",
        "hours": "9 AM to 7 PM"
      },
      {
        "day": "Tuesday",
        "hours": "9 AM to 7 PM"
      },
      {
        "day": "Wednesday",
        "hours": "9 AM to 7 PM"
      },
      {
        "day": "Thursday",
        "hours": "9 AM to 7 PM"
      },
      {
        "day": "Friday",
        "hours": "9 AM to 7 PM"
      },
      {
        "day": "Saturday",
        "hours": "9 AM to 7 PM"
      },
      {
        "day": "Sunday",
        "hours": "9 AM to 7 PM"
      }
    ],
    "imageUrl": "https://lh3.googleusercontent.com/p/AF1QipMeOQNt7GN55cADYWAy0qi6sgIJNN_JDrIEcKHd=w408-h408-k-no",
    "url": "https://www.google.com/maps/search/?api=1&query=Vriddhi%20Dream%20Wheels&query_place_id=ChIJXey4gkAbDTkRwnkoSj2RyGk"
  },
  {
    "title": "Wedding Luxury Cars",
    "subTitle": "वेडिंग लक्जरी कार्स",
    "categoryName": "Car rental agency",
    "address": "A/2, E Block, Plot Number 443, near Max Garden, Shyam Vihar Phase-1, Najafgarh, Delhi, 110072, India",
    "neighborhood": "Shyam Vihar Phase-1, Najafgarh",
    "street": "A/2, E Block, Plot Number 443, near Max Garden",
    "city": "Delhi",
    "postalCode": "110072",
    "state": "Delhi",
    "countryCode": "IN",
    "location": {
      "lat": 28.6261182,
      "lng": 76.9735842
    },
    "permanentlyClosed": false,
    "temporarilyClosed": false,
    "placeId": "ChIJ3Yj0BbcPDTkRAN4N-ByLSsE",
    "categories": [
      "Car rental agency"
    ],
    "openingHours": [],
    "url": "https://www.google.com/maps/search/?api=1&query=Wedding%20Luxury%20Cars&query_place_id=ChIJ3Yj0BbcPDTkRAN4N-ByLSsE"
  }
]
