[
  {
    "title": "Advantage",
    "subTitle": "অ্যাডভান্টেজ",
    "categoryName": "Used car dealer",
    "address": "Q46, Sarath Chandra Ave, B-Zone, Durgapur, West Bengal 713205, India",
    "neighborhood": "B-Zone",
    "street": "Q46, Sarath Chandra Ave",
    "city": "Durgapur",
    "postalCode": "713205",
    "state": "West Bengal",
    "countryCode": "IN",
    "phone": "+918945969382",
    "phoneUnformatted": "+918945969382",
    "location": {
      "lat": 23.5632417,
      "lng": 87.3101677
    },
    "totalScore": 3.5,
    "permanentlyClosed": false,
    "temporarilyClosed": false,
    "placeId": "ChIJ89fM2Q9u9zkRJIkMvxu3bfo",
    "categories": [
      "Used car dealer",
      "Auto broker"
    ],
    "reviewsCount": 10,
    "imagesCount": 47,
    "openingHours": [
      {
        "day": "Monday",
        "hours": "9 AM to 10 PM"
      },
      {
        "day": "Tuesday",
        "hours": "9 AM to 10 PM"
      },
      {
        "day": "Wednesday",
        "hours": "9 AM to 10 PM"
      },
      {
        "day": "Thursday",
        "hours": "Closed"
      },
      {
        "day": "Friday",
        "hours": "9 AM to 10 PM"
      },
      {
        "day": "Saturday",
        "hours": "9 AM to 9 PM"
      },
      {
        "day": "Sunday",
        "hours": "9 AM to 10 PM"
      }
    ],
    "imageUrl": "https://media.indianluxurycars.com/google/86825d2a19d7ca63f5589ce0863f8a056a708f1475891116e1e8fa11890c58b0.jpg",
    "url": "https://www.google.com/maps/search/?api=1&query=Advantage&query_place_id=ChIJ89fM2Q9u9zkRJIkMvxu3bfo"
  },
  {
    "title": "Amazing Automobiles",
    "subTitle": "অ্যামেজিং অটোমোবাইলস",
    "categoryName": "Used car dealer",
    "address": "Urvashi Complex, CA-8 B. R, Ambedkar Sarani, Bengal Ambuja Housing Complex, Phase-II, City Center, Durgapur, West Bengal 713216, India",
    "neighborhood": "Bengal Ambuja Housing Complex, Phase-II, City Center",
    "street": "Urvashi Complex, CA-8 B. R, Ambedkar Sarani",
    "city": "Durgapur",
    "postalCode": "713216",
    "state": "West Bengal",
    "countryCode": "IN",
    "location": {
      "lat": 23.5414602,
      "lng": 87.3055886
    },
    "permanentlyClosed": false,
    "temporarilyClosed": false,
    "placeId": "ChIJCzi4F45x9zkR1b0xRXLsYR4",
    "categories": [
      "Used car dealer"
    ],
    "imagesCount": 11,
    "openingHours": [
      {
        "day": "Monday",
        "hours": "10 AM to 7:30 PM"
      },
      {
        "day": "Tuesday",
        "hours": "10 AM to 7:30 PM"
      },
      {
        "day": "Wednesday",
        "hours": "10 AM to 7:30 PM"
      },
      {
        "day": "Thursday",
        "hours": "10 AM to 7:30 PM"
      },
      {
        "day": "Friday",
        "hours": "10 AM to 7:30 PM"
      },
      {
        "day": "Saturday",
        "hours": "10 AM to 7:30 PM"
      },
      {
        "day": "Sunday",
        "hours": "10 AM to 7:30 PM"
      }
    ],
    "imageUrl": "https://media.indianluxurycars.com/google/da96ca6375ee036b30699d192bedb747e02d736fbb0ae90f4085ab586e4da475.jpg",
    "url": "https://www.google.com/maps/search/?api=1&query=Amazing%20Automobiles&query_place_id=ChIJCzi4F45x9zkR1b0xRXLsYR4"
  },
  {
    "title": "Auto Galleria",
    "subTitle": "অটো গ্যালারী",
    "categoryName": "Used car dealer",
    "address": "48 Moulana, Maulana Azad Sarani, SAIL Co-operative, City Center, Durgapur, West Bengal 713216, India",
    "neighborhood": "SAIL Co-operative, City Center",
    "street": "48 Moulana, Maulana Azad Sarani",
    "city": "Durgapur",
    "postalCode": "713216",
    "state": "West Bengal",
    "countryCode": "IN",
    "phone": "+919608608888",
    "phoneUnformatted": "+919608608888",
    "location": {
      "lat": 23.5437927,
      "lng": 87.3042191
    },
    "totalScore": 4.3,
    "permanentlyClosed": false,
    "temporarilyClosed": true,
    "placeId": "ChIJ__Gm0zVx9zkR6askDIsZ1gk",
    "categories": [
      "Used car dealer"
    ],
    "reviewsCount": 6,
    "imagesCount": 1,
    "openingHours": [],
    "imageUrl": "https://media.indianluxurycars.com/google/d7bbe38a4d8a3d6fef12494b87bd50570d208bd952bfacdaf8f1492b8cdfa7b4.jpg",
    "url": "https://www.google.com/maps/search/?api=1&query=Auto%20Galleria&query_place_id=ChIJ__Gm0zVx9zkR6askDIsZ1gk"
  },
  {
    "title": "Auto Plaza",
    "subTitle": "অটো প্লাজা",
    "categoryName": "Used car dealer",
    "address": "Netwatch Digital Solutions Pvt Limited, Ambedkar Sarani, Ambuja, Durgapur, West Bengal 713216, India",
    "neighborhood": "Ambuja",
    "street": "Netwatch Digital Solutions Pvt Limited, Ambedkar Sarani",
    "city": "Durgapur",
    "postalCode": "713216",
    "state": "West Bengal",
    "countryCode": "IN",
    "phone": "+919434009995",
    "phoneUnformatted": "+919434009995",
    "location": {
      "lat": 23.5419717,
      "lng": 87.3059437
    },
    "totalScore": 4.5,
    "permanentlyClosed": false,
    "temporarilyClosed": false,
    "placeId": "ChIJ119baPlx9zkRyPJMvy1P6dk",
    "categories": [
      "Used car dealer"
    ],
    "reviewsCount": 55,
    "imagesCount": 96,
    "openingHours": [
      {
        "day": "Monday",
        "hours": "10 AM to 12 AM"
      },
      {
        "day": "Tuesday",
        "hours": "12 to 7:30 AM, 10 AM to 12 AM"
      },
      {
        "day": "Wednesday",
        "hours": "12 to 7:30 AM, 10 AM to 12 AM"
      },
      {
        "day": "Thursday",
        "hours": "12 to 7:30 AM, 10 AM to 12 AM"
      },
      {
        "day": "Friday",
        "hours": "12 to 7:30 AM, 10 AM to 12 AM"
      },
      {
        "day": "Saturday",
        "hours": "12 to 7:30 AM, 10 AM to 12 AM"
      },
      {
        "day": "Sunday",
        "hours": "12 to 7:30 AM"
      }
    ],
    "imageUrl": "https://media.indianluxurycars.com/google/1878c532e262966c0d789a907e96b54f63c11b74d347eb6318736dd298e4183d.jpg",
    "url": "https://www.google.com/maps/search/?api=1&query=Auto%20Plaza&query_place_id=ChIJ119baPlx9zkRyPJMvy1P6dk"
  },
  {
    "title": "Car info Durgapur",
    "subTitle": "কার ইনফো দুর্গাপুর",
    "categoryName": "Car leasing service",
    "address": "Number-35, RC-34 Bengal Ambuja, Street, City Center, Durgapur, West Bengal 713216, India",
    "neighborhood": "Bengal Ambuja Housing Complex, City Center",
    "street": "Number-35, RC-34 Bengal Ambuja, Street",
    "city": "Durgapur",
    "postalCode": "713216",
    "state": "West Bengal",
    "countryCode": "IN",
    "phone": "+918927658107",
    "phoneUnformatted": "+918927658107",
    "location": {
      "lat": 23.5400746,
      "lng": 87.3052879
    },
    "totalScore": 5,
    "permanentlyClosed": false,
    "temporarilyClosed": true,
    "placeId": "ChIJPzv1ds5x9zkRUN3YEwhX2u8",
    "categories": [
      "Car leasing service"
    ],
    "reviewsCount": 1,
    "imagesCount": 5,
    "openingHours": [],
    "imageUrl": "https://media.indianluxurycars.com/google/04f45953ffec5a7bba0eda1f369df876f3a3d38850d6c2eb80d6f3d639b6112d.jpg",
    "url": "https://www.google.com/maps/search/?api=1&query=Car%20info%20Durgapur&query_place_id=ChIJPzv1ds5x9zkRUN3YEwhX2u8"
  },
  {
    "title": "Durgapur cab service",
    "subTitle": "দুর্গাপুর ক্যাব সার্ভিস",
    "categoryName": "Car rental agency",
    "address": "3/19, Bengal Ambuja St, Bengal Ambuja Housing Complex, City Center, Durgapur, West Bengal 713216, India",
    "neighborhood": "Bengal Ambuja Housing Complex, City Center",
    "street": "3/19, Bengal Ambuja St",
    "city": "Durgapur",
    "postalCode": "713216",
    "state": "West Bengal",
    "countryCode": "IN",
    "website": "http://dcscabs.com/",
    "phone": "+919733333000",
    "phoneUnformatted": "+919733333000",
    "location": {
      "lat": 23.5375821,
      "lng": 87.3031731
    },
    "totalScore": 4.6,
    "permanentlyClosed": false,
    "temporarilyClosed": false,
    "placeId": "ChIJY_GnfQ9y9zkRN9241nNoiKY",
    "categories": [
      "Car rental agency",
      "Car leasing service",
      "Taxi service"
    ],
    "reviewsCount": 182,
    "imagesCount": 296,
    "openingHours": [],
    "imageUrl": "https://media.indianluxurycars.com/google/bc109dd3f6669ec095b5fc07dabd7615cc283e9eea23898b18a9e69816a52464.jpg",
    "url": "https://www.google.com/maps/search/?api=1&query=Durgapur%20cab%20service&query_place_id=ChIJY_GnfQ9y9zkRN9241nNoiKY"
  },
  {
    "title": "Eicher Trucks and Buses - Company Owned Outlet - Durgapur, City Center",
    "subTitle": "আইচের ট্রাকস এন্ড বাসস - কোম্পানি আওয়ানড আউটলেট - দুর্গাপুর, সিটি সেন্টার",
    "categoryName": "Truck dealer",
    "address": "Shop No 31, 3rd Floor, SUHATTA MALL, opposite Haldiram, Bengal Ambuja Housing Complex, City Center, Durgapur, West Bengal 713216, India",
    "neighborhood": "Bengal Ambuja Housing Complex, City Center",
    "street": "Shop No 31, 3rd Floor, SUHATTA MALL, opposite Haldiram",
    "city": "Durgapur",
    "postalCode": "713216",
    "state": "West Bengal",
    "countryCode": "IN",
    "website": "https://www.eichertrucksandbuses.com/?utm_source=gmb&utm_medium=google&utm_campaign=seo-local",
    "phone": "+918037839222",
    "phoneUnformatted": "+918037839222",
    "location": {
      "lat": 23.5373864,
      "lng": 87.3046317
    },
    "totalScore": 5,
    "permanentlyClosed": false,
    "temporarilyClosed": false,
    "placeId": "ChIJQx0cG_Bx9zkRWch9NSitRMw",
    "categories": [
      "Truck dealer",
      "Motor vehicle dealer",
      "Truck parts supplier",
      "Truck repair shop"
    ],
    "reviewsCount": 41,
    "imagesCount": 62,
    "openingHours": [
      {
        "day": "Monday",
        "hours": "9 AM to 6:30 PM"
      },
      {
        "day": "Tuesday",
        "hours": "9 AM to 6:30 PM"
      },
      {
        "day": "Wednesday",
        "hours": "9 AM to 6:30 PM"
      },
      {
        "day": "Thursday",
        "hours": "9 AM to 6:30 PM"
      },
      {
        "day": "Friday",
        "hours": "9 AM to 6:30 PM"
      },
      {
        "day": "Saturday",
        "hours": "9 AM to 6:30 PM"
      },
      {
        "day": "Sunday",
        "hours": "9 AM to 6:30 PM"
      }
    ],
    "imageUrl": "https://media.indianluxurycars.com/google/4d48ad1e972e970f6cc5351f6874579bd8100e839e55be226f9bef0e54a8a821.png",
    "url": "https://www.google.com/maps/search/?api=1&query=Eicher%20Trucks%20and%20Buses%20-%20Company%20Owned%20Outlet%20-%20Durgapur%2C%20City%20Center&query_place_id=ChIJQx0cG_Bx9zkRWch9NSitRMw"
  },
  {
    "title": "First Car",
    "subTitle": "ফার্স্ট কার",
    "categoryName": "Car dealer",
    "address": "50, Kabiguru Sarani, SAIL Co-operative, City Center, Durgapur, West Bengal 713216, India",
    "neighborhood": "SAIL Co-operative, City Center",
    "street": "50, Kabiguru Sarani",
    "city": "Durgapur",
    "postalCode": "713216",
    "state": "West Bengal",
    "countryCode": "IN",
    "phone": "+919333950618",
    "phoneUnformatted": "+919333950618",
    "location": {
      "lat": 23.5450724,
      "lng": 87.3092077
    },
    "totalScore": 3.3,
    "permanentlyClosed": false,
    "temporarilyClosed": false,
    "placeId": "ChIJuRf5ivxx9zkRrh7Kur9oJXQ",
    "categories": [
      "Car dealer",
      "Auto broker"
    ],
    "reviewsCount": 76,
    "imagesCount": 37,
    "openingHours": [
      {
        "day": "Monday",
        "hours": "10 AM to 8:30 PM"
      },
      {
        "day": "Tuesday",
        "hours": "10 AM to 8:30 PM"
      },
      {
        "day": "Wednesday",
        "hours": "10 AM to 8:30 PM"
      },
      {
        "day": "Thursday",
        "hours": "10 AM to 8:30 PM"
      },
      {
        "day": "Friday",
        "hours": "10 AM to 8:30 PM"
      },
      {
        "day": "Saturday",
        "hours": "10 AM to 8:30 PM"
      },
      {
        "day": "Sunday",
        "hours": "Closed"
      }
    ],
    "imageUrl": "https://media.indianluxurycars.com/google/ebc6b968a96af864ecccea2e54c0a000ef3d826e0498c943df33702cf2a9c0a1.jpg",
    "url": "https://www.google.com/maps/search/?api=1&query=First%20Car&query_place_id=ChIJuRf5ivxx9zkRrh7Kur9oJXQ"
  },
  {
    "title": "Ghumaakar Cabs Durgapur",
    "subTitle": "ঘুমালে ক্যাব দুর্গাপুর",
    "categoryName": "Car rental agency",
    "address": "Bus Stand, Near, Mahatma Gandhi Rd, Benachity, Durgapur, West Bengal 713216, India",
    "neighborhood": "Benachity",
    "street": "Bus Stand, Near, Mahatma Gandhi Rd",
    "city": "Durgapur",
    "postalCode": "713216",
    "state": "West Bengal",
    "countryCode": "IN",
    "website": "https://www.ghumaakar.com/",
    "phone": "+918001516600",
    "phoneUnformatted": "+918001516600",
    "location": {
      "lat": 23.5415556,
      "lng": 87.2897288
    },
    "totalScore": 5,
    "permanentlyClosed": false,
    "temporarilyClosed": false,
    "placeId": "ChIJf3X7_UBz9zkROj2ERFxNUPE",
    "categories": [
      "Car rental agency",
      "Airport shuttle service",
      "Car leasing service",
      "Taxi service",
      "Transportation service",
      "Travel agency"
    ],
    "reviewsCount": 12,
    "imagesCount": 22,
    "openingHours": [
      {
        "day": "Monday",
        "hours": "Open 24 hours"
      },
      {
        "day": "Tuesday",
        "hours": "Open 24 hours"
      },
      {
        "day": "Wednesday",
        "hours": "Open 24 hours"
      },
      {
        "day": "Thursday",
        "hours": "Open 24 hours"
      },
      {
        "day": "Friday",
        "hours": "Open 24 hours"
      },
      {
        "day": "Saturday",
        "hours": "Open 24 hours"
      },
      {
        "day": "Sunday",
        "hours": "Open 24 hours"
      }
    ],
    "imageUrl": "https://media.indianluxurycars.com/google/eccdf2447af77149b472b2be7d6ca741991ee8f8190b549b419b93d3614efb82.jpg",
    "url": "https://www.google.com/maps/search/?api=1&query=Ghumaakar%20Cabs%20Durgapur&query_place_id=ChIJf3X7_UBz9zkROj2ERFxNUPE"
  },
  {
    "title": "GO CAB",
    "subTitle": "জিও ক্যাব",
    "categoryName": "Car rental agency",
    "address": "Gitanjali Park, Cinema Hall, Bengal Ambuja St, City Center, Durgapur, West Bengal 713216, India",
    "neighborhood": "City Center",
    "street": "Gitanjali Park, Cinema Hall, Bengal Ambuja St",
    "city": "Durgapur",
    "postalCode": "713216",
    "state": "West Bengal",
    "countryCode": "IN",
    "phone": "+918250511455",
    "phoneUnformatted": "+918250511455",
    "location": {
      "lat": 23.5349375,
      "lng": 87.3058281
    },
    "totalScore": 4.7,
    "permanentlyClosed": false,
    "temporarilyClosed": false,
    "placeId": "ChIJhT3WIG1x9zkR3b7dbJ9XcWU",
    "categories": [
      "Car rental agency",
      "Car leasing service",
      "Taxi service"
    ],
    "reviewsCount": 159,
    "imagesCount": 90,
    "openingHours": [
      {
        "day": "Monday",
        "hours": "Open 24 hours"
      },
      {
        "day": "Tuesday",
        "hours": "Open 24 hours"
      },
      {
        "day": "Wednesday",
        "hours": "Open 24 hours"
      },
      {
        "day": "Thursday",
        "hours": "Open 24 hours"
      },
      {
        "day": "Friday",
        "hours": "Open 24 hours"
      },
      {
        "day": "Saturday",
        "hours": "Open 24 hours"
      },
      {
        "day": "Sunday",
        "hours": "Open 24 hours"
      }
    ],
    "imageUrl": "https://media.indianluxurycars.com/google/d573bba4abe2704ca2aaadf82db398e1b2aa94dee6e29b23dde005b92ad15ecd.jpg",
    "url": "https://www.google.com/maps/search/?api=1&query=GO%20CAB&query_place_id=ChIJhT3WIG1x9zkR3b7dbJ9XcWU"
  },
  {
    "title": "Maa tour & Travels",
    "subTitle": "মা ট্যুর & ট্রাভেলস",
    "categoryName": "Car rental agency",
    "address": "West Bengal Durgapur B zone, 5, Nagaarjuna Road, extatenshan, Durgapur, West Bengal 713205, India",
    "neighborhood": "extatenshan",
    "street": "West Bengal Durgapur B zone, 5, Nagaarjuna Road",
    "city": "Durgapur",
    "postalCode": "713205",
    "state": "West Bengal",
    "countryCode": "IN",
    "phone": "+917029511263",
    "phoneUnformatted": "+917029511263",
    "location": {
      "lat": 23.5578368,
      "lng": 87.3288644
    },
    "totalScore": 2.7,
    "permanentlyClosed": false,
    "temporarilyClosed": false,
    "placeId": "ChIJpT9E5oBv9zkR_y0BluYL-Lk",
    "categories": [
      "Car rental agency"
    ],
    "reviewsCount": 3,
    "imagesCount": 68,
    "openingHours": [
      {
        "day": "Monday",
        "hours": "Open 24 hours"
      },
      {
        "day": "Tuesday",
        "hours": "Open 24 hours"
      },
      {
        "day": "Wednesday",
        "hours": "Open 24 hours"
      },
      {
        "day": "Thursday",
        "hours": "Open 24 hours"
      },
      {
        "day": "Friday",
        "hours": "Open 24 hours"
      },
      {
        "day": "Saturday",
        "hours": "Open 24 hours"
      },
      {
        "day": "Sunday",
        "hours": "Open 24 hours"
      }
    ],
    "imageUrl": "https://media.indianluxurycars.com/google/a35aa6369c50a91a355fb979f2af9f4e9a6f635165eb3638f40d50eaa87f9cb0.jpg",
    "url": "https://www.google.com/maps/search/?api=1&query=Maa%20tour%20%26%20Travels&query_place_id=ChIJpT9E5oBv9zkR_y0BluYL-Lk"
  },
  {
    "title": "ManiKrishna Travels ( Car rental service in Durgapur)",
    "subTitle": "মানিকৃষ্ণ ট্রাভেলস ( কার রেন্টাল সার্ভিস ইন দুর্গাপুর)",
    "categoryName": "Car rental agency",
    "address": "Kadamtala, Sagarbhanga, Durgapur, West Bengal 713211, India",
    "neighborhood": "Kadamtala, Sagarbhanga",
    "city": "Durgapur",
    "postalCode": "713211",
    "state": "West Bengal",
    "countryCode": "IN",
    "phone": "+919932701275",
    "phoneUnformatted": "+919932701275",
    "location": {
      "lat": 23.4964087,
      "lng": 87.3339526
    },
    "totalScore": 4.9,
    "permanentlyClosed": false,
    "temporarilyClosed": false,
    "placeId": "ChIJJ35GiA9x9zkRd7g-1y2OeYs",
    "categories": [
      "Car rental agency"
    ],
    "reviewsCount": 59,
    "imagesCount": 10,
    "openingHours": [
      {
        "day": "Monday",
        "hours": "Open 24 hours"
      },
      {
        "day": "Tuesday",
        "hours": "Open 24 hours"
      },
      {
        "day": "Wednesday",
        "hours": "Open 24 hours"
      },
      {
        "day": "Thursday",
        "hours": "Open 24 hours"
      },
      {
        "day": "Friday",
        "hours": "Open 24 hours"
      },
      {
        "day": "Saturday",
        "hours": "Open 24 hours"
      },
      {
        "day": "Sunday",
        "hours": "Open 24 hours"
      }
    ],
    "imageUrl": "https://media.indianluxurycars.com/google/e906ecc6e710a3e3d1c09256d596288ebbf9d1a9fedc02298e68bd5782d4da64.jpg",
    "url": "https://www.google.com/maps/search/?api=1&query=ManiKrishna%20Travels%20(%20Car%20rental%20service%20in%20Durgapur)&query_place_id=ChIJJ35GiA9x9zkRd7g-1y2OeYs"
  },
  {
    "title": "NAG ENTERPRISE (CAR HIRE) Your satisfaction is our passion.",
    "subTitle": "এনএজি ইন্টারপ্রাইজ (সিএআর এইচআইআরই) ইওর স্যাটিসফাকশন ইস ওর প্যাশন.",
    "categoryName": "Car rental agency",
    "address": "Sub Lane, 01-Manik Bandopadhyay Path, Kabiguru Sarani, SAIL Co-operative, City Center, Durgapur, West Bengal 713216, India",
    "neighborhood": "SAIL Co-operative, City Center",
    "street": "Sub Lane, 01-Manik Bandopadhyay Path, Kabiguru Sarani",
    "city": "Durgapur",
    "postalCode": "713216",
    "state": "West Bengal",
    "countryCode": "IN",
    "phone": "+919932493689",
    "phoneUnformatted": "+919932493689",
    "location": {
      "lat": 23.5463192,
      "lng": 87.3100573
    },
    "totalScore": 4.4,
    "permanentlyClosed": false,
    "temporarilyClosed": false,
    "placeId": "ChIJ9WD2C_Bv9zkR28JtNELZp8Q",
    "categories": [
      "Car rental agency"
    ],
    "reviewsCount": 61,
    "imagesCount": 6,
    "openingHours": [
      {
        "day": "Monday",
        "hours": "Open 24 hours"
      },
      {
        "day": "Tuesday",
        "hours": "Open 24 hours"
      },
      {
        "day": "Wednesday",
        "hours": "Open 24 hours"
      },
      {
        "day": "Thursday",
        "hours": "Open 24 hours"
      },
      {
        "day": "Friday",
        "hours": "Open 24 hours"
      },
      {
        "day": "Saturday",
        "hours": "Open 24 hours"
      },
      {
        "day": "Sunday",
        "hours": "Open 24 hours"
      }
    ],
    "imageUrl": "https://media.indianluxurycars.com/google/b961000d8c2b9631e840296050e8c862ec8ea87f346e6ec33c7fa43b478067fc.jpg",
    "url": "https://www.google.com/maps/search/?api=1&query=NAG%20ENTERPRISE%20(CAR%20HIRE)%20Your%20satisfaction%20is%20our%20passion.&query_place_id=ChIJ9WD2C_Bv9zkR28JtNELZp8Q"
  },
  {
    "title": "Pritam motors",
    "subTitle": "প্রীতম মোটর",
    "categoryName": "Used car dealer",
    "address": "Kabiguru,0pp maical madhusudan college, City Center, Durgapur, West Bengal 713209, India",
    "neighborhood": "City Center",
    "street": "Kabiguru,0pp maical madhusudan college",
    "city": "Durgapur",
    "postalCode": "713209",
    "state": "West Bengal",
    "countryCode": "IN",
    "phone": "+918597295853",
    "phoneUnformatted": "+918597295853",
    "location": {
      "lat": 23.5486884,
      "lng": 87.3115537
    },
    "totalScore": 5,
    "permanentlyClosed": false,
    "temporarilyClosed": false,
    "placeId": "ChIJ1dUxr11x9zkROPI-NA2NqtU",
    "categories": [
      "Used car dealer"
    ],
    "reviewsCount": 19,
    "imagesCount": 10,
    "openingHours": [
      {
        "day": "Monday",
        "hours": "10 AM to 8 PM"
      },
      {
        "day": "Tuesday",
        "hours": "10 AM to 8 PM"
      },
      {
        "day": "Wednesday",
        "hours": "10 AM to 8 PM"
      },
      {
        "day": "Thursday",
        "hours": "10 AM to 8 PM"
      },
      {
        "day": "Friday",
        "hours": "10 AM to 8 PM"
      },
      {
        "day": "Saturday",
        "hours": "10 AM to 8 PM"
      },
      {
        "day": "Sunday",
        "hours": "10 AM to 8 PM"
      }
    ],
    "imageUrl": "https://media.indianluxurycars.com/google/1a9a52ff5c817aaecf5c9ec9d613a6aef504a593de0e4c2c70ddaf6c7b62ca45.jpg",
    "url": "https://www.google.com/maps/search/?api=1&query=Pritam%20motors&query_place_id=ChIJ1dUxr11x9zkROPI-NA2NqtU"
  },
  {
    "title": "Rahul cab service",
    "subTitle": "রাহুল ক্যাব সার্ভিস",
    "categoryName": "Car rental agency",
    "address": "B2, Ambedkar colony, Mamra, Durgapur, West Bengal 713210, India",
    "neighborhood": "Ambedkar colony, Mamra",
    "street": "B2",
    "city": "Durgapur",
    "postalCode": "713210",
    "state": "West Bengal",
    "countryCode": "IN",
    "phone": "+918918866496",
    "phoneUnformatted": "+918918866496",
    "location": {
      "lat": 23.5357135,
      "lng": 87.3141065
    },
    "totalScore": 5,
    "permanentlyClosed": false,
    "temporarilyClosed": false,
    "placeId": "ChIJiTmLlLNx9zkR5m4QW0A_4Do",
    "categories": [
      "Car rental agency"
    ],
    "reviewsCount": 9,
    "imagesCount": 4,
    "openingHours": [
      {
        "day": "Monday",
        "hours": "Open 24 hours"
      },
      {
        "day": "Tuesday",
        "hours": "Open 24 hours"
      },
      {
        "day": "Wednesday",
        "hours": "Open 24 hours"
      },
      {
        "day": "Thursday",
        "hours": "Open 24 hours"
      },
      {
        "day": "Friday",
        "hours": "Open 24 hours"
      },
      {
        "day": "Saturday",
        "hours": "Open 24 hours"
      },
      {
        "day": "Sunday",
        "hours": "Open 24 hours"
      }
    ],
    "imageUrl": "https://media.indianluxurycars.com/google/7572f9ccbeea92dfd7da7b41247949dd2edebebe3e7fec740f9ec71652f948c7.jpg",
    "url": "https://www.google.com/maps/search/?api=1&query=Rahul%20cab%20service&query_place_id=ChIJiTmLlLNx9zkR5m4QW0A_4Do"
  },
  {
    "title": "Shiv Shakti Auto",
    "subTitle": "শিব শক্তিপীঠ অটো",
    "categoryName": "Used car dealer",
    "address": "Road, Kabiguru Sarani, opp. to MIchael Madhusudan Memorial College, City Center, Durgapur, West Bengal 713209, India",
    "neighborhood": "City Center",
    "street": "Road, Kabiguru Sarani, opp. to MIchael Madhusudan Memorial College",
    "city": "Durgapur",
    "postalCode": "713209",
    "state": "West Bengal",
    "countryCode": "IN",
    "phone": "+919474485269",
    "phoneUnformatted": "+919474485269",
    "location": {
      "lat": 23.5487182,
      "lng": 87.3114979
    },
    "totalScore": 4.4,
    "permanentlyClosed": false,
    "temporarilyClosed": false,
    "placeId": "ChIJKf3dTP1x9zkRAfk4q_wusRs",
    "categories": [
      "Used car dealer"
    ],
    "reviewsCount": 23,
    "imagesCount": 15,
    "openingHours": [
      {
        "day": "Monday",
        "hours": "10 AM to 8:30 PM"
      },
      {
        "day": "Tuesday",
        "hours": "10 AM to 8:30 PM"
      },
      {
        "day": "Wednesday",
        "hours": "10 AM to 8:30 PM"
      },
      {
        "day": "Thursday",
        "hours": "10 AM to 8 PM"
      },
      {
        "day": "Friday",
        "hours": "10 AM to 8 PM"
      },
      {
        "day": "Saturday",
        "hours": "10 AM to 8 PM"
      },
      {
        "day": "Sunday",
        "hours": "9 AM to 4 PM"
      }
    ],
    "imageUrl": "https://media.indianluxurycars.com/google/48706e0f728af791bbe80cc5b7f10e688f4f5cb956e5307807c4bb04184be293.jpg",
    "url": "https://www.google.com/maps/search/?api=1&query=Shiv%20Shakti%20Auto&query_place_id=ChIJKf3dTP1x9zkRAfk4q_wusRs"
  }
]
