[
  {
    "title": "AMAN TAXI SERVICE",
    "subTitle": "अमन टैक्सी सर्विस",
    "categoryName": "Car rental agency",
    "address": "SHOP NO. 894, 23 - 24, MAIN ROAD, Sector 23, Faridabad, Haryana 121005, India",
    "neighborhood": "Sector 23",
    "street": "SHOP NO. 894, 23 - 24, MAIN ROAD",
    "city": "Faridabad",
    "postalCode": "121005",
    "state": "Haryana",
    "countryCode": "IN",
    "website": "https://business.google.com/site/l/03476290256059695767?hl=en-GB",
    "phone": "+918851216692",
    "phoneUnformatted": "+918851216692",
    "location": {
      "lat": 28.3619779,
      "lng": 77.299265
    },
    "totalScore": 4.9,
    "permanentlyClosed": false,
    "temporarilyClosed": false,
    "placeId": "ChIJ42PJxwLdDDkRZ5f8RIO3IFA",
    "categories": [
      "Car rental agency",
      "Bus charter",
      "Bus tour agency",
      "Taxi service",
      "Minibus taxi service"
    ],
    "reviewsCount": 175,
    "imagesCount": 84,
    "openingHours": [],
    "imageUrl": "https://media.indianluxurycars.com/google/ebc93211b7a6700d3c465ea417cbbde7a90fa72ee5da4534066d67c88fe55073.jpg",
    "url": "https://www.google.com/maps/search/?api=1&query=AMAN%20TAXI%20SERVICE&query_place_id=ChIJ42PJxwLdDDkRZ5f8RIO3IFA"
  },
  {
    "title": "Auto Traders",
    "subTitle": "ऑटो ट्रेडर्स",
    "categoryName": "Used car dealer",
    "address": "Plot No - 3 Bye Pass Road, Opp, Sector 13, Faridabad, Haryana 121007, India",
    "neighborhood": "Sector 13",
    "street": "Plot No - 3 Bye Pass Road, Opp",
    "city": "Faridabad",
    "postalCode": "121007",
    "state": "Haryana",
    "countryCode": "IN",
    "phone": "+919999772505",
    "phoneUnformatted": "+919999772505",
    "location": {
      "lat": 28.3827271,
      "lng": 77.3375661
    },
    "totalScore": 4.4,
    "permanentlyClosed": false,
    "temporarilyClosed": true,
    "placeId": "ChIJIdeUr_TcDDkRsK4Hk_JXEhQ",
    "categories": [
      "Used car dealer",
      "Auto insurance agency",
      "Car finance and loan company",
      "Finance broker"
    ],
    "reviewsCount": 65,
    "imagesCount": 113,
    "openingHours": [],
    "imageUrl": "https://media.indianluxurycars.com/google/f22dd766d95f1f3b586180a15759a2279c8dcc46d43aacb488e8e2c2ac0ae636.jpg",
    "url": "https://www.google.com/maps/search/?api=1&query=Auto%20Traders&query_place_id=ChIJIdeUr_TcDDkRsK4Hk_JXEhQ"
  },
  {
    "title": "Baba luxurious cars",
    "subTitle": "बाबा लुक्सुरिओउस कार्स",
    "categoryName": "Car rental agency",
    "address": "Shop no 1 ,first floor, Gopi Colony, chowk, Faridabad, Haryana 121002, India",
    "neighborhood": "Gopi Colony, chowk",
    "street": "Shop no 1 ,first floor",
    "city": "Faridabad",
    "postalCode": "121002",
    "state": "Haryana",
    "countryCode": "IN",
    "website": "https://babaluxuriouscars.com/",
    "phone": "+919899791171",
    "phoneUnformatted": "+919899791171",
    "location": {
      "lat": 28.4210928,
      "lng": 77.3159296
    },
    "totalScore": 3.7,
    "permanentlyClosed": false,
    "temporarilyClosed": false,
    "placeId": "ChIJocd4QoLdDDkRrr0joEwUSBQ",
    "categories": [
      "Car rental agency",
      "Wedding service"
    ],
    "reviewsCount": 3,
    "imagesCount": 4,
    "openingHours": [
      {
        "day": "Monday",
        "hours": "10 AM to 8 PM"
      },
      {
        "day": "Tuesday",
        "hours": "10 AM to 8 PM"
      },
      {
        "day": "Wednesday",
        "hours": "10 AM to 10 PM"
      },
      {
        "day": "Thursday",
        "hours": "10 AM to 10 PM"
      },
      {
        "day": "Friday",
        "hours": "10 AM to 10 PM"
      },
      {
        "day": "Saturday",
        "hours": "9 AM to 5 PM"
      },
      {
        "day": "Sunday",
        "hours": "10 AM to 10 PM"
      }
    ],
    "imageUrl": "https://media.indianluxurycars.com/google/c2fd8ba5db721ae911fc489ffb18e4761de2c6dc5a5036f515e673e9676c5b74.jpg",
    "url": "https://www.google.com/maps/search/?api=1&query=Baba%20luxurious%20cars&query_place_id=ChIJocd4QoLdDDkRrr0joEwUSBQ"
  },
  {
    "title": "Bagga Self Drive Car Rental",
    "subTitle": "बग्गा सेल्फ ड्राइव कार रेंटल",
    "categoryName": "Car rental agency",
    "address": "Huda market sec7, Block E, Sector 7, Faridabad, Haryana 121006, India",
    "neighborhood": "Huda Market, Sector 7a, Block E, Sector 7",
    "street": "Huda market sec7",
    "city": "Faridabad",
    "postalCode": "121006",
    "state": "Haryana",
    "countryCode": "IN",
    "location": {
      "lat": 28.3636069,
      "lng": 77.3242786
    },
    "totalScore": 3.4,
    "permanentlyClosed": false,
    "temporarilyClosed": false,
    "placeId": "ChIJMY9vw0ndDDkRydn3aKbVpVs",
    "categories": [
      "Car rental agency"
    ],
    "reviewsCount": 5,
    "imagesCount": 2,
    "openingHours": [
      {
        "day": "Monday",
        "hours": "Open 24 hours"
      },
      {
        "day": "Tuesday",
        "hours": "Open 24 hours"
      },
      {
        "day": "Wednesday",
        "hours": "Open 24 hours"
      },
      {
        "day": "Thursday",
        "hours": "Open 24 hours"
      },
      {
        "day": "Friday",
        "hours": "Open 24 hours"
      },
      {
        "day": "Saturday",
        "hours": "Open 24 hours"
      },
      {
        "day": "Sunday",
        "hours": "Open 24 hours"
      }
    ],
    "imageUrl": "https://media.indianluxurycars.com/google/32d24846f10767d362a368cdb7295915fd44fa1bb2ee0f986dd335f4c96b51d0.jpg",
    "url": "https://www.google.com/maps/search/?api=1&query=Bagga%20Self%20Drive%20Car%20Rental&query_place_id=ChIJMY9vw0ndDDkRydn3aKbVpVs"
  },
  {
    "title": "Bagga Self Drive Car Rental Faridabad",
    "subTitle": "बग्गा सेल्फ ड्राइव कार रेंटल फरीदाबाद",
    "categoryName": "Car leasing service",
    "address": "Pocket F, Sector 10 HBC, Faridabad, Haryana 121006, India",
    "neighborhood": "Pocket F, Sector 10 HBC",
    "city": "Faridabad",
    "postalCode": "121006",
    "state": "Haryana",
    "countryCode": "IN",
    "website": "https://baggacarrentals.com/",
    "phone": "+919560043669",
    "phoneUnformatted": "+919560043669",
    "location": {
      "lat": 28.3743666,
      "lng": 77.323153
    },
    "permanentlyClosed": false,
    "temporarilyClosed": false,
    "placeId": "ChIJY17mlhTdDDkRDSW2L8RvNfY",
    "categories": [
      "Car leasing service"
    ],
    "imagesCount": 14,
    "openingHours": [
      {
        "day": "Monday",
        "hours": "8 AM to 11 PM"
      },
      {
        "day": "Tuesday",
        "hours": "8 AM to 11 PM"
      },
      {
        "day": "Wednesday",
        "hours": "8 AM to 11 PM"
      },
      {
        "day": "Thursday",
        "hours": "8 AM to 11 PM"
      },
      {
        "day": "Friday",
        "hours": "8 AM to 11 PM"
      },
      {
        "day": "Saturday",
        "hours": "8 AM to 11 PM"
      },
      {
        "day": "Sunday",
        "hours": "8 AM to 11 PM"
      }
    ],
    "imageUrl": "https://media.indianluxurycars.com/google/2ebb617bfec3f6ed5c6d49e0cc8251bed3980649def0d23b2553645e43fa21c8.jpg",
    "url": "https://www.google.com/maps/search/?api=1&query=Bagga%20Self%20Drive%20Car%20Rental%20Faridabad&query_place_id=ChIJY17mlhTdDDkRDSW2L8RvNfY"
  },
  {
    "title": "BMW Deutsche Motoren Faridabad",
    "subTitle": "बी एम डब्लयू डच मोटर",
    "categoryName": "Used car dealer",
    "address": "Plot No. 1, Mathura Road, NH-2, Sector 27B, Haryana 121003, India",
    "neighborhood": "Pocket B, Sector 27",
    "street": "Plot No. 1, Mathura Road, NH-2, Sector 27B",
    "city": "Faridabad",
    "postalCode": "121003",
    "state": "Haryana",
    "countryCode": "IN",
    "website": "https://www.bmw-deutschemotoren.in/",
    "phone": "+918377006677",
    "phoneUnformatted": "+918377006677",
    "location": {
      "lat": 28.4452823,
      "lng": 77.3078186
    },
    "totalScore": 4.3,
    "permanentlyClosed": false,
    "temporarilyClosed": false,
    "placeId": "ChIJuUGKhkrcDDkRWogcrw-ctKk",
    "categories": [
      "Used car dealer",
      "Car dealer",
      "Car repair and maintenance service",
      "BMW dealer"
    ],
    "reviewsCount": 1088,
    "imagesCount": 447,
    "openingHours": [
      {
        "day": "Monday",
        "hours": "9:30 AM to 6 PM"
      },
      {
        "day": "Tuesday",
        "hours": "9:30 AM to 6 PM"
      },
      {
        "day": "Wednesday",
        "hours": "9:30 AM to 6 PM"
      },
      {
        "day": "Thursday",
        "hours": "9:30 AM to 6 PM"
      },
      {
        "day": "Friday",
        "hours": "9:30 AM to 6 PM"
      },
      {
        "day": "Saturday",
        "hours": "9:30 AM to 6 PM"
      },
      {
        "day": "Sunday",
        "hours": "9:30 AM to 6 PM"
      }
    ],
    "imageUrl": "https://media.indianluxurycars.com/google/5a2904749129bcb9ff2b14f624289c7b5bdea0efaf82c565d35152aa38f013ca.jpg",
    "url": "https://www.google.com/maps/search/?api=1&query=BMW%20Deutsche%20Motoren%20Faridabad&query_place_id=ChIJuUGKhkrcDDkRWogcrw-ctKk"
  },
  {
    "title": "Brothers Car Rental",
    "subTitle": "ब्रदर्स कार रेंटल",
    "categoryName": "Car rental agency",
    "address": "Pocket E, Sector 11, Faridabad, Haryana 121006, India",
    "neighborhood": "Pocket E, Sector 11",
    "city": "Faridabad",
    "postalCode": "121006",
    "state": "Haryana",
    "countryCode": "IN",
    "website": "http://www.brothercarrentals.com/",
    "phone": "+918607430187",
    "phoneUnformatted": "+918607430187",
    "location": {
      "lat": 28.3704178,
      "lng": 77.3220302
    },
    "totalScore": 5,
    "permanentlyClosed": false,
    "temporarilyClosed": false,
    "placeId": "ChIJEQbuXADdDDkR3DiNxJ7grfA",
    "categories": [
      "Car rental agency"
    ],
    "reviewsCount": 6,
    "openingHours": [
      {
        "day": "Monday",
        "hours": "Open 24 hours"
      },
      {
        "day": "Tuesday",
        "hours": "Open 24 hours"
      },
      {
        "day": "Wednesday",
        "hours": "Open 24 hours"
      },
      {
        "day": "Thursday",
        "hours": "Open 24 hours"
      },
      {
        "day": "Friday",
        "hours": "Open 24 hours"
      },
      {
        "day": "Saturday",
        "hours": "Open 24 hours"
      },
      {
        "day": "Sunday",
        "hours": "Open 24 hours"
      }
    ],
    "url": "https://www.google.com/maps/search/?api=1&query=Brothers%20Car%20Rental&query_place_id=ChIJEQbuXADdDDkR3DiNxJ7grfA"
  },
  {
    "title": "CAPITAL CARS",
    "subTitle": "कैपिटल कार्स",
    "categoryName": "Car dealer",
    "address": "shop no. 54, sai complex, Sector 86, Faridabad, Haryana 121007, India",
    "neighborhood": "Sector 86",
    "street": "shop no. 54, sai complex",
    "city": "Faridabad",
    "postalCode": "121007",
    "state": "Haryana",
    "countryCode": "IN",
    "phone": "+919810847769",
    "phoneUnformatted": "+919810847769",
    "location": {
      "lat": 28.4093773,
      "lng": 77.3364118
    },
    "totalScore": 5,
    "permanentlyClosed": false,
    "temporarilyClosed": false,
    "placeId": "ChIJUUb8BADdDDkR3mkQjjFW28A",
    "categories": [
      "Car dealer",
      "Association / Organization"
    ],
    "reviewsCount": 1,
    "imagesCount": 3,
    "openingHours": [],
    "imageUrl": "https://media.indianluxurycars.com/google/85d5508b9245d5b18776a3d3a0fbe7fe6c0df855893f130df6fa6d56ccf95ad1.jpg",
    "url": "https://www.google.com/maps/search/?api=1&query=CAPITAL%20CARS&query_place_id=ChIJUUb8BADdDDkR3mkQjjFW28A"
  },
  {
    "title": "Carbuzz Faridabad-Best car dealer in faridabad",
    "subTitle": "कार बज़ फरीदाबाद-बेस्ट कार डीलर इन फरीदाबाद",
    "categoryName": "Used car dealer",
    "address": "near The Shriram Millennium School, Faridabad, Sector 81, Faridabad, Haryana 121007, India",
    "neighborhood": "Sector 81",
    "street": "near The Shriram Millennium School, Faridabad",
    "city": "Faridabad",
    "postalCode": "121007",
    "state": "Haryana",
    "countryCode": "IN",
    "phone": "+919467535996",
    "phoneUnformatted": "+919467535996",
    "location": {
      "lat": 28.395806,
      "lng": 77.3485941
    },
    "totalScore": 4.2,
    "permanentlyClosed": false,
    "temporarilyClosed": false,
    "placeId": "ChIJY5MGGUHdDDkRamTMEQsD1iw",
    "categories": [
      "Used car dealer",
      "Car dealer"
    ],
    "reviewsCount": 49,
    "imagesCount": 91,
    "openingHours": [
      {
        "day": "Monday",
        "hours": "9 AM to 7:30 PM"
      },
      {
        "day": "Tuesday",
        "hours": "9 AM to 7:30 PM"
      },
      {
        "day": "Wednesday",
        "hours": "9 AM to 7:30 PM"
      },
      {
        "day": "Thursday",
        "hours": "9 AM to 7:30 PM"
      },
      {
        "day": "Friday",
        "hours": "9 AM to 7:30 PM"
      },
      {
        "day": "Saturday",
        "hours": "9 AM to 7:30 PM"
      },
      {
        "day": "Sunday",
        "hours": "9 AM to 8 PM"
      }
    ],
    "imageUrl": "https://media.indianluxurycars.com/google/2dda427e8c2b9ac9554357c3d280304990ae864820e5a32e640db4a5af6f6e67.png",
    "url": "https://www.google.com/maps/search/?api=1&query=Carbuzz%20Faridabad-Best%20car%20dealer%20in%20faridabad&query_place_id=ChIJY5MGGUHdDDkRamTMEQsD1iw"
  },
  {
    "title": "Carobar",
    "subTitle": "कारोबार",
    "categoryName": "Used car dealer",
    "address": "shop no. 4, sco 1, huda market, Faridabad, Sector 16, Faridabad, Haryana 121002, India",
    "neighborhood": "HUDA Staff Colony, Sector 16",
    "street": "shop no. 4, sco 1, huda market, Faridabad",
    "city": "Faridabad",
    "postalCode": "121002",
    "state": "Haryana",
    "countryCode": "IN",
    "phone": "+919810150433",
    "phoneUnformatted": "+919810150433",
    "location": {
      "lat": 28.409983,
      "lng": 77.318847
    },
    "totalScore": 4.4,
    "permanentlyClosed": false,
    "temporarilyClosed": false,
    "placeId": "ChIJe-YSkLHdDDkRWWYKk8IJCgQ",
    "categories": [
      "Used car dealer"
    ],
    "reviewsCount": 24,
    "imagesCount": 19,
    "openingHours": [
      {
        "day": "Monday",
        "hours": "8 AM to 8 PM"
      },
      {
        "day": "Tuesday",
        "hours": "8 AM to 8 PM"
      },
      {
        "day": "Wednesday",
        "hours": "8 AM to 8 PM"
      },
      {
        "day": "Thursday",
        "hours": "8 AM to 8 PM"
      },
      {
        "day": "Friday",
        "hours": "8 AM to 8 PM"
      },
      {
        "day": "Saturday",
        "hours": "8 AM to 8 PM"
      },
      {
        "day": "Sunday",
        "hours": "8 AM to 8 PM"
      }
    ],
    "imageUrl": "https://media.indianluxurycars.com/google/b595f98e1c33eed763ae4dccf0ab1019c3aae1a374074d7d717ac00a6045d533.jpg",
    "url": "https://www.google.com/maps/search/?api=1&query=Carobar&query_place_id=ChIJe-YSkLHdDDkRWWYKk8IJCgQ"
  },
  {
    "title": "Carorbis | Automotive Accessories and Parts Online Marketplace",
    "subTitle": "करोड़बीस | ऑटोमोटिव एसेसरिज एंड पार्ट्स ऑनलाइन मार्केटप्लेस",
    "categoryName": "Car accessories store",
    "address": "PLOT NO. 5B, SECTOR - 15A, FIRST FLOOR, NEELAM AJRONDA CHOWK METRO STATION, Haryana 121007, India",
    "neighborhood": "Azad Colony, Sector 15A",
    "street": "PLOT NO. 5B, SECTOR - 15A, FIRST FLOOR, NEELAM AJRONDA CHOWK METRO STATION",
    "city": "Faridabad",
    "postalCode": "121007",
    "state": "Haryana",
    "countryCode": "IN",
    "website": "https://carorbis.com/",
    "phone": "+918800998237",
    "phoneUnformatted": "+918800998237",
    "location": {
      "lat": 28.3971963,
      "lng": 77.3131186
    },
    "totalScore": 4.8,
    "permanentlyClosed": false,
    "temporarilyClosed": false,
    "placeId": "ChIJZ4JcLcXdDDkRmC7bppUcKtE",
    "categories": [
      "Car accessories store",
      "Auto care products store",
      "Auto machine shop",
      "Auto parts store",
      "E-commerce service",
      "Motorcycle parts store"
    ],
    "reviewsCount": 47,
    "imagesCount": 5,
    "openingHours": [
      {
        "day": "Monday",
        "hours": "9:30 AM to 7:30 PM"
      },
      {
        "day": "Tuesday",
        "hours": "9:30 AM to 7:30 PM"
      },
      {
        "day": "Wednesday",
        "hours": "9:30 AM to 7:30 PM"
      },
      {
        "day": "Thursday",
        "hours": "9:30 AM to 7:30 PM"
      },
      {
        "day": "Friday",
        "hours": "9:30 AM to 7:30 PM"
      },
      {
        "day": "Saturday",
        "hours": "9:30 AM to 7:30 PM"
      },
      {
        "day": "Sunday",
        "hours": "Closed"
      }
    ],
    "imageUrl": "https://media.indianluxurycars.com/google/2a9a4f95d88336f2840be31f1d8ed1b41d329a66a2dc8f08ee26f3cd5f50b820.jpg",
    "url": "https://www.google.com/maps/search/?api=1&query=Carorbis%20%7C%20Automotive%20Accessories%20and%20Parts%20Online%20Marketplace&query_place_id=ChIJZ4JcLcXdDDkRmC7bppUcKtE"
  },
  {
    "title": "CARS24 - Shri Ganesh Motors | Buy, Sell, Finance Used Cars in Faridabad",
    "subTitle": "कार्स24 - श्री गणेश मोटर्स | बाय, सेल, फाइनेंस यूज्ड कार्स इन फरीदाबाद",
    "categoryName": "Used car dealer",
    "address": "Metro Station, Plot No A1/16, Sector 11, DLF, near Bata Chowk, Ballabgarh, Faridabad, Haryana 121006, India",
    "neighborhood": "Ballabgarh",
    "street": "Metro Station, Plot No A1/16, Sector 11, DLF, near Bata Chowk",
    "city": "Faridabad",
    "postalCode": "121006",
    "state": "Haryana",
    "countryCode": "IN",
    "website": "https://www.cars24.com/buy-used-cars-at-cars24-hub-sector-11-faridabad-faridabad/?sort=bestmatch&serveWarrantyCount=true&storeCityId=6&utm_source=gmb&utm_medium=organic&utm_campaign=buy_franchise&utm_term=Shri%20Ganesh%20Motors",
    "phone": "+918062429892",
    "phoneUnformatted": "+918062429892",
    "location": {
      "lat": 28.3812509,
      "lng": 77.3174155
    },
    "totalScore": 4.7,
    "permanentlyClosed": false,
    "temporarilyClosed": false,
    "placeId": "ChIJ1bQH3HDdDDkRNAdf0a3k8Yc",
    "categories": [
      "Used car dealer",
      "Auto broker",
      "Car dealer",
      "Car finance and loan company",
      "Motor vehicle dealer"
    ],
    "reviewsCount": 150,
    "imagesCount": 154,
    "openingHours": [
      {
        "day": "Monday",
        "hours": "10 AM to 7 PM"
      },
      {
        "day": "Tuesday",
        "hours": "10 AM to 7 PM"
      },
      {
        "day": "Wednesday",
        "hours": "10 AM to 7 PM"
      },
      {
        "day": "Thursday",
        "hours": "10 AM to 7 PM"
      },
      {
        "day": "Friday",
        "hours": "10 AM to 7 PM"
      },
      {
        "day": "Saturday",
        "hours": "10 AM to 7 PM"
      },
      {
        "day": "Sunday",
        "hours": "10 AM to 7 PM"
      }
    ],
    "imageUrl": "https://media.indianluxurycars.com/google/87cdc47dc1998499c9c27d6c7f2bbda9b462477b2f6e4e07fb87e79c2e7dd631.jpg",
    "url": "https://www.google.com/maps/search/?api=1&query=CARS24%20-%20Shri%20Ganesh%20Motors%20%7C%20Buy%2C%20Sell%2C%20Finance%20Used%20Cars%20in%20Faridabad&query_place_id=ChIJ1bQH3HDdDDkRNAdf0a3k8Yc"
  },
  {
    "title": "City Motors & Properties",
    "subTitle": "सिटी मोटर्स और गुण",
    "categoryName": "Used car dealer",
    "address": "City Motors and properties Faridabad C.P./8, Fruit Garden, New Industrial Township, Faridabad, Haryana 121001, India",
    "neighborhood": "Fruit Garden, New Industrial Township",
    "street": "City Motors and properties Faridabad C.P./8",
    "city": "Faridabad",
    "postalCode": "121001",
    "state": "Haryana",
    "countryCode": "IN",
    "website": "https://citymotorsnit5.wixsite.com/citymotorsproperties",
    "phone": "+919899004958",
    "phoneUnformatted": "+919899004958",
    "location": {
      "lat": 28.3987039,
      "lng": 77.3064921
    },
    "totalScore": 3.5,
    "permanentlyClosed": false,
    "temporarilyClosed": false,
    "placeId": "ChIJY7YMLjzcDDkRcTrhEW8nLI4",
    "categories": [
      "Used car dealer",
      "Auto broker"
    ],
    "reviewsCount": 34,
    "imagesCount": 21,
    "openingHours": [
      {
        "day": "Monday",
        "hours": "10 AM to 8 PM"
      },
      {
        "day": "Tuesday",
        "hours": "10 AM to 8 PM"
      },
      {
        "day": "Wednesday",
        "hours": "10 AM to 8 PM"
      },
      {
        "day": "Thursday",
        "hours": "10 AM to 8 PM"
      },
      {
        "day": "Friday",
        "hours": "10 AM to 8 PM"
      },
      {
        "day": "Saturday",
        "hours": "10 AM to 8 PM"
      },
      {
        "day": "Sunday",
        "hours": "10 AM to 8 PM"
      }
    ],
    "imageUrl": "https://media.indianluxurycars.com/google/ac6fb89ded20ce5ac378d349cc0f218b6aca6c4c5ed200ad0bab3ea17dddea00.jpg",
    "url": "https://www.google.com/maps/search/?api=1&query=City%20Motors%20%26%20Properties&query_place_id=ChIJY7YMLjzcDDkRcTrhEW8nLI4"
  },
  {
    "title": "DAZZLE TRANSPORT",
    "subTitle": "डज्ज्ल ट्रांसपोर्ट",
    "categoryName": "Car leasing service",
    "address": "Metro Pillar 16/6 Mathura Road, chowk, Old Faridabad, Faridabad, Haryana 121002, India",
    "neighborhood": "Fatehpur Chandela, Old Faridabad",
    "street": "Metro Pillar 16/6 Mathura Road, chowk",
    "city": "Faridabad",
    "postalCode": "121002",
    "state": "Haryana",
    "countryCode": "IN",
    "website": "http://dazzletransport.in/",
    "phone": "+911205244324",
    "phoneUnformatted": "+911205244324",
    "location": {
      "lat": 28.415898,
      "lng": 77.3048882
    },
    "totalScore": 5,
    "permanentlyClosed": false,
    "temporarilyClosed": false,
    "placeId": "ChIJ9T3RdzbdDDkR1zW3T82uchE",
    "categories": [
      "Car leasing service",
      "Bus tour agency",
      "Tour operator"
    ],
    "reviewsCount": 1,
    "imagesCount": 38,
    "openingHours": [],
    "imageUrl": "https://media.indianluxurycars.com/google/944a1a3e4009b2fb6e3d1cfd27dc53bf20701ec47f138b570c5683642229db27.jpg",
    "url": "https://www.google.com/maps/search/?api=1&query=DAZZLE%20TRANSPORT&query_place_id=ChIJ9T3RdzbdDDkR1zW3T82uchE"
  },
  {
    "title": "Door 2 Door Taxi Services",
    "subTitle": "दूर 2 दूर टैक्सी सर्विसेस",
    "categoryName": "Car rental agency",
    "address": "20/21C, FIRST FLOOR BETTER HOMEZ TOWER, FRUIT GARDEN Neelam, near Neelam chowk, New Industrial Township, Faridabad, Haryana 121001, India",
    "neighborhood": "Fruit Garden, New Industrial Township",
    "street": "20/21C, FIRST FLOOR BETTER HOMEZ TOWER, FRUIT GARDEN Neelam, near Neelam chowk",
    "city": "Faridabad",
    "postalCode": "121001",
    "state": "Haryana",
    "countryCode": "IN",
    "website": "http://www.door2doortaxi.com/",
    "phone": "+919315373958",
    "phoneUnformatted": "+919315373958",
    "location": {
      "lat": 28.3936032,
      "lng": 77.3061976
    },
    "totalScore": 4.7,
    "permanentlyClosed": false,
    "temporarilyClosed": false,
    "placeId": "ChIJm_cYWSvnDDkRYmJDN4g3YHI",
    "categories": [
      "Car rental agency",
      "Bus tour agency",
      "Taxi service",
      "Minibus taxi service",
      "Tour operator",
      "Travel agency"
    ],
    "reviewsCount": 253,
    "imagesCount": 19,
    "openingHours": [],
    "imageUrl": "https://media.indianluxurycars.com/google/d0990bfcc4f0cd2027f2bd3db4e2611cc04c4d7642f6f9ad5565b2610f3f02c8.jpg",
    "url": "https://www.google.com/maps/search/?api=1&query=Door%202%20Door%20Taxi%20Services&query_place_id=ChIJm_cYWSvnDDkRYmJDN4g3YHI"
  },
  {
    "title": "Drivepoint self drive cars",
    "subTitle": "ड्राइवपॉइंट सेल्फ ड्राइव कार्स",
    "categoryName": "Car rental agency",
    "address": "MOD METRO STATION, near by Badkhal Road, MOD, Sector 19, Faridabad, Haryana 121002, India",
    "neighborhood": "MOD, Sector 19",
    "street": "MOD METRO STATION, near by Badkhal Road",
    "city": "Faridabad",
    "postalCode": "121002",
    "state": "Haryana",
    "countryCode": "IN",
    "website": "http://www.drivepointselfdrive.in/",
    "phone": "+919990260099",
    "phoneUnformatted": "+919990260099",
    "location": {
      "lat": 28.4238513,
      "lng": 77.3113201
    },
    "totalScore": 4.9,
    "permanentlyClosed": false,
    "temporarilyClosed": false,
    "placeId": "ChIJP77c1-Ym9aARvys9o3u1IfM",
    "categories": [
      "Car rental agency",
      "Car leasing service"
    ],
    "reviewsCount": 381,
    "imagesCount": 229,
    "openingHours": [
      {
        "day": "Monday",
        "hours": "9 AM to 8 PM"
      },
      {
        "day": "Tuesday",
        "hours": "9 AM to 8 PM"
      },
      {
        "day": "Wednesday",
        "hours": "9 AM to 8 PM"
      },
      {
        "day": "Thursday",
        "hours": "9 AM to 8 PM"
      },
      {
        "day": "Friday",
        "hours": "9 AM to 8 PM"
      },
      {
        "day": "Saturday",
        "hours": "9 AM to 8 PM"
      },
      {
        "day": "Sunday",
        "hours": "9 AM to 1 PM"
      }
    ],
    "imageUrl": "https://media.indianluxurycars.com/google/7c47e147f9af7243aa72d3c46148b2b8974fdf3d6a8d320104e3ee1f056cfefc.jpg",
    "url": "https://www.google.com/maps/search/?api=1&query=Drivepoint%20self%20drive%20cars&query_place_id=ChIJP77c1-Ym9aARvys9o3u1IfM"
  },
  {
    "title": "GoMechanic Accessories - Saral Car Accessories",
    "subTitle": "सरल कार सहायक उपकरण",
    "categoryName": "Car accessories store",
    "address": "2085, 9-10 Dividing Rd, Sector 9, Faridabad, Haryana 121006, India",
    "neighborhood": "Sector 9",
    "street": "2085, 9-10 Dividing Rd",
    "city": "Faridabad",
    "postalCode": "121006",
    "state": "Haryana",
    "countryCode": "IN",
    "website": "https://gomechanic.app.link/gmb",
    "phone": "+918398970970",
    "phoneUnformatted": "+918398970970",
    "location": {
      "lat": 28.3757781,
      "lng": 77.3309937
    },
    "totalScore": 4.1,
    "permanentlyClosed": false,
    "temporarilyClosed": false,
    "placeId": "ChIJjWU2jGHcDDkR85agQd9wZbg",
    "categories": [
      "Car accessories store"
    ],
    "reviewsCount": 12,
    "imagesCount": 88,
    "openingHours": [
      {
        "day": "Monday",
        "hours": "Open 24 hours"
      },
      {
        "day": "Tuesday",
        "hours": "Open 24 hours"
      },
      {
        "day": "Wednesday",
        "hours": "Open 24 hours"
      },
      {
        "day": "Thursday",
        "hours": "Open 24 hours"
      },
      {
        "day": "Friday",
        "hours": "Open 24 hours"
      },
      {
        "day": "Saturday",
        "hours": "Open 24 hours"
      },
      {
        "day": "Sunday",
        "hours": "Open 24 hours"
      }
    ],
    "imageUrl": "https://media.indianluxurycars.com/google/9b81e4d46f7a52b6f7618a2ba054932d8d198a461c64cdf53b5505ae247439ba.jpg",
    "url": "https://www.google.com/maps/search/?api=1&query=GoMechanic%20Accessories%20-%20Saral%20Car%20Accessories&query_place_id=ChIJjWU2jGHcDDkR85agQd9wZbg"
  },
  {
    "title": "Jss Motors - Cars Sales & Purchase",
    "subTitle": "जेएसएस मोटर्स - कार्स सेल्स & परचेज",
    "categoryName": "Car dealer",
    "address": "Main Bypass Rd, near Prestige Hyundai, Sector 9, Faridabad, Haryana 121101, India",
    "neighborhood": "Sector 9",
    "street": "Main Bypass Rd, near Prestige Hyundai",
    "city": "Faridabad",
    "postalCode": "121101",
    "state": "Haryana",
    "countryCode": "IN",
    "website": "https://qliqo.in/JSS-MOTORS-",
    "phone": "+918076931919",
    "phoneUnformatted": "+918076931919",
    "location": {
      "lat": 28.3785142,
      "lng": 77.3382012
    },
    "totalScore": 5,
    "permanentlyClosed": false,
    "temporarilyClosed": false,
    "placeId": "ChIJTVVGz9TdDDkRgSV0yfN3-qg",
    "categories": [
      "Car dealer",
      "Auto auction",
      "Auto broker",
      "Used car dealer"
    ],
    "reviewsCount": 1,
    "imagesCount": 7,
    "openingHours": [
      {
        "day": "Monday",
        "hours": "8 AM to 8 PM"
      },
      {
        "day": "Tuesday",
        "hours": "8 AM to 8 PM"
      },
      {
        "day": "Wednesday",
        "hours": "8 AM to 8 PM"
      },
      {
        "day": "Thursday",
        "hours": "8 AM to 8 PM"
      },
      {
        "day": "Friday",
        "hours": "8 AM to 8 PM"
      },
      {
        "day": "Saturday",
        "hours": "8 AM to 8 PM"
      },
      {
        "day": "Sunday",
        "hours": "8 AM to 8 PM"
      }
    ],
    "imageUrl": "https://media.indianluxurycars.com/google/9f7eb075d97c807e08f3475dea2ed73740812f826fe02e705064519b9a098930.jpg",
    "url": "https://www.google.com/maps/search/?api=1&query=Jss%20Motors%20-%20Cars%20Sales%20%26%20Purchase&query_place_id=ChIJTVVGz9TdDDkRgSV0yfN3-qg"
  },
  {
    "title": "Lander's Club",
    "subTitle": "लैंडर'स क्लब",
    "categoryName": "Car rental agency",
    "address": "F-199, SGM Nagar, Sector 48, Faridabad, Haryana 121012, India",
    "neighborhood": "SGM Nagar, Sector 48",
    "street": "F-199",
    "city": "Faridabad",
    "postalCode": "121012",
    "state": "Haryana",
    "countryCode": "IN",
    "website": "http://landersclub.com/?utm_source=google&utm_medium=wix_google_business_profile&utm_campaign=6791776730407215919",
    "phone": "+918076603883",
    "phoneUnformatted": "+918076603883",
    "location": {
      "lat": 28.4131502,
      "lng": 77.2928534
    },
    "totalScore": 4.8,
    "permanentlyClosed": false,
    "temporarilyClosed": false,
    "placeId": "ChIJCTzldlHdDDkRy9rWT6EjBLM",
    "categories": [
      "Car rental agency"
    ],
    "reviewsCount": 22,
    "imagesCount": 6,
    "openingHours": [
      {
        "day": "Monday",
        "hours": "10 AM to 6 PM"
      },
      {
        "day": "Tuesday",
        "hours": "10 AM to 6 PM"
      },
      {
        "day": "Wednesday",
        "hours": "10 AM to 6 PM"
      },
      {
        "day": "Thursday",
        "hours": "10 AM to 6 PM"
      },
      {
        "day": "Friday",
        "hours": "10 AM to 6 PM"
      },
      {
        "day": "Saturday",
        "hours": "10 AM to 6 PM"
      },
      {
        "day": "Sunday",
        "hours": "10 AM to 6 PM"
      }
    ],
    "imageUrl": "https://media.indianluxurycars.com/google/78adda5a37035049bd7dc732265a22f2bbc61816aaec77089be325a2e78eee1f.jpg",
    "url": "https://www.google.com/maps/search/?api=1&query=Lander's%20Club&query_place_id=ChIJCTzldlHdDDkRy9rWT6EjBLM"
  },
  {
    "title": "Luxury Cars for Wedding & Doli",
    "subTitle": "लक्जरी कार्स फॉर वेडिंग & डोली",
    "categoryName": "Car rental agency",
    "address": "176 GF, near Sector 21C Road, Market, Sector 46, Faridabad, Haryana 121010, India",
    "neighborhood": "Market, Sector 46",
    "street": "176 GF, near Sector 21C Road",
    "city": "Faridabad",
    "postalCode": "121010",
    "state": "Haryana",
    "countryCode": "IN",
    "location": {
      "lat": 28.4384644,
      "lng": 77.3021274
    },
    "permanentlyClosed": false,
    "temporarilyClosed": false,
    "placeId": "ChIJxWjXovHdDDkRSQUM7r0zzzo",
    "categories": [
      "Car rental agency"
    ],
    "imagesCount": 1,
    "openingHours": [],
    "imageUrl": "https://media.indianluxurycars.com/google/bab4863a04255faf3abda4ab366176925b301880177b5334d253534633d8a30b.jpg",
    "url": "https://www.google.com/maps/search/?api=1&query=Luxury%20Cars%20for%20Wedding%20%26%20Doli&query_place_id=ChIJxWjXovHdDDkRSQUM7r0zzzo"
  },
  {
    "title": "Luxury Vintage Car On Rent For Wedding",
    "subTitle": "लक्जरी विंटेज कार ऑन रेंट फॉर वेडिंग",
    "categoryName": "Car leasing service",
    "address": "PLOT NO, 1299, Thakur Wada, Sector 28, Faridabad, Haryana 121008, India",
    "neighborhood": "Thakur Wada, Sector 28",
    "street": "PLOT NO, 1299",
    "city": "Faridabad",
    "postalCode": "121008",
    "state": "Haryana",
    "countryCode": "IN",
    "phone": "+919311092136",
    "phoneUnformatted": "+919311092136",
    "location": {
      "lat": 28.4311885,
      "lng": 77.3163721
    },
    "totalScore": 5,
    "permanentlyClosed": false,
    "temporarilyClosed": false,
    "placeId": "ChIJc1VL7ifdDDkR97MIhgyrSg8",
    "categories": [
      "Car leasing service"
    ],
    "reviewsCount": 4,
    "imagesCount": 10,
    "openingHours": [],
    "imageUrl": "https://media.indianluxurycars.com/google/7660ee59f4b2b7576dbdc1024f812659c731389d99d49351e023679c22532f9c.jpg",
    "url": "https://www.google.com/maps/search/?api=1&query=Luxury%20Vintage%20Car%20On%20Rent%20For%20Wedding&query_place_id=ChIJc1VL7ifdDDkR97MIhgyrSg8"
  },
  {
    "title": "Luxury Wedding car hire | NDRiders | Vintage car",
    "subTitle": "लक्जरी वेडिंग कार हीरे | एनडीआरआइडर्स | विंटेज कार",
    "categoryName": "Car leasing service",
    "address": "98VR+389, Sector 81, Faridabad, Haryana 121007, India",
    "neighborhood": "Sector 81",
    "street": "98VR+389",
    "city": "Faridabad",
    "postalCode": "121007",
    "state": "Haryana",
    "countryCode": "IN",
    "location": {
      "lat": 28.3926607,
      "lng": 77.3408592
    },
    "totalScore": 5,
    "permanentlyClosed": false,
    "temporarilyClosed": false,
    "placeId": "ChIJRz4PEwDdDDkRnwv_WybfUQ8",
    "categories": [
      "Car leasing service"
    ],
    "reviewsCount": 6,
    "imagesCount": 1,
    "openingHours": [],
    "imageUrl": "https://media.indianluxurycars.com/google/c5d383dbc565ae64c3c3238d86bfea73c78c01e1d96d52d65ed19c69416c32cb.jpg",
    "url": "https://www.google.com/maps/search/?api=1&query=Luxury%20Wedding%20car%20hire%20%7C%20NDRiders%20%7C%20Vintage%20car&query_place_id=ChIJRz4PEwDdDDkRnwv_WybfUQ8"
  },
  {
    "title": "Manocha Car Point",
    "subTitle": "मनोचा कार प्वाइंट",
    "categoryName": "Used car dealer",
    "address": "Shop No 17, 6, NH-19, Faridabad, Haryana 121007, India",
    "street": "Shop No 17, 6, NH-19",
    "city": "Faridabad",
    "postalCode": "121007",
    "state": "Haryana",
    "countryCode": "IN",
    "phone": "+919811211084",
    "phoneUnformatted": "+919811211084",
    "location": {
      "lat": 28.3998207,
      "lng": 77.3115109
    },
    "totalScore": 2.5,
    "permanentlyClosed": false,
    "temporarilyClosed": false,
    "placeId": "ChIJe5wfh8rdDDkRCfIwlFga_xc",
    "categories": [
      "Used car dealer"
    ],
    "reviewsCount": 33,
    "imagesCount": 10,
    "openingHours": [
      {
        "day": "Monday",
        "hours": "10 AM to 7 PM"
      },
      {
        "day": "Tuesday",
        "hours": "10 AM to 7 PM"
      },
      {
        "day": "Wednesday",
        "hours": "10 AM to 7 PM"
      },
      {
        "day": "Thursday",
        "hours": "10 AM to 7 PM"
      },
      {
        "day": "Friday",
        "hours": "10 AM to 7 PM"
      },
      {
        "day": "Saturday",
        "hours": "10 AM to 7 PM"
      },
      {
        "day": "Sunday",
        "hours": "10 AM to 7 PM"
      }
    ],
    "imageUrl": "https://media.indianluxurycars.com/google/f8b6859cb39b7324eb4d253e3ccba06bdb043c4e6368817e28e714b5e92f8136.jpg",
    "url": "https://www.google.com/maps/search/?api=1&query=Manocha%20Car%20Point&query_place_id=ChIJe5wfh8rdDDkRCfIwlFga_xc"
  },
  {
    "title": "Manocha Motor(Since 1999) Certified Used Cars in Faridabad | Gurugram | Noida | Delhi",
    "subTitle": "मनोचा मोटर्स",
    "categoryName": "Used car dealer",
    "address": "Plot No 1, Near Bptp Red Crossing ByePass Road, Sector 13, Faridabad, Haryana 121007, India",
    "neighborhood": "Sector 13",
    "street": "Plot No 1, Near Bptp Red Crossing ByePass Road",
    "city": "Faridabad",
    "postalCode": "121007",
    "state": "Haryana",
    "countryCode": "IN",
    "phone": "+919999688832",
    "phoneUnformatted": "+919999688832",
    "location": {
      "lat": 28.3842936,
      "lng": 77.3374069
    },
    "totalScore": 4.7,
    "permanentlyClosed": false,
    "temporarilyClosed": false,
    "placeId": "ChIJq1nOkfTcDDkRLDYGyzdlLw8",
    "categories": [
      "Used car dealer",
      "Car dealer",
      "Car finance and loan company",
      "Insurance agency"
    ],
    "reviewsCount": 508,
    "imagesCount": 439,
    "openingHours": [
      {
        "day": "Monday",
        "hours": "8 AM to 8 PM"
      },
      {
        "day": "Tuesday",
        "hours": "8 AM to 8 PM"
      },
      {
        "day": "Wednesday",
        "hours": "8 AM to 8 PM"
      },
      {
        "day": "Thursday",
        "hours": "8 AM to 8 PM"
      },
      {
        "day": "Friday",
        "hours": "8 AM to 8 PM"
      },
      {
        "day": "Saturday",
        "hours": "8 AM to 8 PM"
      },
      {
        "day": "Sunday",
        "hours": "8 AM to 8 PM"
      }
    ],
    "imageUrl": "https://media.indianluxurycars.com/google/84abee13409b047616d372e1a2f25d0821e3f43fbccc51bf6c622ff60b85114d.jpg",
    "url": "https://www.google.com/maps/search/?api=1&query=Manocha%20Motor(Since%201999)%20Certified%20Used%20Cars%20in%20Faridabad%20%7C%20Gurugram%20%7C%20Noida%20%7C%20Delhi&query_place_id=ChIJq1nOkfTcDDkRLDYGyzdlLw8"
  },
  {
    "title": "OnlyBigCars Luxury Car Battery Point",
    "subTitle": "ऑनलाइबिगकर्स लक्जरी कार बैटरी पॉइंट",
    "categoryName": "Car battery store",
    "address": "HBH Colony, Sector 28, Faridabad, Haryana 121008, India",
    "neighborhood": "HBH Colony, Sector 28",
    "city": "Faridabad",
    "postalCode": "121008",
    "state": "Haryana",
    "countryCode": "IN",
    "website": "https://onlybigcars.com/",
    "phone": "+919999967591",
    "phoneUnformatted": "+919999967591",
    "location": {
      "lat": 28.434329,
      "lng": 77.311348
    },
    "permanentlyClosed": false,
    "temporarilyClosed": false,
    "placeId": "ChIJzcht6lXdDDkR85MHh2PxvBo",
    "categories": [
      "Car battery store"
    ],
    "imagesCount": 3,
    "openingHours": [
      {
        "day": "Monday",
        "hours": "Open 24 hours"
      },
      {
        "day": "Tuesday",
        "hours": "Open 24 hours"
      },
      {
        "day": "Wednesday",
        "hours": "Open 24 hours"
      },
      {
        "day": "Thursday",
        "hours": "Open 24 hours"
      },
      {
        "day": "Friday",
        "hours": "Open 24 hours"
      },
      {
        "day": "Saturday",
        "hours": "Open 24 hours"
      },
      {
        "day": "Sunday",
        "hours": "Open 24 hours"
      }
    ],
    "imageUrl": "https://media.indianluxurycars.com/google/6e2c254477cd06e653d5a43b59cfd7531bce5adf67153edbfa8c646a82c68a3e.jpg",
    "url": "https://www.google.com/maps/search/?api=1&query=OnlyBigCars%20Luxury%20Car%20Battery%20Point&query_place_id=ChIJzcht6lXdDDkR85MHh2PxvBo"
  },
  {
    "title": "OnlyBigCars Multibrand Car Battery Shop",
    "subTitle": "ऑनलाइबिगकर्स मल्टीब्रांड कार बैटरी शॉप",
    "categoryName": "Car battery store",
    "address": "near Bata Chowk, Bata A Colony, New Industrial Twp 1, New Industrial Township, Faridabad, Haryana 121001, India",
    "neighborhood": "Bata A Colony, New Industrial Township 1, New Industrial Township",
    "street": "near Bata Chowk",
    "city": "Faridabad",
    "postalCode": "121001",
    "state": "Haryana",
    "countryCode": "IN",
    "website": "https://onlybigcars.com/",
    "phone": "+919999967591",
    "phoneUnformatted": "+919999967591",
    "location": {
      "lat": 28.3787845,
      "lng": 77.3065209
    },
    "permanentlyClosed": false,
    "temporarilyClosed": false,
    "placeId": "ChIJVbJV5HTdDDkRupja8JrKkSE",
    "categories": [
      "Car battery store"
    ],
    "imagesCount": 5,
    "openingHours": [
      {
        "day": "Monday",
        "hours": "Open 24 hours"
      },
      {
        "day": "Tuesday",
        "hours": "Open 24 hours"
      },
      {
        "day": "Wednesday",
        "hours": "Open 24 hours"
      },
      {
        "day": "Thursday",
        "hours": "Open 24 hours"
      },
      {
        "day": "Friday",
        "hours": "Open 24 hours"
      },
      {
        "day": "Saturday",
        "hours": "Open 24 hours"
      },
      {
        "day": "Sunday",
        "hours": "Open 24 hours"
      }
    ],
    "imageUrl": "https://media.indianluxurycars.com/google/de8421ec948d9861474e0a91bcebc41f89f7d6952aaa0cc7efe5bea33995f841.jpg",
    "url": "https://www.google.com/maps/search/?api=1&query=OnlyBigCars%20Multibrand%20Car%20Battery%20Shop&query_place_id=ChIJVbJV5HTdDDkRupja8JrKkSE"
  },
  {
    "title": "Regency Car Services",
    "subTitle": "रीजेंसी कार सर्विसेस",
    "categoryName": "Auto repair shop",
    "address": "Metro Pillar No 788, 18/2, Mathura Road Ajronda Crossing, Sector 15A, Faridabad, Haryana 121007, India",
    "neighborhood": "Sector 15A",
    "street": "Metro Pillar No 788, 18/2, Mathura Road Ajronda Crossing",
    "city": "Faridabad",
    "postalCode": "121007",
    "state": "Haryana",
    "countryCode": "IN",
    "phone": "+919599200970",
    "phoneUnformatted": "+919599200970",
    "location": {
      "lat": 28.3934769,
      "lng": 77.3127514
    },
    "totalScore": 4.6,
    "permanentlyClosed": false,
    "temporarilyClosed": false,
    "placeId": "ChIJM7DXgTPnDDkRps_X6O8_DgQ",
    "categories": [
      "Auto repair shop",
      "Auto body shop",
      "Auto glass repair service",
      "Auto painting",
      "Auto spring shop",
      "Car wash",
      "Chevrolet dealer",
      "Diesel engine repair service",
      "Parking garage",
      "Used car dealer"
    ],
    "reviewsCount": 256,
    "imagesCount": 144,
    "openingHours": [
      {
        "day": "Monday",
        "hours": "Closed"
      },
      {
        "day": "Tuesday",
        "hours": "9:30 AM to 6:30 PM"
      },
      {
        "day": "Wednesday",
        "hours": "9:30 AM to 6:30 PM"
      },
      {
        "day": "Thursday",
        "hours": "9:30 AM to 6:30 PM"
      },
      {
        "day": "Friday",
        "hours": "9:30 AM to 6:30 PM"
      },
      {
        "day": "Saturday",
        "hours": "9:30 AM to 6:30 PM"
      },
      {
        "day": "Sunday",
        "hours": "9:30 AM to 6:30 PM"
      }
    ],
    "imageUrl": "https://media.indianluxurycars.com/google/af9cc16bd3a7dc3d017648ece14259eafd80d4053ca21cf26d0635a259396bb8.jpg",
    "url": "https://www.google.com/maps/search/?api=1&query=Regency%20Car%20Services&query_place_id=ChIJM7DXgTPnDDkRps_X6O8_DgQ"
  },
  {
    "title": "Rents Luxury",
    "subTitle": "रेट्स लक्जरी",
    "categoryName": "Car rental agency",
    "address": "House No. 86, Block H, near BR Hospital, Pocket H, Sector 10 HBC, Faridabad, Haryana 121006, India",
    "neighborhood": "Pocket H, Sector 10 HBC",
    "street": "House No. 86, Block H, near BR Hospital",
    "city": "Faridabad",
    "postalCode": "121006",
    "state": "Haryana",
    "countryCode": "IN",
    "location": {
      "lat": 28.3732366,
      "lng": 77.3285553
    },
    "permanentlyClosed": false,
    "temporarilyClosed": false,
    "placeId": "ChIJZ41lpGPcDDkR_TYaPHLwJPU",
    "categories": [
      "Car rental agency"
    ],
    "imagesCount": 1,
    "openingHours": [],
    "imageUrl": "https://media.indianluxurycars.com/google/cad795a705a2e637180dd32e0db176a341fbdabd270aa5a27577921fa357ff72.jpg",
    "url": "https://www.google.com/maps/search/?api=1&query=Rents%20Luxury&query_place_id=ChIJZ41lpGPcDDkR_TYaPHLwJPU"
  },
  {
    "title": "Rents Luxury",
    "subTitle": "रेट्स लक्जरी",
    "categoryName": "Car leasing service",
    "address": "no 86A, H House, H, Board Colony, Block H, Sector 10, New Industrial Township, Faridabad, Haryana 121001, India",
    "neighborhood": "Block H, Sector 10, New Industrial Township",
    "street": "no 86A, H House, H, Board Colony",
    "city": "Faridabad",
    "postalCode": "121001",
    "state": "Haryana",
    "countryCode": "IN",
    "location": {
      "lat": 28.3950865,
      "lng": 77.2988309
    },
    "permanentlyClosed": false,
    "temporarilyClosed": false,
    "placeId": "ChIJh3rIOmjcDDkRhLuZpLZRS4c",
    "categories": [
      "Car leasing service",
      "Car rental agency"
    ],
    "openingHours": [
      {
        "day": "Monday",
        "hours": "Open 24 hours"
      },
      {
        "day": "Tuesday",
        "hours": "Open 24 hours"
      },
      {
        "day": "Wednesday",
        "hours": "Open 24 hours"
      },
      {
        "day": "Thursday",
        "hours": "Open 24 hours"
      },
      {
        "day": "Friday",
        "hours": "Open 24 hours"
      },
      {
        "day": "Saturday",
        "hours": "Open 24 hours"
      },
      {
        "day": "Sunday",
        "hours": "Open 24 hours"
      }
    ],
    "url": "https://www.google.com/maps/search/?api=1&query=Rents%20Luxury&query_place_id=ChIJh3rIOmjcDDkRhLuZpLZRS4c"
  },
  {
    "title": "Rentz Luxury",
    "subTitle": "रेंट्ज लक्जरी",
    "categoryName": "Car rental agency",
    "address": "1 Ground Floor, 5A-17BP, Railway Rd, near Pizza Villa, New Industrial Twp 5, New Industrial Township, Faridabad, Haryana 121001, India",
    "neighborhood": "Block A, New Industrial Township 5, New Industrial Township",
    "street": "1 Ground Floor, 5A-17BP, Railway Rd, near Pizza Villa",
    "city": "Faridabad",
    "postalCode": "121001",
    "state": "Haryana",
    "countryCode": "IN",
    "phone": "+919812000496",
    "phoneUnformatted": "+919812000496",
    "location": {
      "lat": 28.4053998,
      "lng": 77.3049156
    },
    "totalScore": 5,
    "permanentlyClosed": false,
    "temporarilyClosed": false,
    "placeId": "ChIJU1TF3hTdDDkRmEtZ1IrdHXA",
    "categories": [
      "Car rental agency"
    ],
    "reviewsCount": 16,
    "imagesCount": 86,
    "openingHours": [
      {
        "day": "Monday",
        "hours": "7 AM to 9 PM"
      },
      {
        "day": "Tuesday",
        "hours": "7 AM to 9 PM"
      },
      {
        "day": "Wednesday",
        "hours": "7 AM to 9 PM"
      },
      {
        "day": "Thursday",
        "hours": "7 AM to 9 PM"
      },
      {
        "day": "Friday",
        "hours": "7 AM to 9 PM"
      },
      {
        "day": "Saturday",
        "hours": "7 AM to 9 PM"
      },
      {
        "day": "Sunday",
        "hours": "7 AM to 9 PM"
      }
    ],
    "imageUrl": "https://media.indianluxurycars.com/google/fe00834d9e8ce5de8e3b944dccbb426aef96b1d7668831dde4d22b1dc70a2b74.jpg",
    "url": "https://www.google.com/maps/search/?api=1&query=Rentz%20Luxury&query_place_id=ChIJU1TF3hTdDDkRmEtZ1IrdHXA"
  },
  {
    "title": "Sachha Sauda Car Bazar - used car & second hand car Faridabad",
    "subTitle": "सच्चा सौदा कार बाजार - यूज्ड कार & सेकंड हैंड कार फरीदाबाद",
    "categoryName": "Used car dealer",
    "address": "Plot No. 27/28, Neelam Bata Road, Crown Plaza Near Yuva Motors, N.I.T, Block J, New Industrial Twp 1, New Industrial Township, Faridabad, Haryana 121001, India",
    "neighborhood": "Block J, New Industrial Township 1, New Industrial Township",
    "street": "Plot No. 27/28, Neelam Bata Road, Crown Plaza Near Yuva Motors, N.I.T",
    "city": "Faridabad",
    "postalCode": "121001",
    "state": "Haryana",
    "countryCode": "IN",
    "phone": "+919911147353",
    "phoneUnformatted": "+919911147353",
    "location": {
      "lat": 28.3829469,
      "lng": 77.3074821
    },
    "totalScore": 3.4,
    "permanentlyClosed": false,
    "temporarilyClosed": false,
    "placeId": "ChIJRzMFCD_cDDkR7fQFTpxn9Iw",
    "categories": [
      "Used car dealer"
    ],
    "reviewsCount": 49,
    "imagesCount": 26,
    "openingHours": [
      {
        "day": "Monday",
        "hours": "10:30 AM to 8 PM"
      },
      {
        "day": "Tuesday",
        "hours": "10:30 AM to 8 PM"
      },
      {
        "day": "Wednesday",
        "hours": "10:30 AM to 8 PM"
      },
      {
        "day": "Thursday",
        "hours": "10:30 AM to 8 PM"
      },
      {
        "day": "Friday",
        "hours": "10:30 AM to 8 PM"
      },
      {
        "day": "Saturday",
        "hours": "10:30 AM to 8 PM"
      },
      {
        "day": "Sunday",
        "hours": "10:30 AM to 8 PM"
      }
    ],
    "imageUrl": "https://media.indianluxurycars.com/google/ea095b49bf98d8472a7534f46bdd0523b55440d49f92905027081e048370e276.jpg",
    "url": "https://www.google.com/maps/search/?api=1&query=Sachha%20Sauda%20Car%20Bazar%20-%20used%20car%20%26%20second%20hand%20car%20Faridabad&query_place_id=ChIJRzMFCD_cDDkR7fQFTpxn9Iw"
  },
  {
    "title": "Shree Krishna Motors",
    "subTitle": "श्री कृष्णा मोटर्स",
    "categoryName": "Motor vehicle dealer",
    "address": "Shop No. 84, Exit Gate, Omaxe Heights Rd, near Sector - 86, Sector 86, Faridabad, Haryana 121007, India",
    "neighborhood": "Sector 86",
    "street": "Shop No. 84, Exit Gate, Omaxe Heights Rd, near Sector - 86",
    "city": "Faridabad",
    "postalCode": "121007",
    "state": "Haryana",
    "countryCode": "IN",
    "phone": "+919810756033",
    "phoneUnformatted": "+919810756033",
    "location": {
      "lat": 28.4085168,
      "lng": 77.3366483
    },
    "totalScore": 5,
    "permanentlyClosed": false,
    "temporarilyClosed": false,
    "placeId": "ChIJWSy_GIPdDDkRYWecHiE-ZLc",
    "categories": [
      "Motor vehicle dealer"
    ],
    "reviewsCount": 1,
    "imagesCount": 8,
    "openingHours": [
      {
        "day": "Monday",
        "hours": "10 AM to 6 PM"
      },
      {
        "day": "Tuesday",
        "hours": "10 AM to 6 PM"
      },
      {
        "day": "Wednesday",
        "hours": "10 AM to 6 PM"
      },
      {
        "day": "Thursday",
        "hours": "10 AM to 6 PM"
      },
      {
        "day": "Friday",
        "hours": "10 AM to 6 PM"
      },
      {
        "day": "Saturday",
        "hours": "10 AM to 6 PM"
      },
      {
        "day": "Sunday",
        "hours": "10 AM to 6 PM"
      }
    ],
    "imageUrl": "https://media.indianluxurycars.com/google/01b82733ae556dc41bb74595ee174a864ca13f092caca5d83a4e24ffbf7bb4ed.jpg",
    "url": "https://www.google.com/maps/search/?api=1&query=Shree%20Krishna%20Motors&query_place_id=ChIJWSy_GIPdDDkRYWecHiE-ZLc"
  },
  {
    "title": "SHYAM JI SELF DRIVE CAR PVT. LTD.",
    "subTitle": "श्याम जी सेल्फ ड्राइव कार पीवीटी. एलटीडी.",
    "categoryName": "Car rental agency",
    "address": "Shop-234 Second Floor, Sector 16, Faridabad, Haryana 121002, India",
    "neighborhood": "HUDA Staff Colony, Sector 16",
    "street": "Shop-234 Second Floor",
    "city": "Faridabad",
    "postalCode": "121002",
    "state": "Haryana",
    "countryCode": "IN",
    "website": "https://www.shyamjiselfdrivecar.com/",
    "phone": "+918048028903",
    "phoneUnformatted": "+918048028903",
    "location": {
      "lat": 28.4100106,
      "lng": 77.3197439
    },
    "totalScore": 4.9,
    "permanentlyClosed": false,
    "temporarilyClosed": false,
    "placeId": "ChIJq6qa7bHdDDkRlZ3cm_E5AKY",
    "categories": [
      "Car rental agency",
      "Car leasing service"
    ],
    "reviewsCount": 303,
    "imagesCount": 260,
    "openingHours": [
      {
        "day": "Monday",
        "hours": "Open 24 hours"
      },
      {
        "day": "Tuesday",
        "hours": "Open 24 hours"
      },
      {
        "day": "Wednesday",
        "hours": "Open 24 hours"
      },
      {
        "day": "Thursday",
        "hours": "Open 24 hours"
      },
      {
        "day": "Friday",
        "hours": "Open 24 hours"
      },
      {
        "day": "Saturday",
        "hours": "12 AM to 11:30 PM"
      },
      {
        "day": "Sunday",
        "hours": "Open 24 hours"
      }
    ],
    "imageUrl": "https://media.indianluxurycars.com/google/df9573170d2b4b9682b4cf0a48ed497eaf53191bf62da0f5ccc56ff3b7d54bda.jpg",
    "url": "https://www.google.com/maps/search/?api=1&query=SHYAM%20JI%20SELF%20DRIVE%20CAR%20PVT.%20LTD.&query_place_id=ChIJq6qa7bHdDDkRlZ3cm_E5AKY"
  },
  {
    "title": "Shyam JI Self Drive Car Rental",
    "subTitle": "श्याम जी सेल्फ ड्राइव कार रेंटल",
    "categoryName": "Car rental agency",
    "address": "SHOP -1, PLOT NO -3, Accord Hospital Rd, opp. PUNJABI KADHAI, Budena Village, Sector 86, Faridabad, Haryana 121007, India",
    "neighborhood": "Budena Village, Sector 86",
    "street": "SHOP -1, PLOT NO -3, Accord Hospital Rd, opp. PUNJABI KADHAI",
    "city": "Faridabad",
    "postalCode": "121007",
    "state": "Haryana",
    "countryCode": "IN",
    "website": "https://www.shyamjiselfdrivecar.com/",
    "phone": "+919311442766",
    "phoneUnformatted": "+919311442766",
    "location": {
      "lat": 28.3987352,
      "lng": 77.3486702
    },
    "totalScore": 4.8,
    "permanentlyClosed": false,
    "temporarilyClosed": false,
    "placeId": "ChIJb8QcH1cihqQR-r2MWP3g4L4",
    "categories": [
      "Car rental agency"
    ],
    "reviewsCount": 48,
    "imagesCount": 184,
    "openingHours": [
      {
        "day": "Monday",
        "hours": "Open 24 hours"
      },
      {
        "day": "Tuesday",
        "hours": "Open 24 hours"
      },
      {
        "day": "Wednesday",
        "hours": "Open 24 hours"
      },
      {
        "day": "Thursday",
        "hours": "Open 24 hours"
      },
      {
        "day": "Friday",
        "hours": "Open 24 hours"
      },
      {
        "day": "Saturday",
        "hours": "Open 24 hours"
      },
      {
        "day": "Sunday",
        "hours": "Open 24 hours"
      }
    ],
    "imageUrl": "https://media.indianluxurycars.com/google/df9573170d2b4b9682b4cf0a48ed497eaf53191bf62da0f5ccc56ff3b7d54bda.jpg",
    "url": "https://www.google.com/maps/search/?api=1&query=Shyam%20JI%20Self%20Drive%20Car%20Rental&query_place_id=ChIJb8QcH1cihqQR-r2MWP3g4L4"
  },
  {
    "title": "Sidh om yatra Delhi, NCR Faridabad Adventure Tours and Travels Wanderlust holiday Co.",
    "subTitle": "सिद्ध ओम यात्रा दिल्ली, एनसीआर फरीदाबाद एडवेंचर टूर्स एंड ट्रैवल्स वान्देर्लुस्त हॉलिडे को.",
    "categoryName": "Car leasing service",
    "address": "House no 1391, Housing Board Colony Rd, Sector 29, Faridabad, Haryana 121008, India",
    "neighborhood": "Sector 29",
    "street": "House no 1391, Housing Board Colony Rd",
    "city": "Faridabad",
    "postalCode": "121008",
    "state": "Haryana",
    "countryCode": "IN",
    "website": "https://sidhomyatra.blogspot.com/",
    "phone": "+918894685790",
    "phoneUnformatted": "+918894685790",
    "location": {
      "lat": 28.4294609,
      "lng": 77.3238626
    },
    "totalScore": 4.9,
    "permanentlyClosed": false,
    "temporarilyClosed": false,
    "placeId": "ChIJN5E5AWDdDDkRn4UuG-mZc-c",
    "categories": [
      "Car leasing service",
      "Bus tour agency",
      "Tour operator",
      "Hotel",
      "Sightseeing tour agency",
      "Taxi service",
      "Travel agency"
    ],
    "reviewsCount": 60,
    "imagesCount": 38,
    "openingHours": [],
    "imageUrl": "https://media.indianluxurycars.com/google/4f0e934111e95759b24d6b773d73f4456f3c2812d3d9947dbff6e32774f62df4.jpg",
    "url": "https://www.google.com/maps/search/?api=1&query=Sidh%20om%20yatra%20Delhi%2C%20NCR%20Faridabad%20Adventure%20Tours%20and%20Travels%20Wanderlust%20holiday%20Co.&query_place_id=ChIJN5E5AWDdDDkRn4UuG-mZc-c"
  },
  {
    "title": "Sircar - Certified used cars | Mahindra First Choice Faridabad",
    "subTitle": "सर कार - महिंद्रा फर्स्ट च्वाइस",
    "categoryName": "Used car dealer",
    "address": "Metro Station, 40-40B, Ground floor, Vardhman Mall, near Badkhal Road, Sector 19, Faridabad, Haryana 121002, India",
    "neighborhood": "Sector 19",
    "street": "Metro Station, 40-40B, Ground floor, Vardhman Mall, near Badkhal Road",
    "city": "Faridabad",
    "postalCode": "121002",
    "state": "Haryana",
    "countryCode": "IN",
    "website": "https://www.mahindrafirstchoice.com/used/car-dealers/sircar-in-faridabad-234/buy",
    "phone": "+919910844553",
    "phoneUnformatted": "+919910844553",
    "location": {
      "lat": 28.4257085,
      "lng": 77.3106342
    },
    "totalScore": 3.6,
    "permanentlyClosed": false,
    "temporarilyClosed": false,
    "placeId": "ChIJ_1EAwL_dDDkRkJbHwR6Q13o",
    "categories": [
      "Used car dealer",
      "Auto insurance agency",
      "Auto painting",
      "Auto repair shop",
      "Auto tag agency",
      "Car dealer",
      "Car finance and loan company",
      "Car repair and maintenance service",
      "Motor vehicle dealer",
      "Vehicle inspection service"
    ],
    "reviewsCount": 95,
    "imagesCount": 221,
    "openingHours": [
      {
        "day": "Monday",
        "hours": "10 AM to 7:30 PM"
      },
      {
        "day": "Tuesday",
        "hours": "10 AM to 7:30 PM"
      },
      {
        "day": "Wednesday",
        "hours": "10 AM to 7:30 PM"
      },
      {
        "day": "Thursday",
        "hours": "10 AM to 7:30 PM"
      },
      {
        "day": "Friday",
        "hours": "10 AM to 7:30 PM"
      },
      {
        "day": "Saturday",
        "hours": "10 AM to 7:30 PM"
      },
      {
        "day": "Sunday",
        "hours": "10 AM to 7:30 PM"
      }
    ],
    "imageUrl": "https://media.indianluxurycars.com/google/cb5898786032cbb84f5f0ad99f8be6a6753e747d5465f34c365f49a40967e36e.jpg",
    "url": "https://www.google.com/maps/search/?api=1&query=Sircar%20-%20Certified%20used%20cars%20%7C%20Mahindra%20First%20Choice%20Faridabad&query_place_id=ChIJ_1EAwL_dDDkRkJbHwR6Q13o"
  },
  {
    "title": "Soul Travelink",
    "subTitle": "सोल ट्रैवलिंक",
    "categoryName": "Car rental agency",
    "address": "2nd Floor, on Holi, 1389, child school road, HBC, Sector 29, Faridabad, Haryana 121008, India",
    "neighborhood": "HBC, Sector 29",
    "street": "2nd Floor, on Holi, 1389, child school road",
    "city": "Faridabad",
    "postalCode": "121008",
    "state": "Haryana",
    "countryCode": "IN",
    "website": "https://enquiry.soultravelink.com/",
    "phone": "+919821961116",
    "phoneUnformatted": "+919821961116",
    "location": {
      "lat": 28.4291378,
      "lng": 77.3258923
    },
    "totalScore": 5,
    "permanentlyClosed": false,
    "temporarilyClosed": false,
    "placeId": "ChIJof6sEy3IQW4R5HobjNJO0MM",
    "categories": [
      "Car rental agency",
      "Bus tour agency",
      "Tour operator",
      "Minibus taxi service",
      "Pilgrimage place",
      "Sightseeing tour agency",
      "Taxi service",
      "Tourist attraction",
      "Tourist information center",
      "Transportation service"
    ],
    "reviewsCount": 23,
    "imagesCount": 40,
    "openingHours": [
      {
        "day": "Monday",
        "hours": "9 AM to 7 PM"
      },
      {
        "day": "Tuesday",
        "hours": "9 AM to 7 PM"
      },
      {
        "day": "Wednesday",
        "hours": "9 AM to 7 PM"
      },
      {
        "day": "Thursday",
        "hours": "9 AM to 7 PM"
      },
      {
        "day": "Friday",
        "hours": "9 AM to 7 PM"
      },
      {
        "day": "Saturday",
        "hours": "9 AM to 7 PM"
      },
      {
        "day": "Sunday",
        "hours": "9 AM to 7 PM"
      }
    ],
    "imageUrl": "https://media.indianluxurycars.com/google/ca8645512c79c4985dc79e27390e414dbcf86d173dbb29b7e0dd3e7631c70de9.jpg",
    "url": "https://www.google.com/maps/search/?api=1&query=Soul%20Travelink&query_place_id=ChIJof6sEy3IQW4R5HobjNJO0MM"
  },
  {
    "title": "Super Wheels - Certified secondhand cars in Faridabad",
    "subTitle": "सुपर व्हील्स - सर्टिफाइड सेकंडहैंड कार्स इन फरीदाबाद",
    "categoryName": "Used car dealer",
    "address": "Plot no. 12, A1, Dividing Road, Sector 11, Faridabad, Haryana 121006, India",
    "neighborhood": "Sector 11",
    "street": "Plot no. 12, A1, Dividing Road",
    "city": "Faridabad",
    "postalCode": "121006",
    "state": "Haryana",
    "countryCode": "IN",
    "phone": "+919911147353",
    "phoneUnformatted": "+919911147353",
    "location": {
      "lat": 28.3810279,
      "lng": 77.317131
    },
    "totalScore": 4.6,
    "permanentlyClosed": false,
    "temporarilyClosed": false,
    "placeId": "ChIJ1x2o8w7dDDkR1e42UynSKUo",
    "categories": [
      "Used car dealer"
    ],
    "reviewsCount": 40,
    "imagesCount": 44,
    "openingHours": [
      {
        "day": "Monday",
        "hours": "10 AM to 8 PM"
      },
      {
        "day": "Tuesday",
        "hours": "10 AM to 8 PM"
      },
      {
        "day": "Wednesday",
        "hours": "10 AM to 8 PM"
      },
      {
        "day": "Thursday",
        "hours": "10 AM to 8 PM"
      },
      {
        "day": "Friday",
        "hours": "10 AM to 8 PM"
      },
      {
        "day": "Saturday",
        "hours": "10 AM to 8 PM"
      },
      {
        "day": "Sunday",
        "hours": "10 AM to 8 PM"
      }
    ],
    "imageUrl": "https://media.indianluxurycars.com/google/5aefd5cdf92a1a263c7291873ec6583633fdefbb92035d9a2d64d21d47e9e94f.jpg",
    "url": "https://www.google.com/maps/search/?api=1&query=Super%20Wheels%20-%20Certified%20secondhand%20cars%20in%20Faridabad&query_place_id=ChIJ1x2o8w7dDDkR1e42UynSKUo"
  },
  {
    "title": "SUSHIL CAR BAZAR",
    "subTitle": "सुशील कार बाजार",
    "categoryName": "Car dealer",
    "address": "Sector 11C, Faridabad, Haryana 121006, India",
    "neighborhood": "Sector 11C",
    "city": "Faridabad",
    "postalCode": "121006",
    "state": "Haryana",
    "countryCode": "IN",
    "phone": "+919818573369",
    "phoneUnformatted": "+919818573369",
    "location": {
      "lat": 28.3812006,
      "lng": 77.3154705
    },
    "totalScore": 4.1,
    "permanentlyClosed": false,
    "temporarilyClosed": false,
    "placeId": "ChIJvUfP9XrdDDkRjLeKaP4R1UY",
    "categories": [
      "Car dealer"
    ],
    "reviewsCount": 68,
    "imagesCount": 159,
    "openingHours": [
      {
        "day": "Monday",
        "hours": "10 AM to 7 PM"
      },
      {
        "day": "Tuesday",
        "hours": "10 AM to 7 PM"
      },
      {
        "day": "Wednesday",
        "hours": "10 AM to 7 PM"
      },
      {
        "day": "Thursday",
        "hours": "10 AM to 7 PM"
      },
      {
        "day": "Friday",
        "hours": "10 AM to 7 PM"
      },
      {
        "day": "Saturday",
        "hours": "10 AM to 7 PM"
      },
      {
        "day": "Sunday",
        "hours": "10 AM to 7 PM"
      }
    ],
    "imageUrl": "https://media.indianluxurycars.com/google/d6dec61d0b4aafde310565ad6b9f71b31690b63528e8f79250407b90bae6a90e.jpg",
    "url": "https://www.google.com/maps/search/?api=1&query=SUSHIL%20CAR%20BAZAR&query_place_id=ChIJvUfP9XrdDDkRjLeKaP4R1UY"
  },
  {
    "title": "Tempo Traveller Minibus Hire Faridabad Gurgaon Delhi Ncr",
    "subTitle": "टेम्पो ट्रैवलर मिनीबस हीरे फरीदाबाद गुड़गांव दिल्ली एनसीआर",
    "categoryName": "Car rental agency",
    "address": "1B, 42, Block B, New Industrial Twp 1, New Industrial Township, Faridabad, Haryana 121001, India",
    "neighborhood": "Block B, New Industrial Township 1, New Industrial Township",
    "street": "1B, 42",
    "city": "Faridabad",
    "postalCode": "121001",
    "state": "Haryana",
    "countryCode": "IN",
    "phone": "+919810682783",
    "phoneUnformatted": "+919810682783",
    "location": {
      "lat": 28.381717,
      "lng": 77.305554
    },
    "totalScore": 4.8,
    "permanentlyClosed": false,
    "temporarilyClosed": false,
    "placeId": "ChIJnwdXWT7cDDkR-1xycH_lEQY",
    "categories": [
      "Car rental agency",
      "Bus tour agency",
      "Minibus taxi service",
      "Sightseeing tour agency",
      "Taxi service",
      "Tour agency",
      "Tour operator",
      "Transportation service",
      "Travel agency",
      "Van rental agency"
    ],
    "reviewsCount": 91,
    "imagesCount": 251,
    "openingHours": [],
    "imageUrl": "https://media.indianluxurycars.com/google/3fa6d597915dd2616a8a2fd9ed53a66d04a102db8a2d272e0b88f00015a00e6b.jpg",
    "url": "https://www.google.com/maps/search/?api=1&query=Tempo%20Traveller%20Minibus%20Hire%20Faridabad%20Gurgaon%20Delhi%20Ncr&query_place_id=ChIJnwdXWT7cDDkR-1xycH_lEQY"
  },
  {
    "title": "Urbania Travel",
    "subTitle": "अर्बनिया ट्रैवल",
    "categoryName": "Car rental agency",
    "address": "990, Sector 14, Faridabad, Haryana 121007, India",
    "neighborhood": "Sector 14",
    "street": "990",
    "city": "Faridabad",
    "postalCode": "121007",
    "state": "Haryana",
    "countryCode": "IN",
    "website": "http://www.urbaniatravel.in/",
    "phone": "+918860008555",
    "phoneUnformatted": "+918860008555",
    "location": {
      "lat": 28.3940685,
      "lng": 77.3299859
    },
    "totalScore": 5,
    "permanentlyClosed": false,
    "temporarilyClosed": false,
    "placeId": "ChIJF8uM9d7dDDkRmyoMa5Tb7rA",
    "categories": [
      "Car rental agency"
    ],
    "reviewsCount": 30,
    "imagesCount": 17,
    "openingHours": [
      {
        "day": "Monday",
        "hours": "10 AM to 8 PM"
      },
      {
        "day": "Tuesday",
        "hours": "10 AM to 8 PM"
      },
      {
        "day": "Wednesday",
        "hours": "10 AM to 8 PM"
      },
      {
        "day": "Thursday",
        "hours": "10 AM to 8 PM"
      },
      {
        "day": "Friday",
        "hours": "10 AM to 8 PM"
      },
      {
        "day": "Saturday",
        "hours": "10 AM to 8 PM"
      },
      {
        "day": "Sunday",
        "hours": "10 AM to 8 PM"
      }
    ],
    "imageUrl": "https://media.indianluxurycars.com/google/58c846011d33631519cbc10cdd502820ce713977838a00370cd0a54ca43f9515.jpg",
    "url": "https://www.google.com/maps/search/?api=1&query=Urbania%20Travel&query_place_id=ChIJF8uM9d7dDDkRmyoMa5Tb7rA"
  }
]
