[
  {
    "title": "Coimbatore Car Rental & Taxi Services",
    "subTitle": "கோயம்புத்தூர் கார் ரெண்டல்ஸ் & டாக்ஸி சேர்விசஸ்",
    "categoryName": "Car rental agency",
    "address": "98, Dr Alagappa Chettiar Rd, Tatabad, Gandhipuram, Coimbatore, Tamil Nadu 641012, India",
    "neighborhood": "Tatabad",
    "street": "98, Dr Alagappa Chettiar Rd",
    "city": "Gandhipuram, Coimbatore",
    "postalCode": "641012",
    "state": "Tamil Nadu",
    "countryCode": "IN",
    "website": "https://coimbatorecarrentals.com/",
    "phone": "+917373730705",
    "phoneUnformatted": "+917373730705",
    "location": {
      "lat": 11.021859,
      "lng": 76.962289
    },
    "totalScore": 4.6,
    "permanentlyClosed": false,
    "temporarilyClosed": false,
    "placeId": "ChIJ-9Pn_P5YqDsR9QxIMzHoP_g",
    "categories": [
      "Car rental agency",
      "Car leasing service",
      "Taxi service"
    ],
    "reviewsCount": 181,
    "imagesCount": 326,
    "openingHours": [],
    "imageUrl": "https://media.indianluxurycars.com/google/6c33d4176618bbdf25f567c16b508958718452c6ad9f342e86ec7c6bd9b131da.jpg",
    "url": "https://www.google.com/maps/search/?api=1&query=Coimbatore%20Car%20Rental%20%26%20Taxi%20Services&query_place_id=ChIJ-9Pn_P5YqDsR9QxIMzHoP_g"
  },
  {
    "title": "JIYA CARS",
    "categoryName": "Car leasing service",
    "address": "428, Dr Rajendra Prasad Rd, Opposite Seshadri Mahal, Gandhipuram, Coimbatore, Tamil Nadu 641012, India",
    "neighborhood": "Opposite Seshadri Mahal",
    "street": "428, Dr Rajendra Prasad Rd",
    "city": "Gandhipuram, Coimbatore",
    "postalCode": "641012",
    "state": "Tamil Nadu",
    "countryCode": "IN",
    "location": {
      "lat": 11.0196286,
      "lng": 76.963809
    },
    "totalScore": 4.9,
    "permanentlyClosed": false,
    "temporarilyClosed": false,
    "placeId": "ChIJ5V3JX3pZqDsRPRYKo6tRYxE",
    "categories": [
      "Car leasing service"
    ],
    "reviewsCount": 61,
    "imagesCount": 20,
    "openingHours": [
      {
        "day": "Monday",
        "hours": "9:30 AM to 7 PM"
      },
      {
        "day": "Tuesday",
        "hours": "9:30 AM to 7 PM"
      },
      {
        "day": "Wednesday",
        "hours": "9:30 AM to 7 PM"
      },
      {
        "day": "Thursday",
        "hours": "9:30 AM to 7 PM"
      },
      {
        "day": "Friday",
        "hours": "9:30 AM to 7 PM"
      },
      {
        "day": "Saturday",
        "hours": "9:30 AM to 7 PM"
      },
      {
        "day": "Sunday",
        "hours": "Closed"
      }
    ],
    "imageUrl": "https://media.indianluxurycars.com/google/e8d767427ee51c8a96fc6250537d483faeec7e0c24cc068ead61eee0a5f42c32.jpg",
    "url": "https://www.google.com/maps/search/?api=1&query=JIYA%20CARS&query_place_id=ChIJ5V3JX3pZqDsRPRYKo6tRYxE"
  },
  {
    "title": "Yebo Cab",
    "categoryName": "Car rental agency",
    "address": "354 C, Dr Rajendra Prasad Rd, Opposite Seshadri Mahal, Gandhipuram, Coimbatore, Tamil Nadu 641012, India",
    "neighborhood": "Opposite Seshadri Mahal",
    "street": "354 C, Dr Rajendra Prasad Rd",
    "city": "Gandhipuram, Coimbatore",
    "postalCode": "641012",
    "state": "Tamil Nadu",
    "countryCode": "IN",
    "website": "https://www.yebocab.com/",
    "phone": "+917708777087",
    "phoneUnformatted": "+917708777087",
    "location": {
      "lat": 11.0196154,
      "lng": 76.9638007
    },
    "totalScore": 4.9,
    "permanentlyClosed": false,
    "temporarilyClosed": false,
    "placeId": "ChIJlc0vrPhYqDsRto9EkjATIlg",
    "categories": [
      "Car rental agency",
      "Car leasing service",
      "Taxi service",
      "Minibus taxi service",
      "Outdoor activity organiser",
      "Tour operator",
      "Travel agency"
    ],
    "reviewsCount": 22,
    "imagesCount": 2,
    "openingHours": [],
    "imageUrl": "https://media.indianluxurycars.com/google/6568d8985a31e14e719371a2767c584ab6b6be46d7f1df38dbff8c9413dea408.png",
    "url": "https://www.google.com/maps/search/?api=1&query=Yebo%20Cab&query_place_id=ChIJlc0vrPhYqDsRto9EkjATIlg"
  }
]
