[
  {
    "title": ",.",
    "subTitle": ",‡•∞",
    "categoryName": "Used car dealer",
    "address": "Metro Station, Plot no 6, Shop no 3 & 4 Swaroop Park, Main, Grand Trunk Rd, near Shyam Park, Sahibabad, Ghaziabad, Uttar Pradesh 201005, India",
    "neighborhood": "Sector 4, Rajendra Nagar, Sahibabad",
    "street": "Metro Station, Plot no 6, Shop no 3 & 4 Swaroop Park, Main, Grand Trunk Rd, near Shyam Park",
    "city": "Ghaziabad",
    "postalCode": "201005",
    "state": "Uttar Pradesh",
    "countryCode": "IN",
    "location": {
      "lat": 28.6801345,
      "lng": 77.3703718
    },
    "totalScore": 4.9,
    "permanentlyClosed": false,
    "temporarilyClosed": true,
    "placeId": "ChIJn2UWhPX6DDkRx5bPkC17Yao",
    "categories": [
      "Used car dealer"
    ],
    "reviewsCount": 12,
    "imagesCount": 1,
    "openingHours": [],
    "imageUrl": "https://media.indianluxurycars.com/google/e3703eb51b7e59bab91467d7a50896dc40e28ec8fcfc866086cddfcf87ef124b.jpg",
    "url": "https://www.google.com/maps/search/?api=1&query=%2C.&query_place_id=ChIJn2UWhPX6DDkRx5bPkC17Yao"
  },
  {
    "title": "Aarti tour and travels",
    "subTitle": "‡§Ü‡§∞‡§§‡•Ä ‡§ü‡•Ç‡§∞ ‡§è‡§Ç‡§° ‡§ü‡•ç‡§∞‡•à‡§µ‡§≤‡•ç‡§∏",
    "categoryName": "Car leasing service",
    "address": "Shop no-6, veer plaza market society, NH-24, Avantika Extension, Mahagunpuram, Ghaziabad, Uttar Pradesh 201002, India",
    "neighborhood": "Avantika Extension, Mahagunpuram",
    "street": "Shop no-6, veer plaza market society, NH-24",
    "city": "Ghaziabad",
    "postalCode": "201002",
    "state": "Uttar Pradesh",
    "countryCode": "IN",
    "phone": "+919319422345",
    "phoneUnformatted": "+919319422345",
    "location": {
      "lat": 28.6669536,
      "lng": 77.4777259
    },
    "totalScore": 4.8,
    "permanentlyClosed": false,
    "temporarilyClosed": false,
    "placeId": "ChIJcZhPtJnzDDkRZFZYo9CsN0o",
    "categories": [
      "Car leasing service",
      "Taxi service",
      "Tourist attraction"
    ],
    "reviewsCount": 41,
    "imagesCount": 60,
    "openingHours": [
      {
        "day": "Monday",
        "hours": "9‚ÄØAM to 5‚ÄØPM"
      },
      {
        "day": "Tuesday",
        "hours": "9‚ÄØAM to 5‚ÄØPM"
      },
      {
        "day": "Wednesday",
        "hours": "9‚ÄØAM to 5‚ÄØPM"
      },
      {
        "day": "Thursday",
        "hours": "9‚ÄØAM to 5‚ÄØPM"
      },
      {
        "day": "Friday",
        "hours": "9‚ÄØAM to 5‚ÄØPM"
      },
      {
        "day": "Saturday",
        "hours": "9‚ÄØAM to 5‚ÄØPM"
      },
      {
        "day": "Sunday",
        "hours": "9‚ÄØAM to 5‚ÄØPM"
      }
    ],
    "imageUrl": "https://media.indianluxurycars.com/google/ee493b57720ab675780078abb7be90c95472534e18be31f8b9b29257769c7718.jpg",
    "url": "https://www.google.com/maps/search/?api=1&query=Aarti%20tour%20and%20travels&query_place_id=ChIJcZhPtJnzDDkRZFZYo9CsN0o"
  },
  {
    "title": "Akash Luxury",
    "subTitle": "‡§Ü‡§ï‡§æ‡§∂ ‡§≤‡§ï‡•ç‡§ú‡§∞‡•Ä",
    "categoryName": "Car rental agency",
    "address": "House No 206, near by Sai Mandir Marg, Chabra Colony, Vikram Enclave, Shalimar Garden, Sahibabad, Ghaziabad, Uttar Pradesh 201006, India",
    "neighborhood": "Chabra Colony, Vikram Enclave, Shalimar Garden, Sahibabad",
    "street": "House No 206, near by Sai Mandir Marg",
    "city": "Ghaziabad",
    "postalCode": "201006",
    "state": "Uttar Pradesh",
    "countryCode": "IN",
    "location": {
      "lat": 28.690625,
      "lng": 77.334859
    },
    "permanentlyClosed": false,
    "temporarilyClosed": false,
    "placeId": "ChIJ1blfjFL6DDkRegidJOUyRb8",
    "categories": [
      "Car rental agency"
    ],
    "openingHours": [],
    "url": "https://www.google.com/maps/search/?api=1&query=Akash%20Luxury&query_place_id=ChIJ1blfjFL6DDkRegidJOUyRb8"
  },
  {
    "title": "Anubhav Solutions For Travel Pvt Ltd Car Rental Company",
    "subTitle": "‡§Ö‡§®‡•Å‡§≠‡§µ ‡§∏‡•ã‡§≤‡•Å‡§ü‡§ø‡§ì‡§Ç‡§∏ ‡§´‡•â‡§∞ ‡§ü‡•ç‡§∞‡•à‡§µ‡§≤ ‡§™‡•ç‡§∞‡§æ‡§á‡§µ‡•á‡§ü ‡§≤‡§ø‡§Æ‡§ø‡§ü‡•á‡§°/",
    "categoryName": "Car rental agency",
    "address": "Shop no-106, Satyam Building, near RDC, RDC, Block 1, P & T Colony, Raj Nagar, Ghaziabad, Uttar Pradesh 201002, India",
    "neighborhood": "RDC, Block 1, P & T Colony, Raj Nagar",
    "street": "Shop no-106, Satyam Building, near RDC",
    "city": "Ghaziabad",
    "postalCode": "201002",
    "state": "Uttar Pradesh",
    "countryCode": "IN",
    "website": "https://astsolutions.in/",
    "location": {
      "lat": 28.6726492,
      "lng": 77.4419917
    },
    "totalScore": 4.9,
    "permanentlyClosed": false,
    "temporarilyClosed": false,
    "placeId": "ChIJwXM365XxDDkRcIgVqlFrHk0",
    "categories": [
      "Car rental agency",
      "Bus tour agency",
      "Car leasing service",
      "Minibus taxi service",
      "Taxi service",
      "Tour agency",
      "Tour operator",
      "Travel agency"
    ],
    "reviewsCount": 152,
    "imagesCount": 293,
    "openingHours": [
      {
        "day": "Monday",
        "hours": "Open 24 hours"
      },
      {
        "day": "Tuesday",
        "hours": "Open 24 hours"
      },
      {
        "day": "Wednesday",
        "hours": "Open 24 hours"
      },
      {
        "day": "Thursday",
        "hours": "Open 24 hours"
      },
      {
        "day": "Friday",
        "hours": "Open 24 hours"
      },
      {
        "day": "Saturday",
        "hours": "Open 24 hours"
      },
      {
        "day": "Sunday",
        "hours": "Open 24 hours"
      }
    ],
    "imageUrl": "https://media.indianluxurycars.com/google/6367cefc03a5412fd877671fa46aa8e50a5364889954f1b11ae6f2ef4dba4d33.png",
    "url": "https://www.google.com/maps/search/?api=1&query=Anubhav%20Solutions%20For%20Travel%20Pvt%20Ltd%20Car%20Rental%20Company&query_place_id=ChIJwXM365XxDDkRcIgVqlFrHk0"
  },
  {
    "title": "Arihant Tourist | Urbania Tempo Traveller on Rent in Delhi-NCR | Serving Since 1975",
    "subTitle": "‡§Ö‡§∞‡§ø‡§π‡§Ç‡§§ ‡§ü‡•Ç‡§∞‡§ø‡§∏‡•ç‡§ü | ‡§Ö‡§∞‡•ç‡§¨‡§®‡§ø‡§Ø‡§æ ‡§ü‡•á‡§Æ‡•ç‡§™‡•ã ‡§ü‡•ç‡§∞‡•à‡§µ‡§≤‡§∞ ‡§ë‡§® ‡§∞‡•á‡§Ç‡§ü ‡§á‡§® ‡§¶‡§ø‡§≤‡•ç‡§≤‡•Ä-‡§è‡§®‡§∏‡•Ä‡§Ü‡§∞ | ‡§∏‡§∞‡•ç‡§µ‡§ø‡§Ç‡§ó ‡§∏‡•Ä‡§®‡•ç‡§∏ 1975",
    "categoryName": "Car rental agency",
    "address": "Rajnagar Residency, A-605, Vikas Nagar, Raj Nagar Extension, Ghaziabad, Uttar Pradesh 201017, India",
    "neighborhood": "Vikas Nagar, Raj Nagar Extension",
    "street": "Rajnagar Residency, A-605",
    "city": "Ghaziabad",
    "postalCode": "201017",
    "state": "Uttar Pradesh",
    "countryCode": "IN",
    "website": "https://www.arihanttourist.com/",
    "phone": "+919719281920",
    "phoneUnformatted": "+919719281920",
    "location": {
      "lat": 28.6965947,
      "lng": 77.4363119
    },
    "totalScore": 4.2,
    "permanentlyClosed": false,
    "temporarilyClosed": false,
    "placeId": "ChIJwfwSfClUDDkRVzar_k928yY",
    "categories": [
      "Car rental agency",
      "Bus tour agency",
      "Car leasing service",
      "Van rental agency",
      "Minibus taxi service",
      "Sightseeing tour agency",
      "Taxi service",
      "Tour operator"
    ],
    "reviewsCount": 100,
    "imagesCount": 43,
    "openingHours": [
      {
        "day": "Monday",
        "hours": "Open 24 hours"
      },
      {
        "day": "Tuesday",
        "hours": "Open 24 hours"
      },
      {
        "day": "Wednesday",
        "hours": "Open 24 hours"
      },
      {
        "day": "Thursday",
        "hours": "Open 24 hours"
      },
      {
        "day": "Friday",
        "hours": "Open 24 hours"
      },
      {
        "day": "Saturday",
        "hours": "Open 24 hours"
      },
      {
        "day": "Sunday",
        "hours": "Open 24 hours"
      }
    ],
    "imageUrl": "https://media.indianluxurycars.com/google/7b4dbf51beabb5b3489942136c4c10e44e8509f3ab39b2270276e088dd533089.jpg",
    "url": "https://www.google.com/maps/search/?api=1&query=Arihant%20Tourist%20%7C%20Urbania%20Tempo%20Traveller%20on%20Rent%20in%20Delhi-NCR%20%7C%20Serving%20Since%201975&query_place_id=ChIJwfwSfClUDDkRVzar_k928yY"
  },
  {
    "title": "Audi Rent Delhi",
    "subTitle": "‡§ë‡§°‡•Ä ‡§∞‡•á‡§Ç‡§ü ‡§¶‡§ø‡§≤‡•ç‡§≤‡•Ä",
    "categoryName": "Car rental agency",
    "address": "Office No:- 510 Ground Floor, 4/5, Sector 1, Vasundhara, Ghaziabad, Uttar Pradesh 201012, India",
    "neighborhood": "Sector 1, Vasundhara",
    "street": "Office No:- 510 Ground Floor, 4/5",
    "city": "Ghaziabad",
    "postalCode": "201012",
    "state": "Uttar Pradesh",
    "countryCode": "IN",
    "website": "https://audirentdelhi.com/",
    "phone": "+919999852595",
    "phoneUnformatted": "+919999852595",
    "location": {
      "lat": 28.6631626,
      "lng": 77.3905451
    },
    "totalScore": 4.7,
    "permanentlyClosed": false,
    "temporarilyClosed": false,
    "placeId": "ChIJUUiJma3xDDkRUDZ7QygnI3U",
    "categories": [
      "Car rental agency",
      "Carriage ride service",
      "Corporate office",
      "Leasing service",
      "Limousine service",
      "Transportation escort service",
      "Transportation service",
      "Van rental agency",
      "Wedding service"
    ],
    "reviewsCount": 207,
    "imagesCount": 7,
    "openingHours": [
      {
        "day": "Monday",
        "hours": "Open 24 hours"
      },
      {
        "day": "Tuesday",
        "hours": "Open 24 hours"
      },
      {
        "day": "Wednesday",
        "hours": "Open 24 hours"
      },
      {
        "day": "Thursday",
        "hours": "Open 24 hours"
      },
      {
        "day": "Friday",
        "hours": "Open 24 hours"
      },
      {
        "day": "Saturday",
        "hours": "Open 24 hours"
      },
      {
        "day": "Sunday",
        "hours": "Open 24 hours"
      }
    ],
    "imageUrl": "https://media.indianluxurycars.com/google/a1a1b0aa81dda6cca7b43046b69e9a8afcb746ec0449be872f5945bd487c26c0.jpg",
    "url": "https://www.google.com/maps/search/?api=1&query=Audi%20Rent%20Delhi&query_place_id=ChIJUUiJma3xDDkRUDZ7QygnI3U"
  },
  {
    "title": "Auto Giant",
    "subTitle": "‡§ë‡§ü‡•ã ‡§ú‡§æ‡§Ø‡§Ç‡§ü",
    "categoryName": "Car dealer",
    "address": "Niti Khand 3, Manoj Vihar, Indirapuram, Ghaziabad, Uttar Pradesh 201014, India",
    "neighborhood": "Niti Khand 3, Manoj Vihar, Indirapuram",
    "city": "Ghaziabad",
    "postalCode": "201014",
    "state": "Uttar Pradesh",
    "countryCode": "IN",
    "location": {
      "lat": 28.6459504,
      "lng": 77.3755836
    },
    "totalScore": 4.4,
    "permanentlyClosed": false,
    "temporarilyClosed": true,
    "placeId": "ChIJ32n4rT37DDkRCRH9qNNYD9k",
    "categories": [
      "Car dealer"
    ],
    "reviewsCount": 22,
    "imagesCount": 34,
    "openingHours": [],
    "imageUrl": "https://media.indianluxurycars.com/google/0d061478c2e91d27eb8c2a6f81eb93057db42acfeeefe737ee0b9dfde3e57968.png",
    "url": "https://www.google.com/maps/search/?api=1&query=Auto%20Giant&query_place_id=ChIJ32n4rT37DDkRCRH9qNNYD9k"
  },
  {
    "title": "BEST RIDES SHARE CAR RENTAL SERVICES",
    "subTitle": "‡§¨‡•á‡§∏‡•ç‡§ü ‡§∞‡§æ‡§á‡§°‡•ç‡§∏ ‡§∂‡•á‡§Ø‡§∞ ‡§ï‡§æ‡§∞ ‡§∞‡•á‡§Ç‡§ü‡§≤ ‡§∏‡§∞‡•ç‡§µ‡§ø‡§∏‡•á‡§∏",
    "categoryName": "Car rental agency",
    "address": "C/24, C Block Rd, Indira Colony, Rajendra Nagar, Sahibabad, Ghaziabad, Uttar Pradesh 201005, India",
    "neighborhood": "Indira Colony, Rajendra Nagar, Sahibabad",
    "street": "C/24, C Block Rd",
    "city": "Ghaziabad",
    "postalCode": "201005",
    "state": "Uttar Pradesh",
    "countryCode": "IN",
    "website": "https://bestrideshare.com/",
    "location": {
      "lat": 28.6733662,
      "lng": 77.3778804
    },
    "permanentlyClosed": false,
    "temporarilyClosed": false,
    "placeId": "ChIJT4bSAQ5nEjkRTFJcwzdo3_4",
    "categories": [
      "Car rental agency",
      "Car leasing service"
    ],
    "imagesCount": 8,
    "openingHours": [
      {
        "day": "Monday",
        "hours": "Open 24 hours"
      },
      {
        "day": "Tuesday",
        "hours": "Open 24 hours"
      },
      {
        "day": "Wednesday",
        "hours": "Open 24 hours"
      },
      {
        "day": "Thursday",
        "hours": "Open 24 hours"
      },
      {
        "day": "Friday",
        "hours": "Open 24 hours"
      },
      {
        "day": "Saturday",
        "hours": "Open 24 hours"
      },
      {
        "day": "Sunday",
        "hours": "Open 24 hours"
      }
    ],
    "imageUrl": "https://media.indianluxurycars.com/google/3977ca13f3b5c4e57e4280add6398c968294218ed707119127627a3761128e65.jpg",
    "url": "https://www.google.com/maps/search/?api=1&query=BEST%20RIDES%20SHARE%20CAR%20RENTAL%20SERVICES&query_place_id=ChIJT4bSAQ5nEjkRTFJcwzdo3_4"
  },
  {
    "title": "Budget Wheels",
    "subTitle": "‡§¨‡§ú‡§ü ‡§µ‡•ç‡§π‡•Ä‡§≤‡•ç‡§∏",
    "categoryName": "Used car dealer",
    "address": "Jaipuria Sunrise Plaza, SD166, Ahinsa Khand 1, Indirapuram, Ghaziabad, Uttar Pradesh 201014, India",
    "neighborhood": "Ahinsa Khand 1, Indirapuram",
    "street": "Jaipuria Sunrise Plaza, SD166",
    "city": "Ghaziabad",
    "postalCode": "201014",
    "state": "Uttar Pradesh",
    "countryCode": "IN",
    "website": "http://budgetwheels.in/",
    "phone": "+918062208175",
    "phoneUnformatted": "+918062208175",
    "location": {
      "lat": 28.6410327,
      "lng": 77.3778161
    },
    "totalScore": 5,
    "permanentlyClosed": false,
    "temporarilyClosed": false,
    "placeId": "ChIJd2aN5sn7DDkRgB0LaZbw5aM",
    "categories": [
      "Used car dealer",
      "Audi dealer",
      "BMW dealer",
      "Car dealer",
      "Hyundai dealer",
      "MG dealer"
    ],
    "reviewsCount": 96,
    "imagesCount": 230,
    "openingHours": [
      {
        "day": "Monday",
        "hours": "10:30‚ÄØAM to 8‚ÄØPM"
      },
      {
        "day": "Tuesday",
        "hours": "10:30‚ÄØAM to 8‚ÄØPM"
      },
      {
        "day": "Wednesday",
        "hours": "10:30‚ÄØAM to 8‚ÄØPM"
      },
      {
        "day": "Thursday",
        "hours": "10:30‚ÄØAM to 8‚ÄØPM"
      },
      {
        "day": "Friday",
        "hours": "10:30‚ÄØAM to 8‚ÄØPM"
      },
      {
        "day": "Saturday",
        "hours": "10:30‚ÄØAM to 8‚ÄØPM"
      },
      {
        "day": "Sunday",
        "hours": "10:30‚ÄØAM to 8‚ÄØPM"
      }
    ],
    "imageUrl": "https://media.indianluxurycars.com/google/8de03c5b4926a30ff5e690a6802f5694fa3e2d2083517a28ab5a6cfdb6d9cb02.jpg",
    "url": "https://www.google.com/maps/search/?api=1&query=Budget%20Wheels&query_place_id=ChIJd2aN5sn7DDkRgB0LaZbw5aM"
  },
  {
    "title": "Cabigo24. Tour and travel company | taxi services in ghaziabad",
    "subTitle": "‡§ï‡•à‡§¨‡§ø‡§ó‡•ã24. ‡§ü‡•Ç‡§∞ ‡§è‡§Ç‡§° ‡§ü‡•ç‡§∞‡•à‡§µ‡§≤ ‡§ï‡§Ç‡§™‡§®‡•Ä | ‡§ü‡•à‡§ï‡•ç‡§∏‡•Ä ‡§∏‡§∞‡•ç‡§µ‡§ø‡§∏‡•á‡§∏ ‡§á‡§® ‡§ó‡§æ‡§ú‡§ø‡§Ø‡§æ‡§¨‡§æ‡§¶",
    "categoryName": "Car leasing service",
    "address": "ansal sumangalm rdc, 362-A, RDC, Block 1, P & T Colony, Raj Nagar, Ghaziabad, Uttar Pradesh 201002, India",
    "neighborhood": "RDC, Block 1, P & T Colony, Raj Nagar",
    "street": "ansal sumangalm rdc, 362-A",
    "city": "Ghaziabad",
    "postalCode": "201002",
    "state": "Uttar Pradesh",
    "countryCode": "IN",
    "website": "https://www.cabigo24.com/",
    "phone": "+919990101406",
    "phoneUnformatted": "+919990101406",
    "location": {
      "lat": 28.6732653,
      "lng": 77.4403999
    },
    "totalScore": 5,
    "permanentlyClosed": false,
    "temporarilyClosed": false,
    "placeId": "ChIJi3Nyo6CXogEREVa_trMEWG0",
    "categories": [
      "Car leasing service",
      "Taxi service",
      "Minibus taxi service",
      "School bus service",
      "Tour agency",
      "Tour operator"
    ],
    "reviewsCount": 54,
    "imagesCount": 34,
    "openingHours": [],
    "imageUrl": "https://media.indianluxurycars.com/google/ec7c40c65d8f3116a07bbfca38293d4c051534a9791ce233939e0443ff799dab.jpg",
    "url": "https://www.google.com/maps/search/?api=1&query=Cabigo24.%20Tour%20and%20travel%20company%20%7C%20taxi%20services%20in%20ghaziabad&query_place_id=ChIJi3Nyo6CXogEREVa_trMEWG0"
  },
  {
    "title": "Car Dekho Mauli Motors",
    "subTitle": "‡§ï‡§æ‡§∞ ‡§¶‡•á‡§ñ‡•ã ‡§Æ‡•å‡§≤‡•Ä ‡§Æ‡•ã‡§ü‡§∞‡•ç‡§∏",
    "categoryName": "Used car dealer",
    "address": "UG-74, Cloud 9, Vaishali Rd, Sector 3F, Sector-1, Vaishali, Ghaziabad, Uttar Pradesh 201019, India",
    "neighborhood": "Sector 3F, Sector-1, Vaishali",
    "street": "UG-74, Cloud 9, Vaishali Rd",
    "city": "Ghaziabad",
    "postalCode": "201019",
    "state": "Uttar Pradesh",
    "countryCode": "IN",
    "phone": "+919311334300",
    "phoneUnformatted": "+919311334300",
    "location": {
      "lat": 28.6416697,
      "lng": 77.3370763
    },
    "totalScore": 5,
    "permanentlyClosed": false,
    "temporarilyClosed": false,
    "placeId": "ChIJ75DkD7_7DDkRshxMBPf8GA0",
    "categories": [
      "Used car dealer"
    ],
    "reviewsCount": 2,
    "imagesCount": 11,
    "openingHours": [
      {
        "day": "Monday",
        "hours": "10‚ÄØAM to 7‚ÄØPM"
      },
      {
        "day": "Tuesday",
        "hours": "Closed"
      },
      {
        "day": "Wednesday",
        "hours": "10‚ÄØAM to 7‚ÄØPM"
      },
      {
        "day": "Thursday",
        "hours": "10‚ÄØAM to 7‚ÄØPM"
      },
      {
        "day": "Friday",
        "hours": "10‚ÄØAM to 7‚ÄØPM"
      },
      {
        "day": "Saturday",
        "hours": "10‚ÄØAM to 7‚ÄØPM"
      },
      {
        "day": "Sunday",
        "hours": "10‚ÄØAM to 7‚ÄØPM"
      }
    ],
    "imageUrl": "https://media.indianluxurycars.com/google/261b56bfcc291b6e7584ecce7822453d144a85475bc9d9051b26b9ecc5cbf719.jpg",
    "url": "https://www.google.com/maps/search/?api=1&query=Car%20Dekho%20Mauli%20Motors&query_place_id=ChIJ75DkD7_7DDkRshxMBPf8GA0"
  },
  {
    "title": "Car Expo",
    "subTitle": "‡§ï‡§æ‡§∞ ‡§è‡§ï‡•ç‡§∏‡§™‡•ã",
    "categoryName": "Used car dealer",
    "address": "Akshra Apartment, G-357, Abhay Khand 3, Pocket 3, Shakti Khand -3, Indirapuram, Ghaziabad, Uttar Pradesh 201020, India",
    "neighborhood": "Abhay Khand 3, Pocket 3, Shakti Khand -3, Indirapuram",
    "street": "Akshra Apartment, G-357",
    "city": "Ghaziabad",
    "postalCode": "201020",
    "state": "Uttar Pradesh",
    "countryCode": "IN",
    "website": "http://www.carexpoindrapuram.in/",
    "phone": "+918062463529",
    "phoneUnformatted": "+918062463529",
    "location": {
      "lat": 28.6398918,
      "lng": 77.346013
    },
    "totalScore": 4.1,
    "permanentlyClosed": false,
    "temporarilyClosed": false,
    "placeId": "ChIJh6l9RwT7DDkRKkzzwQnOLmA",
    "categories": [
      "Used car dealer",
      "Auto auction",
      "Auto broker",
      "Car dealer"
    ],
    "reviewsCount": 26,
    "imagesCount": 155,
    "openingHours": [
      {
        "day": "Monday",
        "hours": "10‚ÄØAM to 7‚ÄØPM"
      },
      {
        "day": "Tuesday",
        "hours": "Closed"
      },
      {
        "day": "Wednesday",
        "hours": "10‚ÄØAM to 7‚ÄØPM"
      },
      {
        "day": "Thursday",
        "hours": "10‚ÄØAM to 7‚ÄØPM"
      },
      {
        "day": "Friday",
        "hours": "10‚ÄØAM to 7‚ÄØPM"
      },
      {
        "day": "Saturday",
        "hours": "10‚ÄØAM to 7‚ÄØPM"
      },
      {
        "day": "Sunday",
        "hours": "10‚ÄØAM to 7‚ÄØPM"
      }
    ],
    "imageUrl": "https://media.indianluxurycars.com/google/4b26a38eeb6a722e4967dd9222c7b040b943c88d0a57bf2cd7ed08d19616cea4.jpg",
    "url": "https://www.google.com/maps/search/?api=1&query=Car%20Expo&query_place_id=ChIJh6l9RwT7DDkRKkzzwQnOLmA"
  },
  {
    "title": "Car World",
    "subTitle": "‡§ï‡§æ‡§∞ ‡§¶‡•Å‡§®‡§ø‡§Ø‡§æ",
    "categoryName": "Car dealer",
    "address": "MCFH+XG6, Block G, Patel Nagar 3, Patel Nagar, Ghaziabad, Uttar Pradesh 201001, India",
    "neighborhood": "Block G, Patel Nagar 3, Patel Nagar",
    "street": "MCFH+XG6",
    "city": "Ghaziabad",
    "postalCode": "201001",
    "state": "Uttar Pradesh",
    "countryCode": "IN",
    "phone": "+919810463838",
    "phoneUnformatted": "+919810463838",
    "location": {
      "lat": 28.6749116,
      "lng": 77.4287507
    },
    "totalScore": 4,
    "permanentlyClosed": false,
    "temporarilyClosed": false,
    "placeId": "ChIJ-_MFSbLxDDkRcKOvzdSRsqI",
    "categories": [
      "Car dealer",
      "Car accessories store",
      "Car repair and maintenance service"
    ],
    "reviewsCount": 4,
    "imagesCount": 1,
    "openingHours": [
      {
        "day": "Monday",
        "hours": "10:30‚ÄØAM to 8‚ÄØPM"
      },
      {
        "day": "Tuesday",
        "hours": "Closed"
      },
      {
        "day": "Wednesday",
        "hours": "10:30‚ÄØAM to 8‚ÄØPM"
      },
      {
        "day": "Thursday",
        "hours": "10:30‚ÄØAM to 8‚ÄØPM"
      },
      {
        "day": "Friday",
        "hours": "10:30‚ÄØAM to 8‚ÄØPM"
      },
      {
        "day": "Saturday",
        "hours": "10:30‚ÄØAM to 8‚ÄØPM"
      },
      {
        "day": "Sunday",
        "hours": "10:30‚ÄØAM to 8‚ÄØPM"
      }
    ],
    "imageUrl": "https://media.indianluxurycars.com/google/ec63625bcdebbcb5b199f327165280aae4dd01b372ca1440592cd0b96841e813.jpg",
    "url": "https://www.google.com/maps/search/?api=1&query=Car%20World&query_place_id=ChIJ-_MFSbLxDDkRcKOvzdSRsqI"
  },
  {
    "title": "CarDekhen Self drive car rentals",
    "subTitle": "‡§ï‡§æ‡§∞‡§¶‡•á‡§ñ‡•á‡§Ç ‡§∏‡•á‡§≤‡•ç‡§´ ‡§°‡•ç‡§∞‡§æ‡§á‡§µ ‡§ï‡§æ‡§∞ ‡§∞‡•á‡§Ç‡§ü‡§≤‡•ç‡§∏",
    "categoryName": "Car rental agency",
    "address": "Gf.01, ambuj city, Bahrampur, Vijay Nagar, Ghaziabad, Uttar Pradesh 201009, India",
    "neighborhood": "Bahrampur, Vijay Nagar",
    "street": "Gf.01, ambuj city",
    "city": "Ghaziabad",
    "postalCode": "201009",
    "state": "Uttar Pradesh",
    "countryCode": "IN",
    "website": "https://cardekhen.com/",
    "phone": "+917678497810",
    "phoneUnformatted": "+917678497810",
    "location": {
      "lat": 28.63234,
      "lng": 77.4132288
    },
    "totalScore": 4.7,
    "permanentlyClosed": false,
    "temporarilyClosed": false,
    "placeId": "ChIJuyamY_TvDDkRFeaYnYMLshw",
    "categories": [
      "Car rental agency",
      "Car leasing service",
      "Taxi service",
      "Tour operator"
    ],
    "reviewsCount": 259,
    "imagesCount": 61,
    "openingHours": [
      {
        "day": "Monday",
        "hours": "Open 24 hours"
      },
      {
        "day": "Tuesday",
        "hours": "Open 24 hours"
      },
      {
        "day": "Wednesday",
        "hours": "Open 24 hours"
      },
      {
        "day": "Thursday",
        "hours": "Open 24 hours"
      },
      {
        "day": "Friday",
        "hours": "Open 24 hours"
      },
      {
        "day": "Saturday",
        "hours": "Open 24 hours"
      },
      {
        "day": "Sunday",
        "hours": "Open 24 hours"
      }
    ],
    "imageUrl": "https://media.indianluxurycars.com/google/a2f6aa1043e1c796e803e4359c266876177b9e351dd66c5ce7407d2e11eebc7e.jpg",
    "url": "https://www.google.com/maps/search/?api=1&query=CarDekhen%20Self%20drive%20car%20rentals&query_place_id=ChIJuyamY_TvDDkRFeaYnYMLshw"
  },
  {
    "title": "CARS CLUB",
    "subTitle": "‡§ï‡§æ‡§∞‡•ç‡§∏ ‡§ï‡•ç‡§≤‡§¨",
    "categoryName": "Used car dealer",
    "address": "SHOP NO 9 LOWER GROUND FLOOR, near ICICI BANK LTD, Niti Khand 3, Niti Khand 2, Indirapuram, Ghaziabad, Uttar Pradesh 201014, India",
    "neighborhood": "Niti Khand 3, Niti Khand 2, Indirapuram",
    "street": "SHOP NO 9 LOWER GROUND FLOOR, near ICICI BANK LTD",
    "city": "Ghaziabad",
    "postalCode": "201014",
    "state": "Uttar Pradesh",
    "countryCode": "IN",
    "phone": "+919899354209",
    "phoneUnformatted": "+919899354209",
    "location": {
      "lat": 28.64598,
      "lng": 77.3749784
    },
    "totalScore": 4.9,
    "permanentlyClosed": false,
    "temporarilyClosed": false,
    "placeId": "ChIJ3fjKfgr7DDkRII0RftRsn3Y",
    "categories": [
      "Used car dealer"
    ],
    "reviewsCount": 18,
    "imagesCount": 29,
    "openingHours": [
      {
        "day": "Monday",
        "hours": "10‚ÄØAM to 6‚ÄØPM"
      },
      {
        "day": "Tuesday",
        "hours": "10‚ÄØAM to 6‚ÄØPM"
      },
      {
        "day": "Wednesday",
        "hours": "10‚ÄØAM to 6‚ÄØPM"
      },
      {
        "day": "Thursday",
        "hours": "10‚ÄØAM to 6‚ÄØPM"
      },
      {
        "day": "Friday",
        "hours": "10‚ÄØAM to 6‚ÄØPM"
      },
      {
        "day": "Saturday",
        "hours": "10‚ÄØAM to 6‚ÄØPM"
      },
      {
        "day": "Sunday",
        "hours": "10‚ÄØAM to 6‚ÄØPM"
      }
    ],
    "imageUrl": "https://media.indianluxurycars.com/google/07008e180274246e9f8b24161d12aafeb0be6308bdc31a12e127cd23ee3cff4a.jpg",
    "url": "https://www.google.com/maps/search/?api=1&query=CARS%20CLUB&query_place_id=ChIJ3fjKfgr7DDkRII0RftRsn3Y"
  },
  {
    "title": "Cars360",
    "subTitle": "‡§è‡§Æ‡§è‡§∏‡§°‡•Ä ‡§ë‡§ü‡•ã ‡§™‡•ç‡§≤‡§∏",
    "categoryName": "Used car dealer",
    "address": "Plot no 9, 482, Link Road, Vaishali Extension, Sector 9, Vaishali, Ghaziabad, Uttar Pradesh 201019, India",
    "neighborhood": "Vaishali Extension, Sector 9, Vaishali",
    "street": "Plot no 9, 482, Link Road",
    "city": "Ghaziabad",
    "postalCode": "201019",
    "state": "Uttar Pradesh",
    "countryCode": "IN",
    "website": "http://www.cars360.co/",
    "phone": "+919910080365",
    "phoneUnformatted": "+919910080365",
    "location": {
      "lat": 28.654522,
      "lng": 77.346487
    },
    "totalScore": 4.2,
    "permanentlyClosed": false,
    "temporarilyClosed": false,
    "placeId": "ChIJPbD1uFPwDDkRC8e8O2JkRT8",
    "categories": [
      "Used car dealer"
    ],
    "reviewsCount": 28,
    "imagesCount": 4,
    "openingHours": [
      {
        "day": "Monday",
        "hours": "9:30‚ÄØAM to 8‚ÄØPM"
      },
      {
        "day": "Tuesday",
        "hours": "9:30‚ÄØAM to 8‚ÄØPM"
      },
      {
        "day": "Wednesday",
        "hours": "9:30‚ÄØAM to 8‚ÄØPM"
      },
      {
        "day": "Thursday",
        "hours": "9:30‚ÄØAM to 8‚ÄØPM"
      },
      {
        "day": "Friday",
        "hours": "9:30‚ÄØAM to 8‚ÄØPM"
      },
      {
        "day": "Saturday",
        "hours": "9:30‚ÄØAM to 8‚ÄØPM"
      },
      {
        "day": "Sunday",
        "hours": "9:30‚ÄØAM to 8‚ÄØPM"
      }
    ],
    "imageUrl": "https://media.indianluxurycars.com/google/fe2b3a4de4a29da445aa04d2a6b3cce0e7936edb08b208a66eeb0435fd23cd9a.jpg",
    "url": "https://www.google.com/maps/search/?api=1&query=Cars360&query_place_id=ChIJPbD1uFPwDDkRC8e8O2JkRT8"
  },
  {
    "title": "CaRsStOrE 7x24",
    "subTitle": "‡§ï‡§∞‡§∏‡•ç‡§ü‡•ã‡§∞ 7‡§è‡§ï‡•ç‡§∏24",
    "categoryName": "Car dealer",
    "address": "B-36, Gagan Vihar, Sahibabad, Ghaziabad, Uttar Pradesh 201006, India",
    "neighborhood": "Gagan Vihar, Sahibabad",
    "street": "B-36",
    "city": "Ghaziabad",
    "postalCode": "201006",
    "state": "Uttar Pradesh",
    "countryCode": "IN",
    "website": "https://www.carsstore7x24.in/",
    "phone": "+918860446146",
    "phoneUnformatted": "+918860446146",
    "location": {
      "lat": 28.7018418,
      "lng": 77.3263778
    },
    "totalScore": 5,
    "permanentlyClosed": false,
    "temporarilyClosed": false,
    "placeId": "ChIJT8wQ6BT7DDkR3HXTP0aDMfI",
    "categories": [
      "Car dealer"
    ],
    "reviewsCount": 1,
    "imagesCount": 6,
    "openingHours": [],
    "imageUrl": "https://media.indianluxurycars.com/google/46f5d0398d3c76672b8bfbcf50ee5d2d0f70fdfdeee988a5ca464c7e5b53f3ce.jpg",
    "url": "https://www.google.com/maps/search/?api=1&query=CaRsStOrE%207x24&query_place_id=ChIJT8wQ6BT7DDkR3HXTP0aDMfI"
  },
  {
    "title": "CarsZoo",
    "subTitle": "‡§ï‡§æ‡§∞‡•ç‡§∏‡§ú‡•Ç",
    "categoryName": "Car rental agency",
    "address": "Plot no.14, 80 Feet Rd, Vikram Enclave, Shalimar Garden, Sahibabad, Ghaziabad, Uttar Pradesh 201006, India",
    "neighborhood": "Vikram Enclave, Shalimar Garden, Sahibabad",
    "street": "Plot no.14, 80 Feet Rd",
    "city": "Ghaziabad",
    "postalCode": "201006",
    "state": "Uttar Pradesh",
    "countryCode": "IN",
    "website": "https://wa.me/918377888752",
    "phone": "+918377888752",
    "phoneUnformatted": "+918377888752",
    "location": {
      "lat": 28.6941899,
      "lng": 77.3396217
    },
    "totalScore": 3.7,
    "permanentlyClosed": false,
    "temporarilyClosed": false,
    "placeId": "ChIJ0RiuDKv7DDkR66pYqUl1Qoo",
    "categories": [
      "Car rental agency",
      "Car leasing service"
    ],
    "reviewsCount": 9,
    "imagesCount": 13,
    "openingHours": [
      {
        "day": "Monday",
        "hours": "10‚ÄØAM to 12‚ÄØAM"
      },
      {
        "day": "Tuesday",
        "hours": "10‚ÄØAM to 12‚ÄØAM"
      },
      {
        "day": "Wednesday",
        "hours": "10‚ÄØAM to 12‚ÄØAM"
      },
      {
        "day": "Thursday",
        "hours": "10‚ÄØAM to 12‚ÄØAM"
      },
      {
        "day": "Friday",
        "hours": "10‚ÄØAM to 12‚ÄØAM"
      },
      {
        "day": "Saturday",
        "hours": "10‚ÄØAM to 12‚ÄØAM"
      },
      {
        "day": "Sunday",
        "hours": "10‚ÄØAM to 12‚ÄØAM"
      }
    ],
    "imageUrl": "https://media.indianluxurycars.com/google/a36f35768e94f5eec8a79bae9559b5009834439a7503a42e834048ea11445b18.jpg",
    "url": "https://www.google.com/maps/search/?api=1&query=CarsZoo&query_place_id=ChIJ0RiuDKv7DDkR66pYqUl1Qoo"
  },
  {
    "title": "CARTRADE Ghaziabad",
    "subTitle": "‡§ï‡§æ‡§∞‡§ü‡•ç‡§∞‡•á‡§° ‡§ó‡§æ‡§ú‡§ø‡§Ø‡§æ‡§¨‡§æ‡§¶",
    "categoryName": "Used car dealer",
    "address": "SD 190A, Jaipuria Sunrise Plaza, Mall Road, Behind Jaipuria Mall, Ahinsa Khand 1, Indirapuram, Ghaziabad, Uttar Pradesh 201014, India",
    "neighborhood": "Ahinsa Khand 1, Indirapuram",
    "street": "SD 190A, Jaipuria Sunrise Plaza, Mall Road, Behind Jaipuria Mall",
    "city": "Ghaziabad",
    "postalCode": "201014",
    "state": "Uttar Pradesh",
    "countryCode": "IN",
    "website": "https://www.cartrade.com/buy-used-cars/ghaziabad/c/",
    "phone": "+919212231069",
    "phoneUnformatted": "+919212231069",
    "location": {
      "lat": 28.6413917,
      "lng": 77.3779864
    },
    "totalScore": 3.7,
    "permanentlyClosed": false,
    "temporarilyClosed": false,
    "placeId": "ChIJdfDrB6v6DDkR7CbmNInQEJ0",
    "categories": [
      "Used car dealer",
      "Car finance and loan company"
    ],
    "reviewsCount": 9,
    "imagesCount": 33,
    "openingHours": [
      {
        "day": "Monday",
        "hours": "10‚ÄØAM to 7‚ÄØPM"
      },
      {
        "day": "Tuesday",
        "hours": "10‚ÄØAM to 7‚ÄØPM"
      },
      {
        "day": "Wednesday",
        "hours": "10‚ÄØAM to 7‚ÄØPM"
      },
      {
        "day": "Thursday",
        "hours": "10‚ÄØAM to 7‚ÄØPM"
      },
      {
        "day": "Friday",
        "hours": "10‚ÄØAM to 7‚ÄØPM"
      },
      {
        "day": "Saturday",
        "hours": "10‚ÄØAM to 7‚ÄØPM"
      },
      {
        "day": "Sunday",
        "hours": "10‚ÄØAM to 7‚ÄØPM"
      }
    ],
    "imageUrl": "https://media.indianluxurycars.com/google/5172ad02f74daa50d8f23c27055c088f0e75587dc23db3fa257aa36eafd22dc4.jpg",
    "url": "https://www.google.com/maps/search/?api=1&query=CARTRADE%20Ghaziabad&query_place_id=ChIJdfDrB6v6DDkR7CbmNInQEJ0"
  },
  {
    "title": "CARVEDA First choice (CFC)",
    "subTitle": "‡§ï‡§æ‡§∞‡•ç‡§µ‡•á‡§¶ ‡§´‡§∞‡•ç‡§∏‡•ç‡§ü ‡§ö‡•â‡§á‡§∏ (‡§∏‡•Ä‡§è‡§´‡§∏‡•Ä)",
    "categoryName": "Used car dealer",
    "address": "Shop no, Fowara Chowk, 4 E3c, near Meerut Road, New Arya Nagar, Sector 21, Meerut Road Industrial Area, Ghaziabad, Uttar Pradesh 201001, India",
    "neighborhood": "New Arya Nagar, Sector 21, Meerut Road Industrial Area",
    "street": "Shop no, Fowara Chowk, 4 E3c, near Meerut Road",
    "city": "Ghaziabad",
    "postalCode": "201001",
    "state": "Uttar Pradesh",
    "countryCode": "IN",
    "phone": "+919810725725",
    "phoneUnformatted": "+919810725725",
    "location": {
      "lat": 28.679245,
      "lng": 77.4255485
    },
    "totalScore": 4.8,
    "permanentlyClosed": false,
    "temporarilyClosed": false,
    "placeId": "ChIJz3mU7YLxDDkR6SlhRdLolmI",
    "categories": [
      "Used car dealer",
      "Auto broker",
      "Car dealer",
      "Motor vehicle dealer",
      "Vehicle inspection service"
    ],
    "reviewsCount": 31,
    "imagesCount": 105,
    "openingHours": [
      {
        "day": "Monday",
        "hours": "10‚ÄØAM to 7:30‚ÄØPM"
      },
      {
        "day": "Tuesday",
        "hours": "10‚ÄØAM to 7:30‚ÄØPM"
      },
      {
        "day": "Wednesday",
        "hours": "10‚ÄØAM to 7:30‚ÄØPM"
      },
      {
        "day": "Thursday",
        "hours": "10‚ÄØAM to 7:30‚ÄØPM"
      },
      {
        "day": "Friday",
        "hours": "10‚ÄØAM to 7:30‚ÄØPM"
      },
      {
        "day": "Saturday",
        "hours": "10‚ÄØAM to 7:30‚ÄØPM"
      },
      {
        "day": "Sunday",
        "hours": "10‚ÄØAM to 7:30‚ÄØPM"
      }
    ],
    "imageUrl": "https://media.indianluxurycars.com/google/0ceef17c9bf934bdedfd3e36ee364d75c8a3212f68d819a93c618eab40443a6f.jpg",
    "url": "https://www.google.com/maps/search/?api=1&query=CARVEDA%20First%20choice%20(CFC)&query_place_id=ChIJz3mU7YLxDDkR6SlhRdLolmI"
  },
  {
    "title": "Castrol Service - Shree Balaji Motors PStop",
    "subTitle": "‡§∂‡•ç‡§∞‡•Ä ‡§¨‡§æ‡§≤‡§æ‡§ú‡•Ä ‡§Æ‡•ã‡§ü‡§∞‡•ç‡§∏",
    "categoryName": "Car repair and maintenance service",
    "address": "E/3, Meerut Rd, New Arya Nagar, Sector 21, Meerut Road Industrial Area, Ghaziabad, Uttar Pradesh 201001, India",
    "neighborhood": "New Arya Nagar, Sector 21, Meerut Road Industrial Area",
    "street": "E/3, Meerut Rd",
    "city": "Ghaziabad",
    "postalCode": "201001",
    "state": "Uttar Pradesh",
    "countryCode": "IN",
    "phone": "+919999441399",
    "phoneUnformatted": "+919999441399",
    "location": {
      "lat": 28.6795918,
      "lng": 77.425356
    },
    "totalScore": 4.1,
    "permanentlyClosed": false,
    "temporarilyClosed": false,
    "placeId": "ChIJlUT6Oq3xDDkRCGWcdUAUZiY",
    "categories": [
      "Car repair and maintenance service",
      "Auto bodywork mechanic",
      "Auto radiator repair service",
      "Car wash",
      "Oil change service",
      "Repair service"
    ],
    "reviewsCount": 71,
    "imagesCount": 14,
    "openingHours": [],
    "imageUrl": "https://media.indianluxurycars.com/google/b75649ed7bb6fe0b1bd0b18535cad7db5e19da26b9be3315bce3e42e3d0a429e.jpg",
    "url": "https://www.google.com/maps/search/?api=1&query=Castrol%20Service%20-%20Shree%20Balaji%20Motors%20PStop&query_place_id=ChIJlUT6Oq3xDDkRCGWcdUAUZiY"
  },
  {
    "title": "Certified Pre Owned Cars - Ghaziabad",
    "subTitle": "‡§∏‡§∞‡•ç‡§ü‡§ø‡§´‡§æ‡§á‡§° ‡§™‡•ç‡§∞‡•Ä ‡§ì‡§®‡•ç‡§° ‡§ï‡§æ‡§∞‡•ç‡§∏ - ‡§ó‡§æ‡§ú‡§ø‡§Ø‡§æ‡§¨‡§æ‡§¶",
    "categoryName": "Used car dealer",
    "address": "above Doctor Bhabha Marg, Ramprastha Colony, Block D, Chander Nagar, Surya Nagar, Ghaziabad, Uttar Pradesh 201011, India",
    "neighborhood": "Ramprastha Colony, Block D, Chander Nagar, Surya Nagar",
    "street": "above Doctor Bhabha Marg",
    "city": "Ghaziabad",
    "postalCode": "201011",
    "state": "Uttar Pradesh",
    "countryCode": "IN",
    "website": "https://www.carandbike.com/used/sell-your-car?utm_source=GMB",
    "phone": "+919930565555",
    "phoneUnformatted": "+919930565555",
    "location": {
      "lat": 28.6638172,
      "lng": 77.3223804
    },
    "totalScore": 4,
    "permanentlyClosed": false,
    "temporarilyClosed": false,
    "placeId": "ChIJSboD1D_7DDkR3g4APiRSw6o",
    "categories": [
      "Used car dealer",
      "Auto broker",
      "Car dealer",
      "Motor vehicle dealer",
      "Vehicle inspection service"
    ],
    "reviewsCount": 25,
    "imagesCount": 9,
    "openingHours": [],
    "imageUrl": "https://media.indianluxurycars.com/google/5e82d0b8389bf2efca0ab4d392b44ea52417deb3b8f13b92c3dd7c9470969ab6.jpg",
    "url": "https://www.google.com/maps/search/?api=1&query=Certified%20Pre%20Owned%20Cars%20-%20Ghaziabad&query_place_id=ChIJSboD1D_7DDkR3g4APiRSw6o"
  },
  {
    "title": "ùóñùóµùóÆùóªùó±ùóøùóÆ ùó£ùóøùóÆùóØùóµùóÆ ùóßùóøùóÆùòÉùó≤ùóπùòÄ - ùóßùóÆùòÖùó∂ ùó¶ùó≤ùóøùòÉùó∂ùó∞ùó≤ ùó∂ùóª ùóöùóµùóÆùòáùó∂ùóÆùóØùóÆùó±",
    "subTitle": "‡§ö‡§Ç‡§¶‡•ç‡§∞ ‡§™‡•ç‡§∞‡§≠‡§æ ‡§ü‡•ç‡§∞‡•à‡§µ‡§≤‡•ç‡§∏ - ‡§ü‡•à‡§ï‡•ç‡§∏‡•Ä ‡§∏‡§∞‡•ç‡§µ‡§ø‡§∏ ‡§á‡§® ‡§ó‡§æ‡§ú‡§ø‡§Ø‡§æ‡§¨‡§æ‡§¶",
    "categoryName": "Car rental agency",
    "address": "Shop No 150, Bhur Bharat Nagar, Railway Colony, Madhopura, Ghaziabad, Uttar Pradesh 201009, India",
    "neighborhood": "Bhur Bharat Nagar, Railway Colony, Madhopura",
    "street": "Shop No 150",
    "city": "Ghaziabad",
    "postalCode": "201009",
    "state": "Uttar Pradesh",
    "countryCode": "IN",
    "website": "https://chandraprabhatravals.site/",
    "phone": "+917982628497",
    "phoneUnformatted": "+917982628497",
    "location": {
      "lat": 28.6522269,
      "lng": 77.4252237
    },
    "totalScore": 4.9,
    "permanentlyClosed": false,
    "temporarilyClosed": false,
    "placeId": "ChIJsRbQh4jxDDkRPjbID0hbDcQ",
    "categories": [
      "Car rental agency",
      "Car leasing service",
      "Taxi service"
    ],
    "reviewsCount": 223,
    "imagesCount": 57,
    "openingHours": [],
    "imageUrl": "https://media.indianluxurycars.com/google/f4c9cc6f4d9b9663971ae58afcb8916d990c86e676a1471c7e0a9d4396bc5eee.jpg",
    "url": "https://www.google.com/maps/search/?api=1&query=%F0%9D%97%96%F0%9D%97%B5%F0%9D%97%AE%F0%9D%97%BB%F0%9D%97%B1%F0%9D%97%BF%F0%9D%97%AE%20%F0%9D%97%A3%F0%9D%97%BF%F0%9D%97%AE%F0%9D%97%AF%F0%9D%97%B5%F0%9D%97%AE%20%F0%9D%97%A7%F0%9D%97%BF%F0%9D%97%AE%F0%9D%98%83%F0%9D%97%B2%F0%9D%97%B9%F0%9D%98%80%20-%20%F0%9D%97%A7%F0%9D%97%AE%F0%9D%98%85%F0%9D%97%B6%20%F0%9D%97%A6%F0%9D%97%B2%F0%9D%97%BF%F0%9D%98%83%F0%9D%97%B6%F0%9D%97%B0%F0%9D%97%B2%20%F0%9D%97%B6%F0%9D%97%BB%20%F0%9D%97%9A%F0%9D%97%B5%F0%9D%97%AE%F0%9D%98%87%F0%9D%97%B6%F0%9D%97%AE%F0%9D%97%AF%F0%9D%97%AE%F0%9D%97%B1&query_place_id=ChIJsRbQh4jxDDkRPjbID0hbDcQ"
  },
  {
    "title": "Choudhary NB Tour & Travel",
    "subTitle": "‡§ö‡•å‡§ß‡§∞‡•Ä ‡§è‡§®‡§¨‡•Ä ‡§ü‡•Ç‡§∞ & ‡§ü‡•ç‡§∞‡•à‡§µ‡§≤",
    "categoryName": "Car leasing service",
    "address": "Vaishnavi Kunj, 1/7, Sector 2, Rajendra Nagar, Sahibabad, Ghaziabad, Uttar Pradesh 201005, India",
    "neighborhood": "Sector 2, Rajendra Nagar, Sahibabad",
    "street": "Vaishnavi Kunj, 1/7",
    "city": "Ghaziabad",
    "postalCode": "201005",
    "state": "Uttar Pradesh",
    "countryCode": "IN",
    "website": "https://nbtourandtravels.com/",
    "phone": "+917532940786",
    "phoneUnformatted": "+917532940786",
    "location": {
      "lat": 28.6910078,
      "lng": 77.3498326
    },
    "totalScore": 5,
    "permanentlyClosed": false,
    "temporarilyClosed": false,
    "placeId": "ChIJnx8S-hP7DDkROb_FnhnSeMw",
    "categories": [
      "Car leasing service"
    ],
    "reviewsCount": 8,
    "imagesCount": 9,
    "openingHours": [],
    "imageUrl": "https://media.indianluxurycars.com/google/30c847515934171d3703986305590fbb855350c25c53e9aea15eaafd16cb0368.jpg",
    "url": "https://www.google.com/maps/search/?api=1&query=Choudhary%20NB%20Tour%20%26%20Travel&query_place_id=ChIJnx8S-hP7DDkROb_FnhnSeMw"
  },
  {
    "title": "Classic Car Rental (self drive cars)",
    "subTitle": "‡§ï‡•ç‡§≤‡§æ‡§∏‡§ø‡§ï ‡§ï‡§æ‡§∞ ‡§∞‡•á‡§Ç‡§ü‡§≤ (‡§∏‡•á‡§≤‡•ç‡§´ ‡§°‡•ç‡§∞‡§æ‡§á‡§µ ‡§ï‡§æ‡§∞‡•ç‡§∏)",
    "categoryName": "Car leasing service",
    "address": "Tulasi Niketan, Bhopura, Sahibabad, Ghaziabad, Uttar Pradesh 201006, India",
    "neighborhood": "Tulasi Niketan, Bhopura, Sahibabad",
    "city": "Ghaziabad",
    "postalCode": "201006",
    "state": "Uttar Pradesh",
    "countryCode": "IN",
    "website": "http://classicrental.in/",
    "phone": "+918882353700",
    "phoneUnformatted": "+918882353700",
    "location": {
      "lat": 28.6986875,
      "lng": 77.3245625
    },
    "totalScore": 3.4,
    "permanentlyClosed": false,
    "temporarilyClosed": false,
    "placeId": "ChIJCbqKAgD7DDkR4T2kTost7rc",
    "categories": [
      "Car leasing service"
    ],
    "reviewsCount": 27,
    "imagesCount": 47,
    "openingHours": [
      {
        "day": "Monday",
        "hours": "Open 24 hours"
      },
      {
        "day": "Tuesday",
        "hours": "Open 24 hours"
      },
      {
        "day": "Wednesday",
        "hours": "Open 24 hours"
      },
      {
        "day": "Thursday",
        "hours": "Open 24 hours"
      },
      {
        "day": "Friday",
        "hours": "Open 24 hours"
      },
      {
        "day": "Saturday",
        "hours": "Open 24 hours"
      },
      {
        "day": "Sunday",
        "hours": "Open 24 hours"
      }
    ],
    "imageUrl": "https://media.indianluxurycars.com/google/54882b016a0b8f5857efd3ba66814731db3b70f752eaea6851aa80a390b1fc6f.png",
    "url": "https://www.google.com/maps/search/?api=1&query=Classic%20Car%20Rental%20(self%20drive%20cars)&query_place_id=ChIJCbqKAgD7DDkR4T2kTost7rc"
  },
  {
    "title": "Devika Motors By Used Car Destination",
    "subTitle": "‡§¶‡•á‡§µ‡§ø‡§ï‡§æ ‡§Æ‡•ã‡§ü‡§∞‡•ç‡§∏ ‡§¨‡§æ‡§Ø ‡§Ø‡•Ç‡§ú‡•ç‡§° ‡§ï‡§æ‡§∞ ‡§°‡•á‡§∏‡•ç‡§ü‡§ø‡§®‡•á‡§∂‡§®",
    "categoryName": "Used car dealer",
    "address": "GF-2 Devika Chamber, RDC, Raj Nagar, Ghaziabad, Uttar Pradesh 201002, India",
    "neighborhood": "RDC, Block 1, P & T Colony, Raj Nagar",
    "street": "GF-2 Devika Chamber",
    "city": "Ghaziabad",
    "postalCode": "201002",
    "state": "Uttar Pradesh",
    "countryCode": "IN",
    "phone": "+919999747629",
    "phoneUnformatted": "+919999747629",
    "location": {
      "lat": 28.6724787,
      "lng": 77.440852
    },
    "totalScore": 4.3,
    "permanentlyClosed": false,
    "temporarilyClosed": false,
    "placeId": "ChIJWaR4MtjxDDkRAgpt7NX5bjA",
    "categories": [
      "Used car dealer"
    ],
    "reviewsCount": 19,
    "imagesCount": 74,
    "openingHours": [
      {
        "day": "Monday",
        "hours": "10‚ÄØAM to 7‚ÄØPM"
      },
      {
        "day": "Tuesday",
        "hours": "10‚ÄØAM to 7‚ÄØPM"
      },
      {
        "day": "Wednesday",
        "hours": "10‚ÄØAM to 7‚ÄØPM"
      },
      {
        "day": "Thursday",
        "hours": "10‚ÄØAM to 7‚ÄØPM"
      },
      {
        "day": "Friday",
        "hours": "10‚ÄØAM to 7‚ÄØPM"
      },
      {
        "day": "Saturday",
        "hours": "10‚ÄØAM to 7‚ÄØPM"
      },
      {
        "day": "Sunday",
        "hours": "10‚ÄØAM to 7‚ÄØPM"
      }
    ],
    "imageUrl": "https://media.indianluxurycars.com/google/93032354fdd6a0288d72a21360af59ccc552362f8550c38e4db92df03d75cae3.jpg",
    "url": "https://www.google.com/maps/search/?api=1&query=Devika%20Motors%20By%20Used%20Car%20Destination&query_place_id=ChIJWaR4MtjxDDkRAgpt7NX5bjA"
  },
  {
    "title": "Devraj Travels",
    "subTitle": "‡§¶‡•á‡§µ‡§∞‡§æ‡§ú ‡§ü‡•ç‡§∞‡•á‡§µ‡§≤‡•ç‡§∏",
    "categoryName": "Car rental agency",
    "address": "Gate No.1, Shop No.1, Grand Trunk Rd, Amrit Nagar, Bulandshahr Road Industrial Area, Ghaziabad, Uttar Pradesh 201009, India",
    "neighborhood": "Amrit Nagar, Bulandshahr Road Industrial Area",
    "street": "Gate No.1, Shop No.1, Grand Trunk Rd",
    "city": "Ghaziabad",
    "postalCode": "201009",
    "state": "Uttar Pradesh",
    "countryCode": "IN",
    "phone": "+919354269601",
    "phoneUnformatted": "+919354269601",
    "location": {
      "lat": 28.6445021,
      "lng": 77.4468504
    },
    "totalScore": 3.9,
    "permanentlyClosed": false,
    "temporarilyClosed": false,
    "placeId": "ChIJ02WcyfjvDDkRQ0Rb_ueH6yQ",
    "categories": [
      "Car rental agency",
      "Car leasing service",
      "Taxi service"
    ],
    "reviewsCount": 13,
    "imagesCount": 5,
    "openingHours": [],
    "imageUrl": "https://media.indianluxurycars.com/google/ce7844ff6457dc54bdaaaef49cf579c055822e3555ab6a67d329c17e1172d18d.jpg",
    "url": "https://www.google.com/maps/search/?api=1&query=Devraj%20Travels&query_place_id=ChIJ02WcyfjvDDkRQ0Rb_ueH6yQ"
  },
  {
    "title": "DREAM CAR AUTO SOLUTIONS - Used Car Dealer in Vasundhra",
    "subTitle": "‡§°‡•ç‡§∞‡•Ä‡§Æ ‡§ï‡§æ‡§∞ ‡§ë‡§ü‡•ã ‡§∏‡•â‡§≤‡•ç‡§Ø‡•Ç‡§∂‡§Ç‡§∏ - ‡§Ø‡•Ç‡§ú‡•ç‡§° ‡§ï‡§æ‡§∞ ‡§°‡•Ä‡§≤‡§∞ ‡§á‡§® ‡§µ‡§∏‡•Å‡§Ç‡§ß‡§∞‡§æ",
    "categoryName": "Used car dealer",
    "address": "12/427, 315/12, Friend's Society, Sector 12, Vasundhara, Ghaziabad, Uttar Pradesh 201012, India",
    "neighborhood": "Friend's Society, Sector 12, Vasundhara",
    "street": "12/427, 315/12",
    "city": "Ghaziabad",
    "postalCode": "201012",
    "state": "Uttar Pradesh",
    "countryCode": "IN",
    "website": "https://www.dreamcarautosolutions.in/",
    "phone": "+918062429981",
    "phoneUnformatted": "+918062429981",
    "location": {
      "lat": 28.664132,
      "lng": 77.3641832
    },
    "totalScore": 4.3,
    "permanentlyClosed": false,
    "temporarilyClosed": false,
    "placeId": "ChIJ31JFjpr7DDkRdRbTMP260JA",
    "categories": [
      "Used car dealer",
      "Car dealer"
    ],
    "reviewsCount": 6,
    "imagesCount": 165,
    "openingHours": [
      {
        "day": "Monday",
        "hours": "10‚ÄØAM to 8‚ÄØPM"
      },
      {
        "day": "Tuesday",
        "hours": "10‚ÄØAM to 8‚ÄØPM"
      },
      {
        "day": "Wednesday",
        "hours": "10‚ÄØAM to 8‚ÄØPM"
      },
      {
        "day": "Thursday",
        "hours": "10‚ÄØAM to 8‚ÄØPM"
      },
      {
        "day": "Friday",
        "hours": "10‚ÄØAM to 8‚ÄØPM"
      },
      {
        "day": "Saturday",
        "hours": "10‚ÄØAM to 8‚ÄØPM"
      },
      {
        "day": "Sunday",
        "hours": "10‚ÄØAM to 8‚ÄØPM"
      }
    ],
    "imageUrl": "https://media.indianluxurycars.com/google/f384a2890dfa58f1a71c8503dc7f2571eb47bdca893edeaea64f6df49746c800.jpg",
    "url": "https://www.google.com/maps/search/?api=1&query=DREAM%20CAR%20AUTO%20SOLUTIONS%20-%20Used%20Car%20Dealer%20in%20Vasundhra&query_place_id=ChIJ31JFjpr7DDkRdRbTMP260JA"
  },
  {
    "title": "DS Car & Bike Rental",
    "subTitle": "‡§°‡•Ä‡§è‡§∏ ‡§ï‡§æ‡§∞ & ‡§¨‡§æ‡§á‡§ï ‡§∞‡•á‡§Ç‡§ü‡§≤",
    "categoryName": "Car leasing service",
    "address": "56/1, 16, B Ln, Pocket B, Sector 16, Vasundhara, Ghaziabad, Uttar Pradesh 201012, India",
    "neighborhood": "Pocket B, Sector 16, Vasundhara",
    "street": "56/1, 16, B Ln",
    "city": "Ghaziabad",
    "postalCode": "201012",
    "state": "Uttar Pradesh",
    "countryCode": "IN",
    "phone": "+918130110716",
    "phoneUnformatted": "+918130110716",
    "location": {
      "lat": 28.6548001,
      "lng": 77.3524266
    },
    "totalScore": 4.2,
    "permanentlyClosed": false,
    "temporarilyClosed": false,
    "placeId": "ChIJQcQS4T37DDkRWELOZQzjVnk",
    "categories": [
      "Car leasing service"
    ],
    "reviewsCount": 38,
    "imagesCount": 126,
    "openingHours": [
      {
        "day": "Monday",
        "hours": "Open 24 hours"
      },
      {
        "day": "Tuesday",
        "hours": "Open 24 hours"
      },
      {
        "day": "Wednesday",
        "hours": "Open 24 hours"
      },
      {
        "day": "Thursday",
        "hours": "Open 24 hours"
      },
      {
        "day": "Friday",
        "hours": "Open 24 hours"
      },
      {
        "day": "Saturday",
        "hours": "Open 24 hours"
      },
      {
        "day": "Sunday",
        "hours": "Open 24 hours"
      }
    ],
    "imageUrl": "https://media.indianluxurycars.com/google/648de55a3a69114003f3edc563998262831ee44062c053c964a90403956fb5a0.jpg",
    "url": "https://www.google.com/maps/search/?api=1&query=DS%20Car%20%26%20Bike%20Rental&query_place_id=ChIJQcQS4T37DDkRWELOZQzjVnk"
  },
  {
    "title": "Friends Luxury Car Rentel",
    "subTitle": "‡§´‡•ç‡§∞‡•á‡§Ç‡§°‡•ç‡§∏ ‡§≤‡§ï‡•ç‡§ú‡§∞‡•Ä ‡§ï‡§æ‡§∞ ‡§∞‡•á‡§Ç‡§ü‡•á‡§≤",
    "categoryName": "Car rental agency",
    "address": "Main Chirori, Banthla Flyover, near Friends Automobile Bike Showroom, Loni, Ghaziabad, Uttar Pradesh 201102, India",
    "neighborhood": "Loni",
    "street": "Main Chirori, Banthla Flyover, near Friends Automobile Bike Showroom",
    "city": "Ghaziabad",
    "postalCode": "201102",
    "state": "Uttar Pradesh",
    "countryCode": "IN",
    "location": {
      "lat": 28.7423432,
      "lng": 77.3092018
    },
    "totalScore": 5,
    "permanentlyClosed": false,
    "temporarilyClosed": false,
    "placeId": "ChIJde6lwyr5DDkR2lHIqVcVTGc",
    "categories": [
      "Car rental agency"
    ],
    "reviewsCount": 4,
    "imagesCount": 26,
    "openingHours": [
      {
        "day": "Monday",
        "hours": "Open 24 hours"
      },
      {
        "day": "Tuesday",
        "hours": "Open 24 hours"
      },
      {
        "day": "Wednesday",
        "hours": "Open 24 hours"
      },
      {
        "day": "Thursday",
        "hours": "Open 24 hours"
      },
      {
        "day": "Friday",
        "hours": "Open 24 hours"
      },
      {
        "day": "Saturday",
        "hours": "Open 24 hours"
      },
      {
        "day": "Sunday",
        "hours": "Open 24 hours"
      }
    ],
    "imageUrl": "https://media.indianluxurycars.com/google/32bf526d43683bb8c840659cbe499267e51b1596e32e6969b7930b2036d9f583.jpg",
    "url": "https://www.google.com/maps/search/?api=1&query=Friends%20Luxury%20Car%20Rentel&query_place_id=ChIJde6lwyr5DDkR2lHIqVcVTGc"
  },
  {
    "title": "Ghaziabad Taxi Service | Taxi Service in Ghaziabad | Cab Service in Ghaziabad",
    "subTitle": "‡§ó‡§æ‡§ú‡§ø‡§Ø‡§æ‡§¨‡§æ‡§¶ ‡§ü‡•à‡§ï‡•ç‡§∏‡•Ä ‡§∏‡§∞‡•ç‡§µ‡§ø‡§∏ | ‡§ü‡•à‡§ï‡•ç‡§∏‡•Ä ‡§∏‡§∞‡•ç‡§µ‡§ø‡§∏ ‡§á‡§® ‡§ó‡§æ‡§ú‡§ø‡§Ø‡§æ‡§¨‡§æ‡§¶ | ‡§ï‡•à‡§¨ ‡§∏‡§∞‡•ç‡§µ‡§ø‡§∏ ‡§á‡§® ‡§ó‡§æ‡§ú‡§ø‡§Ø‡§æ‡§¨‡§æ‡§¶",
    "categoryName": "Car rental agency",
    "address": "Bunker Mart, LIG-189, Madhuban Bapudham, Sadarpur, Ghaziabad, Uttar Pradesh 201013, India",
    "neighborhood": "Madhuban Bapudham, Sadarpur",
    "street": "Bunker Mart, LIG-189",
    "city": "Ghaziabad",
    "postalCode": "201013",
    "state": "Uttar Pradesh",
    "countryCode": "IN",
    "phone": "+919811869546",
    "phoneUnformatted": "+919811869546",
    "location": {
      "lat": 28.7092068,
      "lng": 77.4867412
    },
    "totalScore": 4.9,
    "permanentlyClosed": false,
    "temporarilyClosed": false,
    "placeId": "ChIJg4xY3M_zDDkRDv1_EGjjado",
    "categories": [
      "Car rental agency",
      "Car leasing service",
      "Taxi service",
      "Tour operator",
      "Travel agency"
    ],
    "reviewsCount": 21,
    "imagesCount": 9,
    "openingHours": [],
    "imageUrl": "https://media.indianluxurycars.com/google/a58ca790612db9b28e315b8ee989a2de3e099745f8c4e38485a9f561672d6278.jpg",
    "url": "https://www.google.com/maps/search/?api=1&query=Ghaziabad%20Taxi%20Service%20%7C%20Taxi%20Service%20in%20Ghaziabad%20%7C%20Cab%20Service%20in%20Ghaziabad&query_place_id=ChIJg4xY3M_zDDkRDv1_EGjjado"
  },
  {
    "title": "GoMyholiday",
    "subTitle": "‡§ó‡•ã‡§Æ‡•Ä‡§π‡•â‡§≤‡§ø‡§°‡•á",
    "categoryName": "Car leasing service",
    "address": "GF-08, parsvnath paradise, Grand Trunk Rd, Om nagar Mohan Nagar, Mohan Nagar, Sahibabad, Ghaziabad, Uttar Pradesh 201005, India",
    "neighborhood": "Om nagar Mohan Nagar, Mohan Nagar, Sahibabad",
    "street": "GF-08, parsvnath paradise, Grand Trunk Rd",
    "city": "Ghaziabad",
    "postalCode": "201005",
    "state": "Uttar Pradesh",
    "countryCode": "IN",
    "website": "https://www.gomyholiday.com/",
    "phone": "+919953607808",
    "phoneUnformatted": "+919953607808",
    "location": {
      "lat": 28.6784342,
      "lng": 77.3722802
    },
    "totalScore": 5,
    "permanentlyClosed": false,
    "temporarilyClosed": false,
    "placeId": "ChIJ1dWow9r55S0RRbqnL7jkNaE",
    "categories": [
      "Car leasing service",
      "Tour operator",
      "Homestay",
      "Tour agency",
      "Travel agency",
      "Visa consulting service"
    ],
    "reviewsCount": 14,
    "imagesCount": 1,
    "openingHours": [],
    "imageUrl": "https://media.indianluxurycars.com/google/6acb49c69dbd41166dad1c62025b3d41c5c2030c4ba03d193e72862970291985.jpg",
    "url": "https://www.google.com/maps/search/?api=1&query=GoMyholiday&query_place_id=ChIJ1dWow9r55S0RRbqnL7jkNaE"
  },
  {
    "title": "Grand Motoren - Used Car Dealer in Indirapuram",
    "subTitle": "‡§ó‡•ç‡§∞‡§æ‡§Ç‡§° ‡§Æ‡•ã‡§ü‡§∞‡•ã‡§Ç - ‡§Ø‡•Ç‡§ú‡•ç‡§° ‡§ï‡§æ‡§∞ ‡§°‡•Ä‡§≤‡§∞ ‡§á‡§® ‡§á‡§Ç‡§¶‡§ø‡§∞‡§æ‡§™‡•Å‡§∞‡§Æ",
    "categoryName": "Used car dealer",
    "address": "F-7, 1st floor, Niti Khand 3, Shakti Khand 2, Indirapuram, Ghaziabad, Uttar Pradesh 201014, India",
    "neighborhood": "Niti Khand 3, Shakti Khand 2, Indirapuram",
    "street": "F-7, 1st floor",
    "city": "Ghaziabad",
    "postalCode": "201014",
    "state": "Uttar Pradesh",
    "countryCode": "IN",
    "website": "https://www.grandmotoren.in/",
    "phone": "+918069245321",
    "phoneUnformatted": "+918069245321",
    "location": {
      "lat": 28.6459649,
      "lng": 77.3756485
    },
    "totalScore": 5,
    "permanentlyClosed": false,
    "temporarilyClosed": false,
    "placeId": "ChIJe6Ikp6n6DDkR05vbqqQY7EM",
    "categories": [
      "Used car dealer",
      "Audi dealer",
      "BMW dealer",
      "Car dealer",
      "Hyundai dealer",
      "Mercedes-Benz dealer",
      "MG dealer"
    ],
    "reviewsCount": 14,
    "imagesCount": 35,
    "openingHours": [
      {
        "day": "Monday",
        "hours": "10:30‚ÄØAM to 6:30‚ÄØPM"
      },
      {
        "day": "Tuesday",
        "hours": "10:30‚ÄØAM to 6:30‚ÄØPM"
      },
      {
        "day": "Wednesday",
        "hours": "10:30‚ÄØAM to 6:30‚ÄØPM"
      },
      {
        "day": "Thursday",
        "hours": "10:30‚ÄØAM to 6:30‚ÄØPM"
      },
      {
        "day": "Friday",
        "hours": "10:30‚ÄØAM to 6:30‚ÄØPM"
      },
      {
        "day": "Saturday",
        "hours": "10:30‚ÄØAM to 6:30‚ÄØPM"
      },
      {
        "day": "Sunday",
        "hours": "10:30‚ÄØAM to 6:30‚ÄØPM"
      }
    ],
    "imageUrl": "https://media.indianluxurycars.com/google/c383ff0717d01c7c3163ebbb4d631d0b78c21d8f5635ec437e0108070c874681.jpg",
    "url": "https://www.google.com/maps/search/?api=1&query=Grand%20Motoren%20-%20Used%20Car%20Dealer%20in%20Indirapuram&query_place_id=ChIJe6Ikp6n6DDkR05vbqqQY7EM"
  },
  {
    "title": "HARDIK Travels Tempo Traveller",
    "subTitle": "‡§π‡§æ‡§∞‡•ç‡§¶‡§ø‡§ï ‡§ü‡•ç‡§∞‡•à‡§µ‡§≤‡•ç‡§∏ ‡§ü‡•á‡§Æ‡•ç‡§™‡•ã ‡§ü‡•ç‡§∞‡•à‡§µ‡§≤‡§∞",
    "categoryName": "Car rental agency",
    "address": "Jaipuria Sunrise Green Plaza, SE - 184, Ahinsa Khand 1, Indirapuram, Ghaziabad, Uttar Pradesh 201014, India",
    "neighborhood": "Ahinsa Khand 1, Indirapuram",
    "street": "Jaipuria Sunrise Green Plaza, SE - 184",
    "city": "Ghaziabad",
    "postalCode": "201014",
    "state": "Uttar Pradesh",
    "countryCode": "IN",
    "website": "https://www.hardiktravels.com/",
    "phone": "+919773716939",
    "phoneUnformatted": "+919773716939",
    "location": {
      "lat": 28.6410215,
      "lng": 77.3758276
    },
    "totalScore": 4.9,
    "permanentlyClosed": false,
    "temporarilyClosed": false,
    "placeId": "ChIJG5ssQ8z7DDkRUWkU1k_zrhg",
    "categories": [
      "Car rental agency",
      "Minibus taxi service",
      "Tour operator",
      "Travel agency"
    ],
    "reviewsCount": 237,
    "imagesCount": 56,
    "openingHours": [],
    "imageUrl": "https://media.indianluxurycars.com/google/0916c0c591760e987da14789a2b9a13743381acb51a335ee7ca86d170ad1a06b.jpg",
    "url": "https://www.google.com/maps/search/?api=1&query=HARDIK%20Travels%20Tempo%20Traveller&query_place_id=ChIJG5ssQ8z7DDkRUWkU1k_zrhg"
  },
  {
    "title": "Hindon Motors",
    "subTitle": "‡§π‡§ø‡§Ç‡§°‡§® ‡§Æ‡•ã‡§ü‡§∞‡•ç‡§∏",
    "categoryName": "Car repair and maintenance service",
    "address": "C 6-8, Express Market, Ambedkar Road, Ghaziabad, Uttar Pradesh 201001, India",
    "neighborhood": "Kallupura, Naya Ganj",
    "street": "C 6-8, Express Market, Ambedkar Road",
    "city": "Ghaziabad",
    "postalCode": "201001",
    "state": "Uttar Pradesh",
    "countryCode": "IN",
    "website": "https://www.hindonmotors.com/",
    "phone": "+918882017818",
    "phoneUnformatted": "+918882017818",
    "location": {
      "lat": 28.6647038,
      "lng": 77.4336269
    },
    "totalScore": 3.9,
    "permanentlyClosed": false,
    "temporarilyClosed": false,
    "placeId": "ChIJOY2sM8jxDDkRTclObGDFen8",
    "categories": [
      "Car repair and maintenance service"
    ],
    "reviewsCount": 308,
    "imagesCount": 16,
    "openingHours": [
      {
        "day": "Monday",
        "hours": "10‚ÄØAM to 8‚ÄØPM"
      },
      {
        "day": "Tuesday",
        "hours": "Closed"
      },
      {
        "day": "Wednesday",
        "hours": "10‚ÄØAM to 8‚ÄØPM"
      },
      {
        "day": "Thursday",
        "hours": "10‚ÄØAM to 8‚ÄØPM"
      },
      {
        "day": "Friday",
        "hours": "10‚ÄØAM to 8‚ÄØPM"
      },
      {
        "day": "Saturday",
        "hours": "10‚ÄØAM to 8‚ÄØPM"
      },
      {
        "day": "Sunday",
        "hours": "10‚ÄØAM to 8‚ÄØPM"
      }
    ],
    "imageUrl": "https://media.indianluxurycars.com/google/00c7fea663679be77fd7bddfe04f4d31572bffad0cfa44115043df60afac9138.jpg",
    "url": "https://www.google.com/maps/search/?api=1&query=Hindon%20Motors&query_place_id=ChIJOY2sM8jxDDkRTclObGDFen8"
  },
  {
    "title": "Insta Cars - Used Car Dealer in Indirapuram",
    "subTitle": "‡§á‡§Ç‡§∏‡•ç‡§ü‡§æ ‡§ï‡§æ‡§∞‡•ç‡§∏ - ‡§Ø‡•Ç‡§ú‡•ç‡§° ‡§ï‡§æ‡§∞ ‡§°‡•Ä‡§≤‡§∞ ‡§á‡§® ‡§á‡§Ç‡§¶‡§ø‡§∞‡§æ‡§™‡•Å‡§∞‡§Æ",
    "categoryName": "Used car dealer",
    "address": "Plot No 30, near St. Francis School, Gyan Khand 1, Indirapuram, Ghaziabad, Uttar Pradesh 201020, India",
    "neighborhood": "Gyan Khand 1, Indirapuram",
    "street": "Plot No 30, near St. Francis School",
    "city": "Ghaziabad",
    "postalCode": "201020",
    "state": "Uttar Pradesh",
    "countryCode": "IN",
    "website": "https://www.instacarsdealer.in/",
    "phone": "+918062429969",
    "phoneUnformatted": "+918062429969",
    "location": {
      "lat": 28.642165,
      "lng": 77.348211
    },
    "totalScore": 4.8,
    "permanentlyClosed": false,
    "temporarilyClosed": false,
    "placeId": "ChIJJQZ-7NHxDDkRViQRxyCp51U",
    "categories": [
      "Used car dealer",
      "Auto painting",
      "Car dealer",
      "Car wash",
      "Repair service"
    ],
    "reviewsCount": 34,
    "imagesCount": 114,
    "openingHours": [
      {
        "day": "Monday",
        "hours": "10‚ÄØAM to 8‚ÄØPM"
      },
      {
        "day": "Tuesday",
        "hours": "10‚ÄØAM to 8‚ÄØPM"
      },
      {
        "day": "Wednesday",
        "hours": "10‚ÄØAM to 8‚ÄØPM"
      },
      {
        "day": "Thursday",
        "hours": "10‚ÄØAM to 8‚ÄØPM"
      },
      {
        "day": "Friday",
        "hours": "10‚ÄØAM to 8‚ÄØPM"
      },
      {
        "day": "Saturday",
        "hours": "10‚ÄØAM to 8‚ÄØPM"
      },
      {
        "day": "Sunday",
        "hours": "10‚ÄØAM to 8‚ÄØPM"
      }
    ],
    "imageUrl": "https://media.indianluxurycars.com/google/b45d52068b3649b9c14b99f67be6f218591497c88d1313a5011d91258a12f259.jpg",
    "url": "https://www.google.com/maps/search/?api=1&query=Insta%20Cars%20-%20Used%20Car%20Dealer%20in%20Indirapuram&query_place_id=ChIJJQZ-7NHxDDkRViQRxyCp51U"
  },
  {
    "title": "JD Cabs - Self Drive Cars",
    "subTitle": "‡§ú‡•á‡§°‡•Ä ‡§ï‡•à‡§¨‡•ç‡§∏ - ‡§∏‡•á‡§≤‡•ç‡§´ ‡§°‡•ç‡§∞‡§æ‡§á‡§µ ‡§ï‡§æ‡§∞‡•ç‡§∏",
    "categoryName": "Car rental agency",
    "address": "6th Floor, Multi Level Parking, Block-F, Sector 4, Vaishali, Ghaziabad, Uttar Pradesh 201019, India",
    "neighborhood": "Block-F, Sector 4, Vaishali",
    "street": "6th Floor, Multi Level Parking",
    "city": "Ghaziabad",
    "postalCode": "201019",
    "state": "Uttar Pradesh",
    "countryCode": "IN",
    "website": "https://www.jdcabs.net/",
    "phone": "+919810774790",
    "phoneUnformatted": "+919810774790",
    "location": {
      "lat": 28.6431896,
      "lng": 77.3363198
    },
    "totalScore": 5,
    "permanentlyClosed": false,
    "temporarilyClosed": false,
    "placeId": "ChIJ99-n9237DDkRSXCx0-sgrc4",
    "categories": [
      "Car rental agency",
      "Car leasing service",
      "Taxi service"
    ],
    "reviewsCount": 86,
    "imagesCount": 11,
    "openingHours": [
      {
        "day": "Monday",
        "hours": "Open 24 hours"
      },
      {
        "day": "Tuesday",
        "hours": "Open 24 hours"
      },
      {
        "day": "Wednesday",
        "hours": "Open 24 hours"
      },
      {
        "day": "Thursday",
        "hours": "Open 24 hours"
      },
      {
        "day": "Friday",
        "hours": "Open 24 hours"
      },
      {
        "day": "Saturday",
        "hours": "Open 24 hours"
      },
      {
        "day": "Sunday",
        "hours": "Open 24 hours"
      }
    ],
    "imageUrl": "https://media.indianluxurycars.com/google/e3cc91f8c970052679d85b87caf5ae424d39586f15471605b20dde15744718e0.png",
    "url": "https://www.google.com/maps/search/?api=1&query=JD%20Cabs%20-%20Self%20Drive%20Cars&query_place_id=ChIJ99-n9237DDkRSXCx0-sgrc4"
  },
  {
    "title": "JD Self Drive Car",
    "subTitle": "‡§ú‡•á‡§°‡•Ä ‡§∏‡•á‡§≤‡•ç‡§´ ‡§°‡•ç‡§∞‡§æ‡§á‡§µ ‡§ï‡§æ‡§∞",
    "categoryName": "Car rental agency",
    "address": "2nd Floor, Garden Apartments, Multi Level Parking, Vaishali, Ghaziabad, Uttar Pradesh 201010, India",
    "neighborhood": "Sector 4, Vaishali",
    "street": "2nd Floor, Garden Apartments, Multi Level Parking",
    "city": "Ghaziabad",
    "postalCode": "201010",
    "state": "Uttar Pradesh",
    "countryCode": "IN",
    "website": "https://jdrentalcar.in/",
    "phone": "+919899606035",
    "phoneUnformatted": "+919899606035",
    "location": {
      "lat": 28.6510815,
      "lng": 77.3408194
    },
    "totalScore": 4.9,
    "permanentlyClosed": false,
    "temporarilyClosed": false,
    "placeId": "ChIJdehdFU77DDkRpBRgHnCFIvI",
    "categories": [
      "Car rental agency",
      "Car leasing service",
      "Taxi service"
    ],
    "reviewsCount": 103,
    "imagesCount": 38,
    "openingHours": [
      {
        "day": "Monday",
        "hours": "Open 24 hours"
      },
      {
        "day": "Tuesday",
        "hours": "Open 24 hours"
      },
      {
        "day": "Wednesday",
        "hours": "Open 24 hours"
      },
      {
        "day": "Thursday",
        "hours": "Open 24 hours"
      },
      {
        "day": "Friday",
        "hours": "Open 24 hours"
      },
      {
        "day": "Saturday",
        "hours": "Open 24 hours"
      },
      {
        "day": "Sunday",
        "hours": "Open 24 hours"
      }
    ],
    "imageUrl": "https://media.indianluxurycars.com/google/5e15cc545616798405208c4289dc90bf49be3a1c349f9ddd09dcc0faf2c08aa7.png",
    "url": "https://www.google.com/maps/search/?api=1&query=JD%20Self%20Drive%20Car&query_place_id=ChIJdehdFU77DDkRpBRgHnCFIvI"
  },
  {
    "title": "JMB Tour And Travels | Tempo Traveller in Ghaziabad | Tempo Traveller on rent in Ghaziabad | Car Rental in Ghaziabad",
    "subTitle": "‡§ú‡•á‡§è‡§Æ‡§¨‡•Ä ‡§ü‡•Ç‡§∞ ‡§è‡§Ç‡§° ‡§ü‡•ç‡§∞‡•à‡§µ‡§≤‡•ç‡§∏ | ‡§ü‡•á‡§Æ‡•ç‡§™‡•ã ‡§ü‡•ç‡§∞‡•à‡§µ‡§≤‡§∞ ‡§á‡§® ‡§ó‡§æ‡§ú‡§ø‡§Ø‡§æ‡§¨‡§æ‡§¶ | ‡§ü‡•á‡§Æ‡•ç‡§™‡•ã ‡§ü‡•ç‡§∞‡•à‡§µ‡§≤‡§∞ ‡§ë‡§® ‡§∞‡•á‡§Ç‡§ü ‡§á‡§® ‡§ó‡§æ‡§ú‡§ø‡§Ø‡§æ‡§¨‡§æ‡§¶ | ‡§ï‡§æ‡§∞ ‡§∞‡•á‡§Ç‡§ü‡§≤ ‡§á‡§® ‡§ó‡§æ‡§ú‡§ø‡§Ø‡§æ‡§¨‡§æ‡§¶",
    "categoryName": "Car rental agency",
    "address": "House No. 501, Valmiki Mandir Rd, Sector 23, Raispur, Ghaziabad, Uttar Pradesh 201002, India",
    "neighborhood": "Sector 23, Raispur",
    "street": "House No. 501, Valmiki Mandir Rd",
    "city": "Ghaziabad",
    "postalCode": "201002",
    "state": "Uttar Pradesh",
    "countryCode": "IN",
    "website": "https://jmbtourtravels.in/",
    "phone": "+918178881567",
    "phoneUnformatted": "+918178881567",
    "location": {
      "lat": 28.6935316,
      "lng": 77.462479
    },
    "totalScore": 4.9,
    "permanentlyClosed": false,
    "temporarilyClosed": false,
    "placeId": "ChIJC03gMzHxDDkRWLBXt989T6U",
    "categories": [
      "Car rental agency",
      "Car leasing service",
      "Travel agency",
      "Minibus taxi service",
      "Taxi service",
      "Tour agency",
      "Tour operator",
      "Van rental agency"
    ],
    "reviewsCount": 57,
    "imagesCount": 122,
    "openingHours": [
      {
        "day": "Monday",
        "hours": "Open 24 hours"
      },
      {
        "day": "Tuesday",
        "hours": "Open 24 hours"
      },
      {
        "day": "Wednesday",
        "hours": "Open 24 hours"
      },
      {
        "day": "Thursday",
        "hours": "Open 24 hours"
      },
      {
        "day": "Friday",
        "hours": "Open 24 hours"
      },
      {
        "day": "Saturday",
        "hours": "Open 24 hours"
      },
      {
        "day": "Sunday",
        "hours": "Open 24 hours"
      }
    ],
    "imageUrl": "https://media.indianluxurycars.com/google/50c746fcab9ab6e6627b06b5e3224732a17b8ad303c8a9974bc3ea81676f7f75.jpg",
    "url": "https://www.google.com/maps/search/?api=1&query=JMB%20Tour%20And%20Travels%20%7C%20Tempo%20Traveller%20in%20Ghaziabad%20%7C%20Tempo%20Traveller%20on%20rent%20in%20Ghaziabad%20%7C%20Car%20Rental%20in%20Ghaziabad&query_place_id=ChIJC03gMzHxDDkRWLBXt989T6U"
  },
  {
    "title": "JPM Travels - Outstation Car/Cab/Taxi Rental/Hire/Booking",
    "subTitle": "‡§ú‡•á‡§™‡•Ä‡§è‡§Æ ‡§ü‡•ç‡§∞‡•à‡§µ‡§≤‡•ç‡§∏ - ‡§Ü‡§â‡§ü‡§∏‡•ç‡§ü‡•á‡§∂‡§® ‡§ï‡§æ‡§∞/‡§∏‡•Ä‡§è‡§¨‡•Ä/‡§ü‡•à‡§ï‡•ç‡§∏‡•Ä ‡§∞‡•á‡§Ç‡§ü‡§≤/‡§π‡•Ä‡§∞‡•á/‡§¨‡•Å‡§ï‡§ø‡§Ç‡§ó",
    "categoryName": "Car rental agency",
    "address": "231, Central Market, near Shipra Mall, Shiv Vihar, Shipra Suncity, Indirapuram, Ghaziabad, Uttar Pradesh 201014, India",
    "neighborhood": "Shiv Vihar, Shipra Suncity, Indirapuram",
    "street": "231, Central Market, near Shipra Mall",
    "city": "Ghaziabad",
    "postalCode": "201014",
    "state": "Uttar Pradesh",
    "countryCode": "IN",
    "website": "https://www.justdial.com/Delhi/Jpm-Tours-And-Travels-Vaibhav-Khand-Indirapuram/011PXX11-XX11-190228115511-J7W3_BZDET",
    "phone": "+918130775456",
    "phoneUnformatted": "+918130775456",
    "location": {
      "lat": 28.6367139,
      "lng": 77.3740265
    },
    "totalScore": 4.5,
    "permanentlyClosed": false,
    "temporarilyClosed": false,
    "placeId": "ChIJA9M9hczlDDkRL1yoWzlN78Q",
    "categories": [
      "Car rental agency",
      "Car leasing service",
      "Sightseeing tour agency",
      "Taxi service",
      "Tour agency",
      "Tour operator",
      "Travel agency"
    ],
    "reviewsCount": 20,
    "imagesCount": 6,
    "openingHours": [
      {
        "day": "Monday",
        "hours": "8‚ÄØAM to 8‚ÄØPM"
      },
      {
        "day": "Tuesday",
        "hours": "8‚ÄØAM to 8‚ÄØPM"
      },
      {
        "day": "Wednesday",
        "hours": "8‚ÄØAM to 8‚ÄØPM"
      },
      {
        "day": "Thursday",
        "hours": "8‚ÄØAM to 8‚ÄØPM"
      },
      {
        "day": "Friday",
        "hours": "8‚ÄØAM to 8‚ÄØPM"
      },
      {
        "day": "Saturday",
        "hours": "8‚ÄØAM to 8‚ÄØPM"
      },
      {
        "day": "Sunday",
        "hours": "8‚ÄØAM to 8‚ÄØPM"
      }
    ],
    "imageUrl": "https://media.indianluxurycars.com/google/8d151aa500f40dcd615b0e7ff181528089e74569da3cf684b12910b269d8f425.jpg",
    "url": "https://www.google.com/maps/search/?api=1&query=JPM%20Travels%20-%20Outstation%20Car%2FCab%2FTaxi%20Rental%2FHire%2FBooking&query_place_id=ChIJA9M9hczlDDkRL1yoWzlN78Q"
  },
  {
    "title": "kalka motors | car sale and purchase on comission basis",
    "subTitle": "‡§ï‡§æ‡§≤‡§ï‡§æ ‡§Æ‡•ã‡§ü‡§∞‡•ç‡§∏ | ‡§ï‡§æ‡§∞ ‡§∏‡•á‡§≤ ‡§è‡§Ç‡§° ‡§™‡§∞‡§ö‡•á‡§ú ‡§ë‡§® ‡§ï‡§Æ‡•Ä‡§∂‡§® ‡§¨‡•á‡§∏‡§ø‡§∏",
    "categoryName": "Car dealer",
    "address": "Kanha Complex, 6/161, Sector 2, Rajendra Nagar, Sahibabad, Ghaziabad, Uttar Pradesh 201005, India",
    "neighborhood": "Sector 2, Rajendra Nagar, Sahibabad",
    "street": "Kanha Complex, 6/161",
    "city": "Ghaziabad",
    "postalCode": "201005",
    "state": "Uttar Pradesh",
    "countryCode": "IN",
    "phone": "+919910499324",
    "phoneUnformatted": "+919910499324",
    "location": {
      "lat": 28.6847145,
      "lng": 77.3579925
    },
    "totalScore": 5,
    "permanentlyClosed": false,
    "temporarilyClosed": false,
    "placeId": "ChIJF38w58L7DDkR8u2jw9ES1hk",
    "categories": [
      "Car dealer"
    ],
    "reviewsCount": 18,
    "imagesCount": 16,
    "openingHours": [
      {
        "day": "Monday",
        "hours": "9‚ÄØAM to 8‚ÄØPM"
      },
      {
        "day": "Tuesday",
        "hours": "9‚ÄØAM to 8‚ÄØPM"
      },
      {
        "day": "Wednesday",
        "hours": "9‚ÄØAM to 8‚ÄØPM"
      },
      {
        "day": "Thursday",
        "hours": "9‚ÄØAM to 8‚ÄØPM"
      },
      {
        "day": "Friday",
        "hours": "9‚ÄØAM to 8‚ÄØPM"
      },
      {
        "day": "Saturday",
        "hours": "9‚ÄØAM to 8‚ÄØPM"
      },
      {
        "day": "Sunday",
        "hours": "9‚ÄØAM to 8‚ÄØPM"
      }
    ],
    "imageUrl": "https://media.indianluxurycars.com/google/9422048ff8e956e8edff63b2439fa00407d12ea0e5a91baea39eaf841da8b4ee.jpg",
    "url": "https://www.google.com/maps/search/?api=1&query=kalka%20motors%20%7C%20car%20sale%20and%20purchase%20on%20comission%20basis&query_place_id=ChIJF38w58L7DDkR8u2jw9ES1hk"
  },
  {
    "title": "Kapil Tour and Travels",
    "subTitle": "‡§ï‡§™‡§ø‡§≤ ‡§ü‡•Ç‡§∞ ‡§è‡§Ç‡§° ‡§ü‡•ç‡§∞‡•à‡§µ‡§≤‡•ç‡§∏",
    "categoryName": "Car leasing service",
    "address": "H, Adarsh Nagar, Nandgram, Sewa Nagar, Ghaziabad, Uttar Pradesh 201003, India",
    "neighborhood": "Adarsh Nagar, Nandgram, Sewa Nagar",
    "street": "H",
    "city": "Ghaziabad",
    "postalCode": "201003",
    "state": "Uttar Pradesh",
    "countryCode": "IN",
    "website": "https://kapiltourandtravels.in/",
    "phone": "+919220879397",
    "phoneUnformatted": "+919220879397",
    "location": {
      "lat": 28.6862774,
      "lng": 77.4057908
    },
    "totalScore": 4.9,
    "permanentlyClosed": false,
    "temporarilyClosed": false,
    "placeId": "ChIJIVy6X3DVtCkR2HevZCyj9BA",
    "categories": [
      "Car leasing service",
      "Air taxi",
      "Bus tour agency",
      "Taxi service",
      "Rental car return location",
      "Tour operator",
      "Transportation service",
      "Travel agency"
    ],
    "reviewsCount": 17,
    "imagesCount": 35,
    "openingHours": [],
    "imageUrl": "https://media.indianluxurycars.com/google/a93a4cf2bc8fca729bac319cbcf5ab40d14069ecbd618b72411ef99c935bfda0.jpg",
    "url": "https://www.google.com/maps/search/?api=1&query=Kapil%20Tour%20and%20Travels&query_place_id=ChIJIVy6X3DVtCkR2HevZCyj9BA"
  },
  {
    "title": "Krishna Tour & Travels",
    "subTitle": "‡§ï‡•É‡§∑‡•ç‡§£‡§æ ‡§ü‡•Ç‡§∞ & ‡§ü‡•ç‡§∞‡•à‡§µ‡§≤‡•ç‡§∏",
    "categoryName": "Car rental agency",
    "address": "shop no 6, Officer colony, Raj Nagar Extension, Ghaziabad, Uttar Pradesh 201003, India",
    "neighborhood": "Raj Nagar Extension",
    "street": "shop no 6, Officer colony",
    "city": "Ghaziabad",
    "postalCode": "201003",
    "state": "Uttar Pradesh",
    "countryCode": "IN",
    "website": "https://travelagencyinghaziabad.com/",
    "phone": "+917055357249",
    "phoneUnformatted": "+917055357249",
    "location": {
      "lat": 28.7052619,
      "lng": 77.4278928
    },
    "totalScore": 5,
    "permanentlyClosed": false,
    "temporarilyClosed": false,
    "placeId": "ChIJ8cyurlDxDDkRKYMBLMIUaL4",
    "categories": [
      "Car rental agency",
      "Car leasing service",
      "Taxi service",
      "Sightseeing tour agency",
      "Tour operator",
      "Travel agency"
    ],
    "reviewsCount": 36,
    "imagesCount": 156,
    "openingHours": [],
    "imageUrl": "https://media.indianluxurycars.com/google/bdf12603066d15b72631c17248e4355261882b50b0ab5dd05c85bcf8b228b384.jpg",
    "url": "https://www.google.com/maps/search/?api=1&query=Krishna%20Tour%20%26%20Travels&query_place_id=ChIJ8cyurlDxDDkRKYMBLMIUaL4"
  },
  {
    "title": "Krishna Tour & Travels Service",
    "subTitle": "‡§ï‡•É‡§∑‡•ç‡§£‡§æ ‡§ü‡•Ç‡§∞ & ‡§ü‡•ç‡§∞‡•à‡§µ‡§≤‡•ç‡§∏ ‡§∏‡§∞‡•ç‡§µ‡§ø‡§∏",
    "categoryName": "Car leasing service",
    "address": "Krishna Homes, Plot No 30 , Kh No 737, Noor Nagar, Deepak Colony, Sehani Khurd, Ghukna, Ghaziabad, Uttar Pradesh 201003, India",
    "neighborhood": "Noor Nagar, Deepak Colony, Sehani Khurd, Ghukna",
    "street": "Krishna Homes, Plot No 30 , Kh No 737",
    "city": "Ghaziabad",
    "postalCode": "201003",
    "state": "Uttar Pradesh",
    "countryCode": "IN",
    "website": "http://krishnatourtravels.live/index.html",
    "phone": "+918941991353",
    "phoneUnformatted": "+918941991353",
    "location": {
      "lat": 28.6958816,
      "lng": 77.4159578
    },
    "totalScore": 5,
    "permanentlyClosed": false,
    "temporarilyClosed": false,
    "placeId": "ChIJNW417tLxDDkRQ2sOQHU5Dog",
    "categories": [
      "Car leasing service",
      "Taxi service",
      "Travel agency"
    ],
    "reviewsCount": 9,
    "imagesCount": 29,
    "openingHours": [],
    "imageUrl": "https://media.indianluxurycars.com/google/296286f0ab882509fce2db1679e6562b68fd3e4f3231f9e501dc09e0c5eabfa4.jpg",
    "url": "https://www.google.com/maps/search/?api=1&query=Krishna%20Tour%20%26%20Travels%20Service&query_place_id=ChIJNW417tLxDDkRQ2sOQHU5Dog"
  },
  {
    "title": "Kumar's Car World || The Best Used Car Dealer In Ghaziabad",
    "subTitle": "‡§ï‡•Å‡§Æ‡§æ‡§∞‡•ç‡§∏ ‡§ï‡§æ‡§∞ ‡§¶‡•Å‡§®‡§ø‡§Ø‡§æ",
    "categoryName": "Used car dealer",
    "address": "Cinema Link Road, opp. Galaxie, Vaishali Extension, Sector 9, Vaishali, Ghaziabad, Uttar Pradesh 201019, India",
    "neighborhood": "Vaishali Extension, Sector 9, Vaishali",
    "street": "Cinema Link Road, opp. Galaxie",
    "city": "Ghaziabad",
    "postalCode": "201019",
    "state": "Uttar Pradesh",
    "countryCode": "IN",
    "website": "http://www.kumarscarworld.com/",
    "phone": "+919810235292",
    "phoneUnformatted": "+919810235292",
    "location": {
      "lat": 28.6545068,
      "lng": 77.3463583
    },
    "totalScore": 3.9,
    "permanentlyClosed": false,
    "temporarilyClosed": false,
    "placeId": "ChIJAQAALMH6DDkRsQ33yLyk3hU",
    "categories": [
      "Used car dealer",
      "Auto body shop",
      "Auto broker",
      "Auto painting",
      "Car dealer",
      "Car finance and loan company",
      "Financial consultant"
    ],
    "reviewsCount": 168,
    "imagesCount": 44,
    "openingHours": [
      {
        "day": "Monday",
        "hours": "10‚ÄØAM to 7:30‚ÄØPM"
      },
      {
        "day": "Tuesday",
        "hours": "Closed"
      },
      {
        "day": "Wednesday",
        "hours": "10‚ÄØAM to 7:30‚ÄØPM"
      },
      {
        "day": "Thursday",
        "hours": "10‚ÄØAM to 7:30‚ÄØPM"
      },
      {
        "day": "Friday",
        "hours": "10‚ÄØAM to 7:30‚ÄØPM"
      },
      {
        "day": "Saturday",
        "hours": "10‚ÄØAM to 7:30‚ÄØPM"
      },
      {
        "day": "Sunday",
        "hours": "10‚ÄØAM to 7:30‚ÄØPM"
      }
    ],
    "imageUrl": "https://media.indianluxurycars.com/google/94d143c4a85d7984568701b848f4f88ee45b1b180c304f4508628801a1d0a49b.jpg",
    "url": "https://www.google.com/maps/search/?api=1&query=Kumar's%20Car%20World%20%7C%7C%20The%20Best%20Used%20Car%20Dealer%20In%20Ghaziabad&query_place_id=ChIJAQAALMH6DDkRsQ33yLyk3hU"
  },
  {
    "title": "La Maison Citro√´n Ghaziabad",
    "subTitle": "‡§≤‡§æ ‡§Æ‡•à‡§∏‡§® ‡§∏‡§ø‡§ü‡•ç‡§∞‡•ã‡§è‡§® ‡§ó‡§æ‡§ú‡§ø‡§Ø‡§æ‡§¨‡§æ‡§¶",
    "categoryName": "Car dealer",
    "address": "Plot no 117, Meerut Rd, Guldhar Main, Meerut Road Industrial Area, Ghaziabad, Uttar Pradesh 201017, India",
    "neighborhood": "Guldhar Main, Meerut Road Industrial Area",
    "street": "Plot no 117, Meerut Rd",
    "city": "Ghaziabad",
    "postalCode": "201017",
    "state": "Uttar Pradesh",
    "countryCode": "IN",
    "website": "https://dream-ghaziabad.citroen.in/",
    "phone": "+919289913399",
    "phoneUnformatted": "+919289913399",
    "location": {
      "lat": 28.7050975,
      "lng": 77.4521044
    },
    "totalScore": 4.9,
    "permanentlyClosed": false,
    "temporarilyClosed": false,
    "placeId": "ChIJ10mh6W_xDDkRdw6xD-0s14M",
    "categories": [
      "Car dealer"
    ],
    "reviewsCount": 1239,
    "imagesCount": 81,
    "openingHours": [
      {
        "day": "Monday",
        "hours": "9:30‚ÄØAM to 7‚ÄØPM"
      },
      {
        "day": "Tuesday",
        "hours": "9:30‚ÄØAM to 7‚ÄØPM"
      },
      {
        "day": "Wednesday",
        "hours": "9:30‚ÄØAM to 7‚ÄØPM"
      },
      {
        "day": "Thursday",
        "hours": "9:30‚ÄØAM to 7‚ÄØPM"
      },
      {
        "day": "Friday",
        "hours": "9:30‚ÄØAM to 7‚ÄØPM"
      },
      {
        "day": "Saturday",
        "hours": "9:30‚ÄØAM to 7‚ÄØPM"
      },
      {
        "day": "Sunday",
        "hours": "9:30‚ÄØAM to 7‚ÄØPM"
      }
    ],
    "imageUrl": "https://media.indianluxurycars.com/google/2861eb6c50a327a8d6fc42bd1d76c6f000d5995c0e77c261caee0f58d27be6af.jpg",
    "url": "https://www.google.com/maps/search/?api=1&query=La%20Maison%20Citro%C3%ABn%20Ghaziabad&query_place_id=ChIJ10mh6W_xDDkRdw6xD-0s14M"
  },
  {
    "title": "Letsvroomcars",
    "subTitle": "‡§≤‡•á‡§ü‡•ç‡§∏‡§µ‡•ç‡§∞‡•Ç‡§Æ‡§ö‡§∞‡•ç‡§∏",
    "categoryName": "Used car dealer",
    "address": "Ground, KRISHNA APRA, G-61, Niti Khand 3, Shakti Khand 2, Indirapuram, Ghaziabad, Uttar Pradesh 201014, India",
    "neighborhood": "Niti Khand 3, Shakti Khand 2, Indirapuram",
    "street": "Ground, KRISHNA APRA, G-61",
    "city": "Ghaziabad",
    "postalCode": "201014",
    "state": "Uttar Pradesh",
    "countryCode": "IN",
    "phone": "+919555520781",
    "phoneUnformatted": "+919555520781",
    "location": {
      "lat": 28.6459649,
      "lng": 77.3756485
    },
    "totalScore": 1,
    "permanentlyClosed": false,
    "temporarilyClosed": true,
    "placeId": "ChIJh67Un1j7DDkRCY1BkX9piIg",
    "categories": [
      "Used car dealer"
    ],
    "reviewsCount": 1,
    "imagesCount": 1,
    "openingHours": [],
    "imageUrl": "https://media.indianluxurycars.com/google/ef97496ba3f31db395f48f8ff901436fd9aeaab556975cb376c0f8ef10cac998.jpg",
    "url": "https://www.google.com/maps/search/?api=1&query=Letsvroomcars&query_place_id=ChIJh67Un1j7DDkRCY1BkX9piIg"
  },
  {
    "title": "Luxury Car Decor",
    "subTitle": "‡§≤‡§ï‡•ç‡§ú‡§∞‡•Ä ‡§ï‡§æ‡§∞ ‡§°‡•á‡§ï‡•ã‡§∞",
    "categoryName": "Car stereo store",
    "address": "HIG 34, Block B, Brij Vihar, Surya Nagar, Ghaziabad, Uttar Pradesh 201011, India",
    "neighborhood": "Block B, Brij Vihar, Surya Nagar",
    "street": "HIG 34",
    "city": "Ghaziabad",
    "postalCode": "201011",
    "state": "Uttar Pradesh",
    "countryCode": "IN",
    "phone": "+918882652168",
    "phoneUnformatted": "+918882652168",
    "location": {
      "lat": 28.669992,
      "lng": 77.3330758
    },
    "totalScore": 4.5,
    "permanentlyClosed": false,
    "temporarilyClosed": false,
    "placeId": "ChIJGzuP8VX7DDkRZ69Tsb57AcQ",
    "categories": [
      "Car stereo store"
    ],
    "reviewsCount": 13,
    "imagesCount": 68,
    "openingHours": [
      {
        "day": "Monday",
        "hours": "10‚ÄØAM to 8‚ÄØPM"
      },
      {
        "day": "Tuesday",
        "hours": "Closed"
      },
      {
        "day": "Wednesday",
        "hours": "10‚ÄØAM to 8‚ÄØPM"
      },
      {
        "day": "Thursday",
        "hours": "10‚ÄØAM to 8‚ÄØPM"
      },
      {
        "day": "Friday",
        "hours": "10‚ÄØAM to 8‚ÄØPM"
      },
      {
        "day": "Saturday",
        "hours": "10‚ÄØAM to 8‚ÄØPM"
      },
      {
        "day": "Sunday",
        "hours": "10‚ÄØAM to 8‚ÄØPM"
      }
    ],
    "imageUrl": "https://media.indianluxurycars.com/google/eb7093650f22623c7d42ab33d04d4bb81c81196ffd7f434500e66538f0683de6.jpg",
    "url": "https://www.google.com/maps/search/?api=1&query=Luxury%20Car%20Decor&query_place_id=ChIJGzuP8VX7DDkRZ69Tsb57AcQ"
  },
  {
    "title": "Luxury Car Rental For Wedding",
    "subTitle": "‡§≤‡§ï‡•ç‡§ú‡§∞‡•Ä ‡§ï‡§æ‡§∞ ‡§∞‡•á‡§Ç‡§ü‡§≤ ‡§´‡•â‡§∞ ‡§µ‡•á‡§°‡§ø‡§Ç‡§ó",
    "categoryName": "Car rental agency",
    "address": "Back Side Of, SA-32, Ahinsa Khand 1 Jaipuria, Indirapuram, Ghaziabad, Uttar Pradesh 201014, India",
    "neighborhood": "Ahinsa Khand 1, Indirapuram",
    "street": "Back Side Of, SA-32, Ahinsa Khand 1 Jaipuria",
    "city": "Ghaziabad",
    "postalCode": "201014",
    "state": "Uttar Pradesh",
    "countryCode": "IN",
    "website": "https://saferentacar.in/?utm_campaign=gmb",
    "phone": "+918400041919",
    "phoneUnformatted": "+918400041919",
    "location": {
      "lat": 28.6406232,
      "lng": 77.3775274
    },
    "totalScore": 5,
    "permanentlyClosed": false,
    "temporarilyClosed": false,
    "placeId": "ChIJ9XhKo3X7DDkRPesRcejJBI4",
    "categories": [
      "Car rental agency"
    ],
    "reviewsCount": 68,
    "imagesCount": 32,
    "openingHours": [
      {
        "day": "Monday",
        "hours": "7‚ÄØAM to 11‚ÄØPM"
      },
      {
        "day": "Tuesday",
        "hours": "7‚ÄØAM to 11‚ÄØPM"
      },
      {
        "day": "Wednesday",
        "hours": "7‚ÄØAM to 11‚ÄØPM"
      },
      {
        "day": "Thursday",
        "hours": "7‚ÄØAM to 11‚ÄØPM"
      },
      {
        "day": "Friday",
        "hours": "7‚ÄØAM to 11‚ÄØPM"
      },
      {
        "day": "Saturday",
        "hours": "7‚ÄØAM to 11‚ÄØPM"
      },
      {
        "day": "Sunday",
        "hours": "7‚ÄØAM to 11‚ÄØPM"
      }
    ],
    "imageUrl": "https://media.indianluxurycars.com/google/9618786a889e06cc79ae7d99a708132a5fa42dbf6c3941119cd9bcd23e00bfb7.jpg",
    "url": "https://www.google.com/maps/search/?api=1&query=Luxury%20Car%20Rental%20For%20Wedding&query_place_id=ChIJ9XhKo3X7DDkRPesRcejJBI4"
  },
  {
    "title": "Luxury wed car rental",
    "subTitle": "‡§≤‡§ï‡•ç‡§ú‡§∞‡•Ä ‡§µ‡•á‡§° ‡§ï‡§æ‡§∞ ‡§∞‡•á‡§Ç‡§ü‡§≤",
    "categoryName": "Car leasing service",
    "address": "PLOT NO 10, Sector 1, Vasundhara, Ghaziabad, Uttar Pradesh 201012, India",
    "neighborhood": "Sector 1, Vasundhara",
    "street": "PLOT NO 10",
    "city": "Ghaziabad",
    "postalCode": "201012",
    "state": "Uttar Pradesh",
    "countryCode": "IN",
    "location": {
      "lat": 28.6666475,
      "lng": 77.3871539
    },
    "permanentlyClosed": false,
    "temporarilyClosed": false,
    "placeId": "ChIJk7zcJGvxDDkRub2MdtlQLO4",
    "categories": [
      "Car leasing service"
    ],
    "openingHours": [
      {
        "day": "Monday",
        "hours": "Open 24 hours"
      },
      {
        "day": "Tuesday",
        "hours": "Open 24 hours"
      },
      {
        "day": "Wednesday",
        "hours": "Open 24 hours"
      },
      {
        "day": "Thursday",
        "hours": "Open 24 hours"
      },
      {
        "day": "Friday",
        "hours": "Open 24 hours"
      },
      {
        "day": "Saturday",
        "hours": "Open 24 hours"
      },
      {
        "day": "Sunday",
        "hours": "Open 24 hours"
      }
    ],
    "url": "https://www.google.com/maps/search/?api=1&query=Luxury%20wed%20car%20rental&query_place_id=ChIJk7zcJGvxDDkRub2MdtlQLO4"
  },
  {
    "title": "M R Hyundai Showroom & Service, Shalimar Garden, Sahibabad",
    "subTitle": "‡§è‡§Ç ‡§Ü‡§∞ ‡§π‡•Å‡§Ç‡§°‡§à ‡§∂‡•ã‡§∞‡•Ç‡§Æ & ‡§∏‡§∞‡•ç‡§µ‡§ø‡§∏, ‡§∂‡§æ‡§≤‡•Ä‡§Æ‡§æ‡§∞ ‡§ó‡§æ‡§∞‡•ç‡§°‡§®, ‡§∏‡§æ‡§π‡§ø‡§¨‡§æ‡§¨‡§æ‡§¶",
    "categoryName": "Car dealer",
    "address": "Loni Rd, opp. Shalimar Garden, Pasonda, Sahibabad, Ghaziabad, Uttar Pradesh 201006, India",
    "neighborhood": "Pasonda, Sahibabad",
    "street": "Loni Rd, opp. Shalimar Garden",
    "city": "Ghaziabad",
    "postalCode": "201006",
    "state": "Uttar Pradesh",
    "countryCode": "IN",
    "website": "https://mr-hyundai-shalimargarden-sahibabad.com/",
    "phone": "+919312821182",
    "phoneUnformatted": "+919312821182",
    "location": {
      "lat": 28.6934825,
      "lng": 77.3451238
    },
    "totalScore": 4.6,
    "permanentlyClosed": false,
    "temporarilyClosed": false,
    "placeId": "ChIJMcv9VWv7DDkRqUqZ8VZVYig",
    "categories": [
      "Car dealer",
      "Hyundai dealer"
    ],
    "reviewsCount": 3069,
    "imagesCount": 234,
    "openingHours": [
      {
        "day": "Monday",
        "hours": "10‚ÄØAM to 7‚ÄØPM"
      },
      {
        "day": "Tuesday",
        "hours": "10‚ÄØAM to 7‚ÄØPM"
      },
      {
        "day": "Wednesday",
        "hours": "10‚ÄØAM to 7‚ÄØPM"
      },
      {
        "day": "Thursday",
        "hours": "10‚ÄØAM to 7‚ÄØPM"
      },
      {
        "day": "Friday",
        "hours": "10‚ÄØAM to 7‚ÄØPM"
      },
      {
        "day": "Saturday",
        "hours": "10‚ÄØAM to 7‚ÄØPM"
      },
      {
        "day": "Sunday",
        "hours": "10‚ÄØAM to 7‚ÄØPM"
      }
    ],
    "imageUrl": "https://media.indianluxurycars.com/google/9f71efb832b1671a91044c664d4b2fd5f7952fba9c1fef735e55e01d305415a7.jpg",
    "url": "https://www.google.com/maps/search/?api=1&query=M%20R%20Hyundai%20Showroom%20%26%20Service%2C%20Shalimar%20Garden%2C%20Sahibabad&query_place_id=ChIJMcv9VWv7DDkRqUqZ8VZVYig"
  },
  {
    "title": "MG Motor Crystal Auto Showroom",
    "subTitle": "‡§è‡§Æ‡§ú‡•Ä ‡§Æ‡•ã‡§ü‡§∞ ‡§ï‡•ç‡§∞‡§ø‡§∏‡•ç‡§ü‡§≤ ‡§ë‡§ü‡•ã ‡§∂‡•ã‡§∞‡•Ç‡§Æ",
    "categoryName": "MG dealer",
    "address": "Ground Floor, Block G, Patel Nagar 3, Patel Nagar, Ghaziabad, Uttar Pradesh 201001, India",
    "neighborhood": "Block G, Patel Nagar 3, Patel Nagar",
    "street": "Ground Floor",
    "city": "Ghaziabad",
    "postalCode": "201001",
    "state": "Uttar Pradesh",
    "countryCode": "IN",
    "website": "https://dealers.mgmotor.co.in/mg-motor-crystal-auto-showroom-car-dealer-patel-nagar-3-ghaziabad-371850/Home",
    "phone": "+919999514321",
    "phoneUnformatted": "+919999514321",
    "location": {
      "lat": 28.6762154,
      "lng": 77.4275094
    },
    "totalScore": 4.5,
    "permanentlyClosed": false,
    "temporarilyClosed": false,
    "placeId": "ChIJgdqatQnxDDkRmy2_czvfk6Q",
    "categories": [
      "MG dealer",
      "Car dealer",
      "Motor vehicle dealer"
    ],
    "reviewsCount": 652,
    "imagesCount": 79,
    "openingHours": [
      {
        "day": "Monday",
        "hours": "10‚ÄØAM to 7‚ÄØPM"
      },
      {
        "day": "Tuesday",
        "hours": "10‚ÄØAM to 7‚ÄØPM"
      },
      {
        "day": "Wednesday",
        "hours": "10‚ÄØAM to 7‚ÄØPM"
      },
      {
        "day": "Thursday",
        "hours": "10‚ÄØAM to 7‚ÄØPM"
      },
      {
        "day": "Friday",
        "hours": "10‚ÄØAM to 7‚ÄØPM"
      },
      {
        "day": "Saturday",
        "hours": "10‚ÄØAM to 7‚ÄØPM"
      },
      {
        "day": "Sunday",
        "hours": "10‚ÄØAM to 12‚ÄØAM"
      }
    ],
    "imageUrl": "https://media.indianluxurycars.com/google/8291841de77717bd8ac8b71537ca33a7931ee3919e752395c5a6431407f8f682.jpg",
    "url": "https://www.google.com/maps/search/?api=1&query=MG%20Motor%20Crystal%20Auto%20Showroom&query_place_id=ChIJgdqatQnxDDkRmy2_czvfk6Q"
  },
  {
    "title": "Motorkarz.com",
    "subTitle": "‡§Æ‡•ã‡§ü‡§∞‡•ç‡§ï‡§∞‡•ç‡§ú‡§º.‡§ï‡•â‡§Æ",
    "categoryName": "Car dealer",
    "address": "Plot No. 1, Shakti Khand 2, Indirapuram, Ghaziabad, Uttar Pradesh 201014, India",
    "neighborhood": "Shakti Khand 2, Indirapuram",
    "street": "Plot No. 1",
    "city": "Ghaziabad",
    "postalCode": "201014",
    "state": "Uttar Pradesh",
    "countryCode": "IN",
    "website": "https://www.motorkarz.com/",
    "phone": "+919871597337",
    "phoneUnformatted": "+919871597337",
    "location": {
      "lat": 28.6465196,
      "lng": 77.3654728
    },
    "totalScore": 5,
    "permanentlyClosed": false,
    "temporarilyClosed": false,
    "placeId": "ChIJVaPDil37DDkRhhhniSVAehQ",
    "categories": [
      "Car dealer",
      "Audi dealer",
      "BMW dealer",
      "Hyundai dealer",
      "Kia dealer",
      "Land Rover dealer",
      "Lexus dealer",
      "Mercedes-Benz dealer",
      "Porsche dealer",
      "Volvo dealer"
    ],
    "reviewsCount": 8,
    "imagesCount": 8,
    "openingHours": [
      {
        "day": "Monday",
        "hours": "11‚ÄØAM to 7‚ÄØPM"
      },
      {
        "day": "Tuesday",
        "hours": "11‚ÄØAM to 7‚ÄØPM"
      },
      {
        "day": "Wednesday",
        "hours": "11‚ÄØAM to 7‚ÄØPM"
      },
      {
        "day": "Thursday",
        "hours": "11‚ÄØAM to 7‚ÄØPM"
      },
      {
        "day": "Friday",
        "hours": "11‚ÄØAM to 7‚ÄØPM"
      },
      {
        "day": "Saturday",
        "hours": "11‚ÄØAM to 7‚ÄØPM"
      },
      {
        "day": "Sunday",
        "hours": "Closed"
      }
    ],
    "imageUrl": "https://media.indianluxurycars.com/google/e6e9b107d36152fd42ec56c77b64c07cb3b267dbf25505dd8cbe838f2bc05397.jpg",
    "url": "https://www.google.com/maps/search/?api=1&query=Motorkarz.com&query_place_id=ChIJVaPDil37DDkRhhhniSVAehQ"
  },
  {
    "title": "National Tour & Travels : GHAZIABAD CAB CAR RENTAL, OUTSTATION TAXI SERVICE, TAXI SERVICE IN GHAZIABAD, TAXI SERVICE NEAR ME",
    "subTitle": "‡§®‡•á‡§∂‡§®‡§≤ ‡§ü‡•Ç‡§∞ & ‡§ü‡•ç‡§∞‡•à‡§µ‡§≤‡•ç‡§∏ : ‡§ó‡§æ‡§ú‡§ø‡§Ø‡§æ‡§¨‡§æ‡§¶ ‡§ï‡•à‡§¨ ‡§ï‡§æ‡§∞ ‡§∞‡•á‡§Ç‡§ü‡§≤, ‡§Ü‡§â‡§ü‡§∏‡•ç‡§ü‡•á‡§∂‡§® ‡§ü‡•à‡§ï‡•ç‡§∏‡•Ä ‡§∏‡§∞‡•ç‡§µ‡§ø‡§∏, ‡§ü‡•à‡§ï‡•ç‡§∏‡•Ä ‡§∏‡§∞‡•ç‡§µ‡§ø‡§∏ ‡§á‡§® ‡§ó‡§æ‡§ú‡§ø‡§Ø‡§æ‡§¨‡§æ‡§¶, ‡§ü‡•à‡§ï‡•ç‡§∏‡•Ä ‡§∏‡§∞‡•ç‡§µ‡§ø‡§∏ ‡§®‡§ø‡§Ø‡§∞ ‡§Æ‡•á‡§Ç",
    "categoryName": "Car leasing service",
    "address": "Plot Number 16, South Side Laxmi Vihar, near Chaudhary Petrol Pump, Loha Mandi, Bulandshahr Road Industrial Area, Ghaziabad, Uttar Pradesh 201009, India",
    "neighborhood": "Loha Mandi, Bulandshahr Road Industrial Area",
    "street": "Plot Number 16, South Side Laxmi Vihar, near Chaudhary Petrol Pump",
    "city": "Ghaziabad",
    "postalCode": "201009",
    "state": "Uttar Pradesh",
    "countryCode": "IN",
    "website": "https://nationaltourtravels.com/contact-us/",
    "phone": "+918447970660",
    "phoneUnformatted": "+918447970660",
    "location": {
      "lat": 28.6412369,
      "lng": 77.4520152
    },
    "totalScore": 4.9,
    "permanentlyClosed": false,
    "temporarilyClosed": false,
    "placeId": "ChIJvcBVkSXvDDkRO3oMIn-c8hs",
    "categories": [
      "Car leasing service",
      "Taxi service"
    ],
    "reviewsCount": 269,
    "imagesCount": 41,
    "openingHours": [],
    "imageUrl": "https://media.indianluxurycars.com/google/50d9da4eb3b89f0fa527f4fd20a91170291894348220d3eab079131ecea6e6da.jpg",
    "url": "https://www.google.com/maps/search/?api=1&query=National%20Tour%20%26%20Travels%20%3A%20GHAZIABAD%20CAB%20CAR%20RENTAL%2C%20OUTSTATION%20TAXI%20SERVICE%2C%20TAXI%20SERVICE%20IN%20GHAZIABAD%2C%20TAXI%20SERVICE%20NEAR%20ME&query_place_id=ChIJvcBVkSXvDDkRO3oMIn-c8hs"
  },
  {
    "title": "Olx Auto Ak auto Deals",
    "subTitle": "‡§ì‡§è‡§≤‡§è‡§ï‡•ç‡§∏ ‡§ë‡§ü‡•ã ‡§è‡§ï‡•á ‡§ë‡§ü‡•ã ‡§°‡•Ä‡§≤‡•ç‡§∏",
    "categoryName": "Car dealer",
    "address": "Jaipuria Mall, Sa-144&146 (UGF, Ahinsa Khand 1, Indirapuram, Ghaziabad, Uttar Pradesh 201014, India",
    "neighborhood": "Ahinsa Khand 1, Indirapuram",
    "street": "Jaipuria Mall, Sa-144&146 (UGF",
    "city": "Ghaziabad",
    "postalCode": "201014",
    "state": "Uttar Pradesh",
    "countryCode": "IN",
    "website": "https://www.akautodeals.in/",
    "phone": "+918062429522",
    "phoneUnformatted": "+918062429522",
    "location": {
      "lat": 28.6406299,
      "lng": 77.3783263
    },
    "totalScore": 5,
    "permanentlyClosed": false,
    "temporarilyClosed": false,
    "placeId": "ChIJnRScj2v7DDkRSGLQmTj5F0M",
    "categories": [
      "Car dealer",
      "Auto auction",
      "Auto broker",
      "Consignment shop",
      "Used auto parts store",
      "Used car dealer",
      "Used motorcycle dealer",
      "Used truck dealer"
    ],
    "reviewsCount": 144,
    "imagesCount": 239,
    "openingHours": [
      {
        "day": "Monday",
        "hours": "10:30‚ÄØAM to 8‚ÄØPM"
      },
      {
        "day": "Tuesday",
        "hours": "10:30‚ÄØAM to 8‚ÄØPM"
      },
      {
        "day": "Wednesday",
        "hours": "10:30‚ÄØAM to 8‚ÄØPM"
      },
      {
        "day": "Thursday",
        "hours": "10:30‚ÄØAM to 8‚ÄØPM"
      },
      {
        "day": "Friday",
        "hours": "10:30‚ÄØAM to 8‚ÄØPM"
      },
      {
        "day": "Saturday",
        "hours": "10:30‚ÄØAM to 8‚ÄØPM"
      },
      {
        "day": "Sunday",
        "hours": "10:30‚ÄØAM to 8‚ÄØPM"
      }
    ],
    "imageUrl": "https://media.indianluxurycars.com/google/328408c0cb666d30f728b5224a3adcdd54f804be8b4221cc72bed77e2c72c506.jpg",
    "url": "https://www.google.com/maps/search/?api=1&query=Olx%20Auto%20Ak%20auto%20Deals&query_place_id=ChIJnRScj2v7DDkRSGLQmTj5F0M"
  },
  {
    "title": "OTOKAR INDIA",
    "subTitle": "‡§ë‡§ü‡•ã‡§ï‡§∞ ‡§á‡§Ç‡§°‡§ø‡§Ø‡§æ",
    "categoryName": "Used car dealer",
    "address": "VAISHALI, 482/9, Sahibabad, Ghaziabad, Uttar Pradesh 201019, India",
    "neighborhood": "Vaishali Extension, Sector 9, Sahibabad",
    "street": "VAISHALI, 482/9",
    "city": "Ghaziabad",
    "postalCode": "201019",
    "state": "Uttar Pradesh",
    "countryCode": "IN",
    "website": "http://www.thecarshop.co.in/",
    "phone": "+918588815409",
    "phoneUnformatted": "+918588815409",
    "location": {
      "lat": 28.6544926,
      "lng": 77.3463371
    },
    "totalScore": 4.3,
    "permanentlyClosed": false,
    "temporarilyClosed": false,
    "placeId": "ChIJWTswNfPxDDkRPW86INr2Nq0",
    "categories": [
      "Used car dealer",
      "Auto broker",
      "Car dealer",
      "Motor vehicle dealer",
      "Vehicle inspection service"
    ],
    "reviewsCount": 115,
    "imagesCount": 87,
    "openingHours": [
      {
        "day": "Monday",
        "hours": "10‚ÄØAM to 7:30‚ÄØPM"
      },
      {
        "day": "Tuesday",
        "hours": "10‚ÄØAM to 7:30‚ÄØPM"
      },
      {
        "day": "Wednesday",
        "hours": "10‚ÄØAM to 7:30‚ÄØPM"
      },
      {
        "day": "Thursday",
        "hours": "10‚ÄØAM to 7:30‚ÄØPM"
      },
      {
        "day": "Friday",
        "hours": "10‚ÄØAM to 7:30‚ÄØPM"
      },
      {
        "day": "Saturday",
        "hours": "10‚ÄØAM to 7:30‚ÄØPM"
      },
      {
        "day": "Sunday",
        "hours": "10‚ÄØAM to 7:30‚ÄØPM"
      }
    ],
    "imageUrl": "https://media.indianluxurycars.com/google/c82627cee3483d2f9b316cb7c3896874d68fb4fa8bb75faa6e81f792c9cf7401.jpg",
    "url": "https://www.google.com/maps/search/?api=1&query=OTOKAR%20INDIA&query_place_id=ChIJWTswNfPxDDkRPW86INr2Nq0"
  },
  {
    "title": "Paramount Cars",
    "subTitle": "‡§™‡•à‡§∞‡§æ‡§Æ‡§æ‡§â‡§Ç‡§ü ‡§ï‡§æ‡§∞‡•ç‡§∏",
    "categoryName": "Used car dealer",
    "address": "Plot No. 99, Meerut Rd, New Arya Nagar, Patel Nagar 3, Patel Nagar, Ghaziabad, Uttar Pradesh 201001, India",
    "neighborhood": "New Arya Nagar, Patel Nagar 3, Patel Nagar",
    "street": "Plot No. 99, Meerut Rd",
    "city": "Ghaziabad",
    "postalCode": "201001",
    "state": "Uttar Pradesh",
    "countryCode": "IN",
    "location": {
      "lat": 28.6781268,
      "lng": 77.4252541
    },
    "totalScore": 4.6,
    "permanentlyClosed": false,
    "temporarilyClosed": false,
    "placeId": "ChIJG8JqX6HxDDkRNUAvYo9GQeI",
    "categories": [
      "Used car dealer"
    ],
    "reviewsCount": 14,
    "imagesCount": 15,
    "openingHours": [
      {
        "day": "Monday",
        "hours": "10‚ÄØAM to 8‚ÄØPM"
      },
      {
        "day": "Tuesday",
        "hours": "10‚ÄØAM to 8‚ÄØPM"
      },
      {
        "day": "Wednesday",
        "hours": "10‚ÄØAM to 8‚ÄØPM"
      },
      {
        "day": "Thursday",
        "hours": "10‚ÄØAM to 8‚ÄØPM"
      },
      {
        "day": "Friday",
        "hours": "10‚ÄØAM to 8‚ÄØPM"
      },
      {
        "day": "Saturday",
        "hours": "10‚ÄØAM to 8‚ÄØPM"
      },
      {
        "day": "Sunday",
        "hours": "10‚ÄØAM to 8‚ÄØPM"
      }
    ],
    "imageUrl": "https://media.indianluxurycars.com/google/76d4e7e34e32fe14f0917e10c4b1e70261b6a85a6af7bcb4a6cd3d55528c3896.jpg",
    "url": "https://www.google.com/maps/search/?api=1&query=Paramount%20Cars&query_place_id=ChIJG8JqX6HxDDkRNUAvYo9GQeI"
  },
  {
    "title": "Prime Rides self drive car rentals",
    "subTitle": "‡§™‡•ç‡§∞‡§æ‡§á‡§Æ ‡§∞‡§æ‡§á‡§°‡•ç‡§∏ ‡§∏‡•á‡§≤‡•ç‡§´ ‡§°‡•ç‡§∞‡§æ‡§á‡§µ ‡§ï‡§æ‡§∞ ‡§∞‡•á‡§Ç‡§ü‡§≤‡•ç‡§∏",
    "categoryName": "Car rental agency",
    "address": "S-17 IInd Floor, Aditya Mall, above Icici Bank, Aditya Mega City, Nyay Khand 2, Indirapuram, Ghaziabad, Uttar Pradesh 201014, India",
    "neighborhood": "Aditya Mega City, Nyay Khand 2, Indirapuram",
    "street": "S-17 IInd Floor, Aditya Mall, above Icici Bank",
    "city": "Ghaziabad",
    "postalCode": "201014",
    "state": "Uttar Pradesh",
    "countryCode": "IN",
    "website": "http://www.primerides.in/",
    "phone": "+918800003304",
    "phoneUnformatted": "+918800003304",
    "location": {
      "lat": 28.6386121,
      "lng": 77.3621061
    },
    "totalScore": 4.8,
    "permanentlyClosed": false,
    "temporarilyClosed": false,
    "placeId": "ChIJCRV92xz7DDkRGshs4O0N21w",
    "categories": [
      "Car rental agency"
    ],
    "reviewsCount": 520,
    "imagesCount": 45,
    "openingHours": [
      {
        "day": "Monday",
        "hours": "Open 24 hours"
      },
      {
        "day": "Tuesday",
        "hours": "Open 24 hours"
      },
      {
        "day": "Wednesday",
        "hours": "Open 24 hours"
      },
      {
        "day": "Thursday",
        "hours": "Open 24 hours"
      },
      {
        "day": "Friday",
        "hours": "Open 24 hours"
      },
      {
        "day": "Saturday",
        "hours": "Open 24 hours"
      },
      {
        "day": "Sunday",
        "hours": "Open 24 hours"
      }
    ],
    "imageUrl": "https://media.indianluxurycars.com/google/e8fd5dc5af02de0a01fe9e9883555aacccd5b31cf44f2adfdd217c4f593a63bb.jpg",
    "url": "https://www.google.com/maps/search/?api=1&query=Prime%20Rides%20self%20drive%20car%20rentals&query_place_id=ChIJCRV92xz7DDkRGshs4O0N21w"
  },
  {
    "title": "Quick Luxury Cars",
    "subTitle": "‡§ï‡•ç‡§µ‡§ø‡§ï ‡§≤‡§ï‡•ç‡§ú‡§∞‡•Ä ‡§ï‡§æ‡§∞‡•ç‡§∏",
    "categoryName": "Car rental agency",
    "address": "E1, Suraksha Apartment, Abhay Khand 3, Pocket 4, Abhay Khand, Indirapuram, Ghaziabad, Uttar Pradesh 201020, India",
    "neighborhood": "Abhay Khand 3, Pocket 4, Abhay Khand, Indirapuram",
    "street": "E1, Suraksha Apartment",
    "city": "Ghaziabad",
    "postalCode": "201020",
    "state": "Uttar Pradesh",
    "countryCode": "IN",
    "phone": "+919899946298",
    "phoneUnformatted": "+919899946298",
    "location": {
      "lat": 28.6384408,
      "lng": 77.3447178
    },
    "totalScore": 4.5,
    "permanentlyClosed": false,
    "temporarilyClosed": false,
    "placeId": "ChIJqfkPOW_7DDkRZGIrwaL2F4I",
    "categories": [
      "Car rental agency"
    ],
    "reviewsCount": 26,
    "imagesCount": 16,
    "openingHours": [
      {
        "day": "Monday",
        "hours": "Open 24 hours"
      },
      {
        "day": "Tuesday",
        "hours": "Open 24 hours"
      },
      {
        "day": "Wednesday",
        "hours": "Open 24 hours"
      },
      {
        "day": "Thursday",
        "hours": "Open 24 hours"
      },
      {
        "day": "Friday",
        "hours": "Open 24 hours"
      },
      {
        "day": "Saturday",
        "hours": "Open 24 hours"
      },
      {
        "day": "Sunday",
        "hours": "Open 24 hours"
      }
    ],
    "imageUrl": "https://media.indianluxurycars.com/google/5026d97566289a86ea87777e03bab29f7ab83ab1a21ea779dbfa51b1e115ff79.jpg",
    "url": "https://www.google.com/maps/search/?api=1&query=Quick%20Luxury%20Cars&query_place_id=ChIJqfkPOW_7DDkRZGIrwaL2F4I"
  },
  {
    "title": "R.K CAR RENTAL SERVICE",
    "subTitle": "‡§Ü‡§∞.‡§ï‡•á ‡§ï‡§æ‡§∞ ‡§∞‡•á‡§Ç‡§ü‡§≤ ‡§∏‡§∞‡•ç‡§µ‡§ø‡§∏",
    "categoryName": "Car rental agency",
    "address": "Sector 10, Brahmaputra Enclave, B-21/102, Siddharth Vihar, Indirapuram, Ghaziabad, Uttar Pradesh 201009, India",
    "neighborhood": "Siddharth Vihar, Indirapuram",
    "street": "Sector 10, Brahmaputra Enclave, B-21/102",
    "city": "Ghaziabad",
    "postalCode": "201009",
    "state": "Uttar Pradesh",
    "countryCode": "IN",
    "website": "https://rkcarrentalservice.com/",
    "phone": "+918851859459",
    "phoneUnformatted": "+918851859459",
    "location": {
      "lat": 28.6602224,
      "lng": 77.407719
    },
    "totalScore": 5,
    "permanentlyClosed": false,
    "temporarilyClosed": false,
    "placeId": "ChIJuTAzPgD7DDkRUOV1HgEVnyo",
    "categories": [
      "Car rental agency"
    ],
    "reviewsCount": 11,
    "imagesCount": 29,
    "openingHours": [
      {
        "day": "Monday",
        "hours": "9‚ÄØAM to 5‚ÄØPM"
      },
      {
        "day": "Tuesday",
        "hours": "9‚ÄØAM to 5‚ÄØPM"
      },
      {
        "day": "Wednesday",
        "hours": "9‚ÄØAM to 5‚ÄØPM"
      },
      {
        "day": "Thursday",
        "hours": "9‚ÄØAM to 5‚ÄØPM"
      },
      {
        "day": "Friday",
        "hours": "9‚ÄØAM to 5‚ÄØPM"
      },
      {
        "day": "Saturday",
        "hours": "9‚ÄØAM to 5‚ÄØPM"
      },
      {
        "day": "Sunday",
        "hours": "9‚ÄØAM to 5‚ÄØPM"
      }
    ],
    "imageUrl": "https://media.indianluxurycars.com/google/4686d7c731fe2bed71a6c56f585e312deef0429a70828691f4f646f93055ea3c.jpg",
    "url": "https://www.google.com/maps/search/?api=1&query=R.K%20CAR%20RENTAL%20SERVICE&query_place_id=ChIJuTAzPgD7DDkRUOV1HgEVnyo"
  },
  {
    "title": "RenTrip Bike & Car Rentals - Ghaziabad",
    "subTitle": "‡§∞‡•á‡§Ç‡§ü‡•ç‡§∞‡§ø‡§™ ‡§¨‡§æ‡§á‡§ï & ‡§ï‡§æ‡§∞ ‡§∞‡•á‡§Ç‡§ü‡§≤‡•ç‡§∏ - ‡§ó‡§æ‡§ú‡§ø‡§Ø‡§æ‡§¨‡§æ‡§¶",
    "categoryName": "Car rental agency",
    "address": "Metro Station Arthala, 204, T-1, Parsavnath Sterling, Arthala, Ghaziabad, Uttar Pradesh 201007, India",
    "neighborhood": "Loni Industrial Area, Mohan Nagar",
    "street": "Metro Station Arthala, 204, T-1, Parsavnath Sterling, Arthala",
    "city": "Ghaziabad",
    "postalCode": "201007",
    "state": "Uttar Pradesh",
    "countryCode": "IN",
    "website": "https://www.rentrip.in/rent-car/ghaziabad",
    "phone": "+918800779391",
    "phoneUnformatted": "+918800779391",
    "location": {
      "lat": 28.6768911,
      "lng": 77.3969977
    },
    "totalScore": 4.3,
    "permanentlyClosed": false,
    "temporarilyClosed": false,
    "placeId": "ChIJFVVVJTPlDDkRwE7tiZOnPhI",
    "categories": [
      "Car rental agency",
      "Bicycle rental service",
      "Motorcycle rental agency",
      "Scooter rental service",
      "Tour operator"
    ],
    "reviewsCount": 185,
    "imagesCount": 97,
    "openingHours": [
      {
        "day": "Monday",
        "hours": "Open 24 hours"
      },
      {
        "day": "Tuesday",
        "hours": "Open 24 hours"
      },
      {
        "day": "Wednesday",
        "hours": "Open 24 hours"
      },
      {
        "day": "Thursday",
        "hours": "Open 24 hours"
      },
      {
        "day": "Friday",
        "hours": "Open 24 hours"
      },
      {
        "day": "Saturday",
        "hours": "Open 24 hours"
      },
      {
        "day": "Sunday",
        "hours": "Open 24 hours"
      }
    ],
    "imageUrl": "https://media.indianluxurycars.com/google/c3c2398864c22fc29b74d81a7e29c91b1a62f21dc4763e16a29790d4f647db74.jpg",
    "url": "https://www.google.com/maps/search/?api=1&query=RenTrip%20Bike%20%26%20Car%20Rentals%20-%20Ghaziabad&query_place_id=ChIJFVVVJTPlDDkRwE7tiZOnPhI"
  },
  {
    "title": "Royal Luxury Car Rentals",
    "subTitle": "‡§∞‡•â‡§Ø‡§≤ ‡§≤‡§ï‡•ç‡§ú‡§∞‡•Ä ‡§ï‡§æ‡§∞ ‡§∞‡•á‡§Ç‡§ü‡§≤‡•ç‡§∏",
    "categoryName": "Car rental agency",
    "address": "300, Bhowapur Gaon, Bhuapur Village, Kaushambi, Ghaziabad, Uttar Pradesh 201010, India",
    "neighborhood": "Bhowapur Gaon, Bhuapur Village, Kaushambi",
    "street": "300",
    "city": "Ghaziabad",
    "postalCode": "201010",
    "state": "Uttar Pradesh",
    "countryCode": "IN",
    "website": "https://royalluxurycarrentals.in/",
    "phone": "+919818789375",
    "phoneUnformatted": "+919818789375",
    "location": {
      "lat": 28.6389703,
      "lng": 77.319445
    },
    "totalScore": 4.7,
    "permanentlyClosed": false,
    "temporarilyClosed": false,
    "placeId": "ChIJwYE6LcP7DDkRAMAPzmnq4EM",
    "categories": [
      "Car rental agency"
    ],
    "reviewsCount": 70,
    "imagesCount": 54,
    "openingHours": [
      {
        "day": "Monday",
        "hours": "Open 24 hours"
      },
      {
        "day": "Tuesday",
        "hours": "Open 24 hours"
      },
      {
        "day": "Wednesday",
        "hours": "Open 24 hours"
      },
      {
        "day": "Thursday",
        "hours": "Open 24 hours"
      },
      {
        "day": "Friday",
        "hours": "Open 24 hours"
      },
      {
        "day": "Saturday",
        "hours": "Open 24 hours"
      },
      {
        "day": "Sunday",
        "hours": "Open 24 hours"
      }
    ],
    "imageUrl": "https://media.indianluxurycars.com/google/921b7b4f38533bd3840ec54c98ede309da139591b7417fe310231209f7d33573.png",
    "url": "https://www.google.com/maps/search/?api=1&query=Royal%20Luxury%20Car%20Rentals&query_place_id=ChIJwYE6LcP7DDkRAMAPzmnq4EM"
  },
  {
    "title": "S l car house",
    "subTitle": "‡§è‡§∏‡•ç ‡§è‡§≤ ‡§ï‡§æ‡§∞ ‡§π‡§æ‡§â‡§∏",
    "categoryName": "Car dealer",
    "address": "7/19, Sector 2, Rajendra Nagar, Sahibabad, Ghaziabad, Uttar Pradesh 201005, India",
    "neighborhood": "Sector 2, Rajendra Nagar, Sahibabad",
    "street": "7/19",
    "city": "Ghaziabad",
    "postalCode": "201005",
    "state": "Uttar Pradesh",
    "countryCode": "IN",
    "phone": "+917982883848",
    "phoneUnformatted": "+917982883848",
    "location": {
      "lat": 28.6879036,
      "lng": 77.3579824
    },
    "totalScore": 5,
    "permanentlyClosed": false,
    "temporarilyClosed": false,
    "placeId": "ChIJqyFBv_P7DDkRfSwYeCnY76M",
    "categories": [
      "Car dealer"
    ],
    "reviewsCount": 4,
    "imagesCount": 20,
    "openingHours": [
      {
        "day": "Monday",
        "hours": "10‚ÄØAM to 8‚ÄØPM"
      },
      {
        "day": "Tuesday",
        "hours": "10‚ÄØAM to 8‚ÄØPM"
      },
      {
        "day": "Wednesday",
        "hours": "10‚ÄØAM to 8‚ÄØPM"
      },
      {
        "day": "Thursday",
        "hours": "10‚ÄØAM to 8‚ÄØPM"
      },
      {
        "day": "Friday",
        "hours": "10‚ÄØAM to 8‚ÄØPM"
      },
      {
        "day": "Saturday",
        "hours": "10‚ÄØAM to 8‚ÄØPM"
      },
      {
        "day": "Sunday",
        "hours": "10‚ÄØAM to 8‚ÄØPM"
      }
    ],
    "imageUrl": "https://media.indianluxurycars.com/google/7da9bcde42693db63214e9e65ff29b31fe49a2713a6b6c06cc65f50480b6eb0d.jpg",
    "url": "https://www.google.com/maps/search/?api=1&query=S%20l%20car%20house&query_place_id=ChIJqyFBv_P7DDkRfSwYeCnY76M"
  },
  {
    "title": "Safe Rent A Car",
    "subTitle": "‡§∏‡•á‡§´ ‡§∞‡•á‡§Ç‡§ü ‡§è ‡§ï‡§æ‡§∞",
    "categoryName": "Car rental agency",
    "address": "Jaipuria Mall, SC -185, near Jaipuria Mall, Ahinsa Khand 1, Indirapuram, Ghaziabad, Uttar Pradesh 201014, India",
    "neighborhood": "Ahinsa Khand 1, Indirapuram",
    "street": "Jaipuria Mall, SC -185, near Jaipuria Mall",
    "city": "Ghaziabad",
    "postalCode": "201014",
    "state": "Uttar Pradesh",
    "countryCode": "IN",
    "website": "https://www.saferentacar.in/location/ghaziabad",
    "location": {
      "lat": 28.6397507,
      "lng": 77.3773866
    },
    "permanentlyClosed": false,
    "temporarilyClosed": false,
    "placeId": "ChIJjcKdvqr6DDkRyPlrzlWmp6A",
    "categories": [
      "Car rental agency"
    ],
    "imagesCount": 3,
    "openingHours": [],
    "imageUrl": "https://media.indianluxurycars.com/google/0375b3cee42a5ea7d25ea128bc5bf5947d10b6b82ccfc884e829f9f9b1367402.jpg",
    "url": "https://www.google.com/maps/search/?api=1&query=Safe%20Rent%20A%20Car&query_place_id=ChIJjcKdvqr6DDkRyPlrzlWmp6A"
  },
  {
    "title": "SAKSHI TOUR & TRAVELS",
    "subTitle": "‡§∏‡§æ‡§ï‡•ç‡§∑‡•Ä ‡§ü‡•Ç‡§∞ & ‡§ü‡•ç‡§∞‡•à‡§µ‡§≤‡•ç‡§∏",
    "categoryName": "Car rental agency",
    "address": "House No. 456, Radha Colony, near Shiv Mandir, Sanjay Nagar, Lal Kuan, Ghaziabad, Uttar Pradesh 201002, India",
    "neighborhood": "Sanjay Nagar, Lal Kuan",
    "street": "House No. 456, Radha Colony, near Shiv Mandir",
    "city": "Ghaziabad",
    "postalCode": "201002",
    "state": "Uttar Pradesh",
    "countryCode": "IN",
    "website": "https://sakshitourtravels.live/",
    "phone": "+918700196739",
    "phoneUnformatted": "+918700196739",
    "location": {
      "lat": 28.6313561,
      "lng": 77.47305
    },
    "totalScore": 4.9,
    "permanentlyClosed": false,
    "temporarilyClosed": false,
    "placeId": "ChIJQ24iXuvtDDkR4DS1k117a4k",
    "categories": [
      "Car rental agency",
      "Car leasing service",
      "Taxi service",
      "Sightseeing tour agency",
      "Tour operator",
      "Travel agency"
    ],
    "reviewsCount": 106,
    "imagesCount": 158,
    "openingHours": [],
    "imageUrl": "https://media.indianluxurycars.com/google/5f210deb0b0d7d51b65eb0a8200f8664bbf0edb9e0197d2ad106e3fe0d60eff7.jpg",
    "url": "https://www.google.com/maps/search/?api=1&query=SAKSHI%20TOUR%20%26%20TRAVELS&query_place_id=ChIJQ24iXuvtDDkR4DS1k117a4k"
  },
  {
    "title": "SanviCabs - Book cab for Outstations and Airport at affordable rate",
    "subTitle": "‡§∏‡§Ç‡§µ‡§ø‡§ï‡•à‡§¨‡•ç‡§∏ - ‡§¨‡•Å‡§ï ‡§ï‡•à‡§¨ ‡§´‡•â‡§∞ ‡§Ü‡§â‡§ü‡§∏‡•ç‡§ü‡•á‡§∂‡§Ç‡§∏ ‡§è‡§Ç‡§° ‡§è‡§Ø‡§∞‡§™‡•ã‡§∞‡•ç‡§ü ‡§Ö‡§§ ‡§Ö‡§´‡•â‡§∞‡•ç‡§°‡•á‡§¨‡§≤ ‡§∞‡•á‡§ü",
    "categoryName": "Car leasing service",
    "address": "421, Ground floor, Sector 3, Vasundhara, Ghaziabad, Uttar Pradesh 201012, India",
    "neighborhood": "Sector 3, Vasundhara",
    "street": "421, Ground floor",
    "city": "Ghaziabad",
    "postalCode": "201012",
    "state": "Uttar Pradesh",
    "countryCode": "IN",
    "website": "http://sanvicabs.com/",
    "phone": "+919711224678",
    "phoneUnformatted": "+919711224678",
    "location": {
      "lat": 28.6611703,
      "lng": 77.3850353
    },
    "totalScore": 4.8,
    "permanentlyClosed": false,
    "temporarilyClosed": false,
    "placeId": "ChIJL_H1K83xDDkRAm9Y2-4bbsw",
    "categories": [
      "Car leasing service",
      "Taxi service",
      "Travel agency"
    ],
    "reviewsCount": 141,
    "imagesCount": 7,
    "openingHours": [],
    "imageUrl": "https://media.indianluxurycars.com/google/84c23673b73033d8b58d9d138569c325e2bb20377644961a2232b304199ac5c3.jpg",
    "url": "https://www.google.com/maps/search/?api=1&query=SanviCabs%20-%20Book%20cab%20for%20Outstations%20and%20Airport%20at%20affordable%20rate&query_place_id=ChIJL_H1K83xDDkRAm9Y2-4bbsw"
  },
  {
    "title": "Shiksha Tours and Travels pvt.Ltd",
    "subTitle": "‡§∂‡§ø‡§ï‡•ç‡§∑‡§æ ‡§ü‡•Ç‡§∞‡•ç‡§∏ ‡§è‡§Ç‡§° ‡§ü‡•ç‡§∞‡•à‡§µ‡§≤‡•ç‡§∏ ‡§™‡•Ä‡§µ‡•Ä‡§ü‡•Ä.‡§è‡§≤‡§ü‡•Ä‡§°‡•Ä",
    "categoryName": "Car rental agency",
    "address": "Bhati ram mandir, B - 169, Shalimar Garden Main Rd, Block B, Shalimar Garden, Sahibabad, Ghaziabad, Uttar Pradesh 201006, India",
    "neighborhood": "Block B, Shalimar Garden, Sahibabad",
    "street": "Bhati ram mandir, B - 169, Shalimar Garden Main Rd",
    "city": "Ghaziabad",
    "postalCode": "201006",
    "state": "Uttar Pradesh",
    "countryCode": "IN",
    "phone": "+919711223938",
    "phoneUnformatted": "+919711223938",
    "location": {
      "lat": 28.6871662,
      "lng": 77.3327328
    },
    "totalScore": 5,
    "permanentlyClosed": false,
    "temporarilyClosed": false,
    "placeId": "ChIJmVUNrDL7DDkRDuNsMx11HUk",
    "categories": [
      "Car rental agency",
      "Carpooling location",
      "Tour agency"
    ],
    "reviewsCount": 19,
    "imagesCount": 8,
    "openingHours": [
      {
        "day": "Monday",
        "hours": "10‚ÄØAM to 9‚ÄØPM"
      },
      {
        "day": "Tuesday",
        "hours": "10‚ÄØAM to 9‚ÄØPM"
      },
      {
        "day": "Wednesday",
        "hours": "10‚ÄØAM to 9‚ÄØPM"
      },
      {
        "day": "Thursday",
        "hours": "10‚ÄØAM to 9‚ÄØPM"
      },
      {
        "day": "Friday",
        "hours": "10‚ÄØAM to 9‚ÄØPM"
      },
      {
        "day": "Saturday",
        "hours": "10‚ÄØAM to 9‚ÄØPM"
      },
      {
        "day": "Sunday",
        "hours": "10‚ÄØAM to 9‚ÄØPM"
      }
    ],
    "imageUrl": "https://media.indianluxurycars.com/google/79aea9a1053517825082ae2ed2e5652eefcc56f81250b037d1246f20f325b9fe.jpg",
    "url": "https://www.google.com/maps/search/?api=1&query=Shiksha%20Tours%20and%20Travels%20pvt.Ltd&query_place_id=ChIJmVUNrDL7DDkRDuNsMx11HUk"
  },
  {
    "title": "Shri Kd Tour And Travels||Tempo Traveller booking || Cheapest Outstation Taxi Service",
    "subTitle": "‡§∂‡•ç‡§∞‡•Ä ‡§ï‡•á‡§°‡•Ä ‡§ü‡•Ç‡§∞ ‡§è‡§Ç‡§° ‡§ü‡•ç‡§∞‡•à‡§µ‡§≤‡•ç‡§∏||‡§ü‡•á‡§Ç‡§™‡•ã ‡§ü‡•ç‡§∞‡•à‡§µ‡§≤‡§∞ ‡§¨‡•Å‡§ï‡§ø‡§Ç‡§ó || ‡§ö‡§ø‡§™‡•á‡§∏‡§ü ‡§Ü‡§â‡§ü‡§∏‡•ç‡§ü‡•á‡§∂‡§® ‡§ü‡•à‡§ï‡•ç‡§∏‡•Ä ‡§∏‡§∞‡•ç‡§µ‡§ø‡§∏",
    "categoryName": "Car rental agency",
    "address": "Satyam Building, 106, RDC, Raj Nagar, Ghaziabad, Uttar Pradesh 201002, India",
    "neighborhood": "RDC, Block 1, RDC, Raj Nagar",
    "street": "Satyam Building, 106",
    "city": "Ghaziabad",
    "postalCode": "201002",
    "state": "Uttar Pradesh",
    "countryCode": "IN",
    "website": "https://shrikdtravels.com/",
    "phone": "+919990711442",
    "phoneUnformatted": "+919990711442",
    "location": {
      "lat": 28.6726532,
      "lng": 77.4419978
    },
    "totalScore": 4.9,
    "permanentlyClosed": false,
    "temporarilyClosed": false,
    "placeId": "ChIJP0-sfonxDDkRKE6J378URLU",
    "categories": [
      "Car rental agency",
      "Bus tour agency",
      "Car leasing service",
      "Minibus taxi service",
      "Taxi service"
    ],
    "reviewsCount": 1050,
    "imagesCount": 540,
    "openingHours": [
      {
        "day": "Monday",
        "hours": "Open 24 hours"
      },
      {
        "day": "Tuesday",
        "hours": "Open 24 hours"
      },
      {
        "day": "Wednesday",
        "hours": "Open 24 hours"
      },
      {
        "day": "Thursday",
        "hours": "Open 24 hours"
      },
      {
        "day": "Friday",
        "hours": "Open 24 hours"
      },
      {
        "day": "Saturday",
        "hours": "Open 24 hours"
      },
      {
        "day": "Sunday",
        "hours": "Open 24 hours"
      }
    ],
    "imageUrl": "https://media.indianluxurycars.com/google/826d82f5ee7c9eb9726b5963d05460aff07b85ac366798f5697ed454d00dc12a.jpg",
    "url": "https://www.google.com/maps/search/?api=1&query=Shri%20Kd%20Tour%20And%20Travels%7C%7CTempo%20Traveller%20booking%20%7C%7C%20Cheapest%20Outstation%20Taxi%20Service&query_place_id=ChIJP0-sfonxDDkRKE6J378URLU"
  },
  {
    "title": "Skyline , Self Drive Cars,Self Driven Cars Noida,Car Rental in Noida,Car without Driver In Noida, Monthly Car Rental Noida",
    "subTitle": "‡§∏‡•ç‡§ï‡§æ‡§á‡§≤‡§æ‡§á‡§® , ‡§∏‡•á‡§≤‡•ç‡§´ ‡§°‡•ç‡§∞‡§æ‡§á‡§µ ‡§ï‡§æ‡§∞‡•ç‡§∏,‡§∏‡•á‡§≤‡•ç‡§´ ‡§°‡•ç‡§∞‡§ø‡§µ‡§® ‡§ï‡§æ‡§∞‡•ç‡§∏ ‡§®‡•ã‡§è‡§°‡§æ,‡§ï‡§æ‡§∞ ‡§∞‡•á‡§Ç‡§ü‡§≤ ‡§á‡§® ‡§®‡•ã‡§è‡§°‡§æ,‡§ï‡§æ‡§∞ ‡§µ‡§ø‡§¶‡§æ‡§â‡§ü ‡§°‡•ç‡§∞‡§æ‡§á‡§µ‡§∞ ‡§á‡§® ‡§®‡•ã‡§è‡§°‡§æ, ‡§Æ‡§Ç‡§•‡§≤‡•Ä ‡§ï‡§æ‡§∞ ‡§∞‡•á‡§Ç‡§ü‡§≤ ‡§®‡•ã‡§è‡§°‡§æ",
    "categoryName": "Car rental agency",
    "address": "Pawar backup office, SHIPRA SUN CITY, jac road, Shiv Vihar, Shipra Suncity, Indirapuram, Ghaziabad, Uttar Pradesh 201014, India",
    "neighborhood": "Shiv Vihar, Shipra Suncity, Indirapuram",
    "street": "Pawar backup office, SHIPRA SUN CITY, jac road",
    "city": "Ghaziabad",
    "postalCode": "201014",
    "state": "Uttar Pradesh",
    "countryCode": "IN",
    "website": "http://www.skylineselfdrive.com/",
    "phone": "+918881000956",
    "phoneUnformatted": "+918881000956",
    "location": {
      "lat": 28.6367916,
      "lng": 77.3740312
    },
    "totalScore": 4.7,
    "permanentlyClosed": false,
    "temporarilyClosed": false,
    "placeId": "ChIJNUn6M3DlDDkRHOFdZRi5ybs",
    "categories": [
      "Car rental agency"
    ],
    "reviewsCount": 15,
    "imagesCount": 5,
    "openingHours": [
      {
        "day": "Monday",
        "hours": "Open 24 hours"
      },
      {
        "day": "Tuesday",
        "hours": "Open 24 hours"
      },
      {
        "day": "Wednesday",
        "hours": "Open 24 hours"
      },
      {
        "day": "Thursday",
        "hours": "Open 24 hours"
      },
      {
        "day": "Friday",
        "hours": "Open 24 hours"
      },
      {
        "day": "Saturday",
        "hours": "Open 24 hours"
      },
      {
        "day": "Sunday",
        "hours": "Open 24 hours"
      }
    ],
    "imageUrl": "https://media.indianluxurycars.com/google/954b02b044cc0794d8f3ed3c60c81ddad516b96061d6a258551f9af951509f2e.jpg",
    "url": "https://www.google.com/maps/search/?api=1&query=Skyline%20%2C%20Self%20Drive%20Cars%2CSelf%20Driven%20Cars%20Noida%2CCar%20Rental%20in%20Noida%2CCar%20without%20Driver%20In%20Noida%2C%20Monthly%20Car%20Rental%20Noida&query_place_id=ChIJNUn6M3DlDDkRHOFdZRi5ybs"
  },
  {
    "title": "Spinny Car Hub, Indirapuram Habitat Centre, Ghaziabad",
    "subTitle": "‡§∏‡•ç‡§™‡§ø‡§®‡•Ä",
    "categoryName": "Used car dealer",
    "address": "Shop no -282 Ground Floor, BLOCK-J, Indirapuram Habitat Centre, Dr Sushila Naiyar Marg, Ahinsa Khand 1, Indirapuram, Ghaziabad, Uttar Pradesh 201014, India",
    "neighborhood": "Ahinsa Khand 1, Indirapuram",
    "street": "Shop no -282 Ground Floor, BLOCK-J, Indirapuram Habitat Centre, Dr Sushila Naiyar Marg",
    "city": "Ghaziabad",
    "postalCode": "201014",
    "state": "Uttar Pradesh",
    "countryCode": "IN",
    "website": "http://www.spinny.com/",
    "phone": "+917277277275",
    "phoneUnformatted": "+917277277275",
    "location": {
      "lat": 28.6397883,
      "lng": 77.3688475
    },
    "totalScore": 4.8,
    "permanentlyClosed": false,
    "temporarilyClosed": false,
    "placeId": "ChIJy268HFf7DDkRBVOmIKkjlWM",
    "categories": [
      "Used car dealer"
    ],
    "reviewsCount": 1813,
    "imagesCount": 319,
    "openingHours": [
      {
        "day": "Monday",
        "hours": "10‚ÄØAM to 8‚ÄØPM"
      },
      {
        "day": "Tuesday",
        "hours": "10‚ÄØAM to 8‚ÄØPM"
      },
      {
        "day": "Wednesday",
        "hours": "10‚ÄØAM to 8‚ÄØPM"
      },
      {
        "day": "Thursday",
        "hours": "10‚ÄØAM to 8‚ÄØPM"
      },
      {
        "day": "Friday",
        "hours": "10‚ÄØAM to 8‚ÄØPM"
      },
      {
        "day": "Saturday",
        "hours": "10‚ÄØAM to 8‚ÄØPM"
      },
      {
        "day": "Sunday",
        "hours": "10‚ÄØAM to 8‚ÄØPM"
      }
    ],
    "imageUrl": "https://media.indianluxurycars.com/google/df8bb03ab83bd8188d845bcdb3b45395d5e589da78f16404a64cc9ee32ba174d.jpg",
    "url": "https://www.google.com/maps/search/?api=1&query=Spinny%20Car%20Hub%2C%20Indirapuram%20Habitat%20Centre%2C%20Ghaziabad&query_place_id=ChIJy268HFf7DDkRBVOmIKkjlWM"
  },
  {
    "title": "Star Tour & Travels",
    "subTitle": "‡§∏‡•ç‡§ü‡§æ‡§∞ ‡§ü‡•Ç‡§∞ ‡§è‡§Ç‡§° ‡§ü‡•ç‡§∞‡•à‡§µ‡§≤‡•ç‡§∏",
    "categoryName": "Car rental agency",
    "address": "3/1362, Sector 3, Vasundhara, Ghaziabad, Uttar Pradesh 201012, India",
    "neighborhood": "Sector 3, Vasundhara",
    "street": "3/1362",
    "city": "Ghaziabad",
    "postalCode": "201012",
    "state": "Uttar Pradesh",
    "countryCode": "IN",
    "website": "https://startourtravels.in/",
    "phone": "+919958799465",
    "phoneUnformatted": "+919958799465",
    "location": {
      "lat": 28.6668804,
      "lng": 77.3844045
    },
    "totalScore": 4.8,
    "permanentlyClosed": false,
    "temporarilyClosed": false,
    "placeId": "ChIJ73j8anTwDDkRGqgS8uQkPjI",
    "categories": [
      "Car rental agency",
      "Bus tour agency",
      "Car leasing service",
      "Minibus taxi service",
      "Taxi service",
      "Travel agency"
    ],
    "reviewsCount": 136,
    "imagesCount": 356,
    "openingHours": [
      {
        "day": "Monday",
        "hours": "Open 24 hours"
      },
      {
        "day": "Tuesday",
        "hours": "Open 24 hours"
      },
      {
        "day": "Wednesday",
        "hours": "Open 24 hours"
      },
      {
        "day": "Thursday",
        "hours": "Open 24 hours"
      },
      {
        "day": "Friday",
        "hours": "Open 24 hours"
      },
      {
        "day": "Saturday",
        "hours": "Open 24 hours"
      },
      {
        "day": "Sunday",
        "hours": "Open 24 hours"
      }
    ],
    "imageUrl": "https://media.indianluxurycars.com/google/a4324aeca50fa60f62662853fe232a414f0e33628048c1968146be321674495d.jpg",
    "url": "https://www.google.com/maps/search/?api=1&query=Star%20Tour%20%26%20Travels&query_place_id=ChIJ73j8anTwDDkRGqgS8uQkPjI"
  },
  {
    "title": "Star Travel India",
    "subTitle": "‡§∏‡•ç‡§ü‡§æ‡§∞ ‡§ü‡•ç‡§∞‡•à‡§µ‡§≤ ‡§á‡§Ç‡§°‡§ø‡§Ø‡§æ",
    "categoryName": "Car leasing service",
    "address": "gate no 2, 15/58, SF, Vasundhara, near S.G publice school, Sector 15, Vasundhara, Ghaziabad, Uttar Pradesh 201012, India",
    "neighborhood": "Sector 15, Vasundhara",
    "street": "gate no 2, 15/58, SF, Vasundhara, near S.G publice school",
    "city": "Ghaziabad",
    "postalCode": "201012",
    "state": "Uttar Pradesh",
    "countryCode": "IN",
    "website": "https://startravelindia.com/",
    "phone": "+919999660075",
    "phoneUnformatted": "+919999660075",
    "location": {
      "lat": 28.6535676,
      "lng": 77.3615529
    },
    "totalScore": 4.9,
    "permanentlyClosed": false,
    "temporarilyClosed": false,
    "placeId": "ChIJvVXZpp_7DDkRgDKrD8T1zCc",
    "categories": [
      "Car leasing service",
      "Minibus taxi service",
      "Taxi service",
      "Travel agency"
    ],
    "reviewsCount": 71,
    "imagesCount": 72,
    "openingHours": [
      {
        "day": "Monday",
        "hours": "Open 24 hours"
      },
      {
        "day": "Tuesday",
        "hours": "Open 24 hours"
      },
      {
        "day": "Wednesday",
        "hours": "Open 24 hours"
      },
      {
        "day": "Thursday",
        "hours": "Open 24 hours"
      },
      {
        "day": "Friday",
        "hours": "Open 24 hours"
      },
      {
        "day": "Saturday",
        "hours": "Open 24 hours"
      },
      {
        "day": "Sunday",
        "hours": "Open 24 hours"
      }
    ],
    "imageUrl": "https://media.indianluxurycars.com/google/60fd3fd310b2c400474f94359a11ac5bb0fea8506bafef1883a5d200bfb6fe83.jpg",
    "url": "https://www.google.com/maps/search/?api=1&query=Star%20Travel%20India&query_place_id=ChIJvVXZpp_7DDkRgDKrD8T1zCc"
  },
  {
    "title": "The car empire",
    "subTitle": "‡§¶ ‡§ï‡§æ‡§∞ ‡§è‡§Æ‡•ç‡§™‡§æ‡§Ø‡§∞",
    "categoryName": "Car dealer",
    "address": "Teela kothi, Ghaziabad, Uttar Pradesh 201102, India",
    "street": "Teela kothi",
    "city": "Ghaziabad",
    "postalCode": "201102",
    "state": "Uttar Pradesh",
    "countryCode": "IN",
    "location": {
      "lat": 28.7290804,
      "lng": 77.3300792
    },
    "totalScore": 5,
    "permanentlyClosed": false,
    "temporarilyClosed": false,
    "placeId": "ChIJY_7_N_r5DDkRJ8PjL_1y5m0",
    "categories": [
      "Car dealer"
    ],
    "reviewsCount": 2,
    "imagesCount": 15,
    "openingHours": [
      {
        "day": "Monday",
        "hours": "Closed"
      },
      {
        "day": "Tuesday",
        "hours": "10‚ÄØAM to 7‚ÄØPM"
      },
      {
        "day": "Wednesday",
        "hours": "10‚ÄØAM to 7‚ÄØPM"
      },
      {
        "day": "Thursday",
        "hours": "10‚ÄØAM to 7‚ÄØPM"
      },
      {
        "day": "Friday",
        "hours": "10‚ÄØAM to 7‚ÄØPM"
      },
      {
        "day": "Saturday",
        "hours": "10‚ÄØAM to 7‚ÄØPM"
      },
      {
        "day": "Sunday",
        "hours": "10‚ÄØAM to 7‚ÄØPM"
      }
    ],
    "imageUrl": "https://media.indianluxurycars.com/google/b29c24e0b97188dbd2a8aebff6a11e3bf44ca8ad19aa3354bf4ecb0ed05ab6e5.jpg",
    "url": "https://www.google.com/maps/search/?api=1&query=The%20car%20empire&query_place_id=ChIJY_7_N_r5DDkRJ8PjL_1y5m0"
  },
  {
    "title": "Tripiez Travels",
    "subTitle": "‡§§‡•ç‡§∞‡§ø‡§™‡§ø‡§è‡§ú‡§º ‡§ü‡•ç‡§∞‡•à‡§µ‡§≤‡•ç‡§∏",
    "categoryName": "Car rental agency",
    "address": "4/144, Sector 4, Vaishali, Ghaziabad, Uttar Pradesh 201019, India",
    "neighborhood": "Sector 4, Vaishali",
    "street": "4/144",
    "city": "Ghaziabad",
    "postalCode": "201019",
    "state": "Uttar Pradesh",
    "countryCode": "IN",
    "location": {
      "lat": 28.643362,
      "lng": 77.340079
    },
    "totalScore": 5,
    "permanentlyClosed": false,
    "temporarilyClosed": false,
    "placeId": "ChIJF0KYndL7DDkRB6j98sF3MmE",
    "categories": [
      "Car rental agency",
      "Car leasing service",
      "Taxi service",
      "Travel agency"
    ],
    "reviewsCount": 6,
    "imagesCount": 46,
    "openingHours": [
      {
        "day": "Monday",
        "hours": "Open 24 hours"
      },
      {
        "day": "Tuesday",
        "hours": "Open 24 hours"
      },
      {
        "day": "Wednesday",
        "hours": "Open 24 hours"
      },
      {
        "day": "Thursday",
        "hours": "Open 24 hours"
      },
      {
        "day": "Friday",
        "hours": "Open 24 hours"
      },
      {
        "day": "Saturday",
        "hours": "Open 24 hours"
      },
      {
        "day": "Sunday",
        "hours": "Open 24 hours"
      }
    ],
    "imageUrl": "https://media.indianluxurycars.com/google/5a2c478007b75bbf3c4299da4c2978f753c23fd8b86cb1b08f185ad6a42e56bd.jpg",
    "url": "https://www.google.com/maps/search/?api=1&query=Tripiez%20Travels&query_place_id=ChIJF0KYndL7DDkRB6j98sF3MmE"
  },
  {
    "title": "Triveni Cabs - Outstation Cabs | One Way Cabs And Tempo Traveler Provider",
    "subTitle": "‡§§‡•ç‡§∞‡§ø‡§µ‡•á‡§£‡•Ä ‡§ï‡•à‡§¨‡•ç‡§∏ - ‡§Ü‡§â‡§ü‡§∏‡•ç‡§ü‡•á‡§∂‡§® ‡§ï‡•à‡§¨‡•ç‡§∏ | ‡§µ‡§® ‡§µ‡•á ‡§ï‡•à‡§¨‡•ç‡§∏ ‡§è‡§Ç‡§° ‡§ü‡•á‡§Æ‡•ç‡§™‡•ã ‡§ü‡•ç‡§∞‡•à‡§µ‡§≤‡§∞ ‡§™‡•ç‡§∞‡•ã‡§µ‡§æ‡§á‡§°‡§∞",
    "categoryName": "Car leasing service",
    "address": "Site 2, Industrial, S-65, Loni Rd, Block 9, Mohan Nagar, Sahibabad, Ghaziabad, Uttar Pradesh 201007, India",
    "neighborhood": "Block 9, Mohan Nagar, Sahibabad",
    "street": "Site 2, Industrial, S-65, Loni Rd",
    "city": "Ghaziabad",
    "postalCode": "201007",
    "state": "Uttar Pradesh",
    "countryCode": "IN",
    "website": "https://www.trivenicabs.in/",
    "phone": "+917668570551",
    "phoneUnformatted": "+917668570551",
    "location": {
      "lat": 28.6862783,
      "lng": 77.3640022
    },
    "totalScore": 5,
    "permanentlyClosed": false,
    "temporarilyClosed": false,
    "placeId": "ChIJo1zUT01DNCgR-vJYtMMKb6k",
    "categories": [
      "Car leasing service",
      "Taxi service"
    ],
    "reviewsCount": 228,
    "imagesCount": 113,
    "openingHours": [],
    "imageUrl": "https://media.indianluxurycars.com/google/144b5667eb3de66cbdd7d0861352b8ffe7711cfe9e0e33efc919473114719542.jpg",
    "url": "https://www.google.com/maps/search/?api=1&query=Triveni%20Cabs%20-%20Outstation%20Cabs%20%7C%20One%20Way%20Cabs%20And%20Tempo%20Traveler%20Provider&query_place_id=ChIJo1zUT01DNCgR-vJYtMMKb6k"
  },
  {
    "title": "Upadhyaya Tour And Travels | Tempo Traveller on Rent | Tempo Traveller Hire in Ghaziabad| Bus hire in Ghaziabad",
    "subTitle": "‡§â‡§™‡§æ‡§ß‡•ç‡§Ø‡§æ‡§Ø ‡§ü‡•Ç‡§∞ ‡§è‡§Ç‡§° ‡§ü‡•ç‡§∞‡•à‡§µ‡§≤‡•ç‡§∏ | ‡§ü‡•á‡§Æ‡•ç‡§™‡•ã ‡§ü‡•ç‡§∞‡•à‡§µ‡§≤‡§∞ ‡§ë‡§® ‡§∞‡•á‡§Ç‡§ü | ‡§ü‡•á‡§Æ‡•ç‡§™‡•ã ‡§ü‡•ç‡§∞‡•à‡§µ‡§≤‡§∞ ‡§π‡•Ä‡§∞‡•á ‡§á‡§® ‡§ó‡§æ‡§ú‡§ø‡§Ø‡§æ‡§¨‡§æ‡§¶| ‡§¨‡§∏ ‡§π‡•Ä‡§∞‡•á ‡§á‡§® ‡§ó‡§æ‡§ú‡§ø‡§Ø‡§æ‡§¨‡§æ‡§¶",
    "categoryName": "Car rental agency",
    "address": "D 588, Block I, D-Block, Govindpuram, Ghaziabad, Uttar Pradesh 201013, India",
    "neighborhood": "Block I, D-Block, Govindpuram",
    "street": "D 588",
    "city": "Ghaziabad",
    "postalCode": "201013",
    "state": "Uttar Pradesh",
    "countryCode": "IN",
    "website": "http://www.upadhyayatravels.in/",
    "phone": "+918006080021",
    "phoneUnformatted": "+918006080021",
    "location": {
      "lat": 28.6861061,
      "lng": 77.4894107
    },
    "totalScore": 4.9,
    "permanentlyClosed": false,
    "temporarilyClosed": false,
    "placeId": "ChIJuUmIRQPzDDkRyOwQsEsul2Q",
    "categories": [
      "Car rental agency",
      "Bus tour agency",
      "Car leasing service",
      "Travel agency",
      "Minibus taxi service",
      "Sightseeing tour agency",
      "Taxi service",
      "Tour agency",
      "Tour operator",
      "Van rental agency"
    ],
    "reviewsCount": 70,
    "imagesCount": 245,
    "openingHours": [
      {
        "day": "Monday",
        "hours": "Open 24 hours"
      },
      {
        "day": "Tuesday",
        "hours": "Open 24 hours"
      },
      {
        "day": "Wednesday",
        "hours": "Open 24 hours"
      },
      {
        "day": "Thursday",
        "hours": "Open 24 hours"
      },
      {
        "day": "Friday",
        "hours": "Open 24 hours"
      },
      {
        "day": "Saturday",
        "hours": "Open 24 hours"
      },
      {
        "day": "Sunday",
        "hours": "Open 24 hours"
      }
    ],
    "imageUrl": "https://media.indianluxurycars.com/google/cf231da0d8cb0ec578636d815bc2499c1d2227638cd50fce3477f9a608cbbb93.jpg",
    "url": "https://www.google.com/maps/search/?api=1&query=Upadhyaya%20Tour%20And%20Travels%20%7C%20Tempo%20Traveller%20on%20Rent%20%7C%20Tempo%20Traveller%20Hire%20in%20Ghaziabad%7C%20Bus%20hire%20in%20Ghaziabad&query_place_id=ChIJuUmIRQPzDDkRyOwQsEsul2Q"
  },
  {
    "title": "Urus Motors",
    "subTitle": "‡§â‡§∞‡§∏ ‡§Æ‡•ã‡§ü‡§∞‡•ç‡§∏",
    "categoryName": "Used car dealer",
    "address": "64/6-1, Sahibabad Industrial Area Site 4, Sahibabad, Ghaziabad, Uttar Pradesh 201019, India",
    "neighborhood": "Sahibabad Industrial Area Site 4, Sahibabad",
    "street": "64/6-1",
    "city": "Ghaziabad",
    "postalCode": "201019",
    "state": "Uttar Pradesh",
    "countryCode": "IN",
    "location": {
      "lat": 28.6540444,
      "lng": 77.3447802
    },
    "totalScore": 4,
    "permanentlyClosed": false,
    "temporarilyClosed": false,
    "placeId": "ChIJ86ehUuX7DDkR5nfsve0fB-c",
    "categories": [
      "Used car dealer"
    ],
    "reviewsCount": 3,
    "imagesCount": 5,
    "openingHours": [
      {
        "day": "Monday",
        "hours": "10‚ÄØAM to 8‚ÄØPM"
      },
      {
        "day": "Tuesday",
        "hours": "10‚ÄØAM to 8‚ÄØPM"
      },
      {
        "day": "Wednesday",
        "hours": "10‚ÄØAM to 8‚ÄØPM"
      },
      {
        "day": "Thursday",
        "hours": "10‚ÄØAM to 8‚ÄØPM"
      },
      {
        "day": "Friday",
        "hours": "10‚ÄØAM to 8‚ÄØPM"
      },
      {
        "day": "Saturday",
        "hours": "10‚ÄØAM to 8‚ÄØPM"
      },
      {
        "day": "Sunday",
        "hours": "10‚ÄØAM to 8‚ÄØPM"
      }
    ],
    "imageUrl": "https://media.indianluxurycars.com/google/30ded858403970d4de260a03ec53c8bbdb89857393f803b802e0d39b784bdc28.jpg",
    "url": "https://www.google.com/maps/search/?api=1&query=Urus%20Motors&query_place_id=ChIJ86ehUuX7DDkR5nfsve0fB-c"
  },
  {
    "title": "Utsav Taxi Service",
    "subTitle": "‡§â‡§§‡•ç‡§∏‡§µ ‡§ü‡•à‡§ï‡•ç‡§∏‡•Ä ‡§∏‡§∞‡•ç‡§µ‡§ø‡§∏",
    "categoryName": "Car leasing service",
    "address": "Shop No. 34, First floor, Galleria Market, Crossings Republik, Ghaziabad, Uttar Pradesh 201016, India",
    "neighborhood": "Crossings Republik",
    "street": "Shop No. 34, First floor, Galleria Market",
    "city": "Ghaziabad",
    "postalCode": "201016",
    "state": "Uttar Pradesh",
    "countryCode": "IN",
    "website": "https://utsavtaxiservice.in/",
    "phone": "+917291826427",
    "phoneUnformatted": "+917291826427",
    "location": {
      "lat": 28.6260549,
      "lng": 77.4350917
    },
    "totalScore": 4.8,
    "permanentlyClosed": false,
    "temporarilyClosed": false,
    "placeId": "ChIJg9l8jfbvDDkRO6N8-_1Xp08",
    "categories": [
      "Car leasing service",
      "Airport shuttle service",
      "Taxi service",
      "Tour operator",
      "Travel agency"
    ],
    "reviewsCount": 137,
    "imagesCount": 9,
    "openingHours": [],
    "imageUrl": "https://media.indianluxurycars.com/google/7f0a6ec7598fe701774518373dd8aea2ac4986790803620c34b82ac064886d01.jpg",
    "url": "https://www.google.com/maps/search/?api=1&query=Utsav%20Taxi%20Service&query_place_id=ChIJg9l8jfbvDDkRO6N8-_1Xp08"
  },
  {
    "title": "Vanshika Tour & Travels",
    "subTitle": "‡§µ‡§Ç‡§∂‡§ø‡§ï‡§æ ‡§ü‡•Ç‡§∞ & ‡§ü‡•ç‡§∞‡•à‡§µ‡§≤‡•ç‡§∏",
    "categoryName": "Car rental agency",
    "address": "House no-298, near sant tresha school, Sarvodaya Nagar, Pratap Vihar, Ghaziabad, Uttar Pradesh 201009, India",
    "neighborhood": "Sarvodaya Nagar, Pratap Vihar",
    "street": "House no-298, near sant tresha school",
    "city": "Ghaziabad",
    "postalCode": "201009",
    "state": "Uttar Pradesh",
    "countryCode": "IN",
    "website": "https://sites.google.com/view/vanshikatourandtravel/",
    "phone": "+919990457816",
    "phoneUnformatted": "+919990457816",
    "location": {
      "lat": 28.6429215,
      "lng": 77.4164063
    },
    "totalScore": 5,
    "permanentlyClosed": false,
    "temporarilyClosed": true,
    "placeId": "ChIJg-qOAobxDDkR7uPg758j3yM",
    "categories": [
      "Car rental agency",
      "Car leasing service",
      "Taxi service",
      "Tour operator",
      "Transportation service",
      "Travel agency"
    ],
    "reviewsCount": 3,
    "imagesCount": 2,
    "openingHours": [],
    "imageUrl": "https://media.indianluxurycars.com/google/4905a4e3d39111b22cedb05ccf1086f1ae57e2fecd358ab24ef5dcb22f83fd22.jpg",
    "url": "https://www.google.com/maps/search/?api=1&query=Vanshika%20Tour%20%26%20Travels&query_place_id=ChIJg-qOAobxDDkR7uPg758j3yM"
  },
  {
    "title": "VK Self Drive Car Rental | Self Drive Car Rental Agency |",
    "subTitle": "‡§µ‡•Ä‡§ï‡•á ‡§∏‡•á‡§≤‡•ç‡§´ ‡§°‡•ç‡§∞‡§æ‡§á‡§µ ‡§ï‡§æ‡§∞ ‡§∞‡•á‡§Ç‡§ü‡§≤ | ‡§∏‡•á‡§≤‡•ç‡§´ ‡§°‡•ç‡§∞‡§æ‡§á‡§µ ‡§ï‡§æ‡§∞ ‡§∞‡•á‡§Ç‡§ü‡§≤ ‡§è‡§ú‡•á‡§Ç‡§∏‡•Ä |",
    "categoryName": "Car leasing service",
    "address": "Police Station, Shop No-10 3rd Floor, Commercial Complex, Wave Galleria, Near, Wave City Marg, Ghaziabad, Uttar Pradesh 201015, India",
    "street": "Police Station, Shop No-10 3rd Floor, Commercial Complex, Wave Galleria, Near, Wave City Marg",
    "city": "Ghaziabad",
    "postalCode": "201015",
    "state": "Uttar Pradesh",
    "countryCode": "IN",
    "website": "https://www.vkselfdrive.com/",
    "phone": "+919667327787",
    "phoneUnformatted": "+919667327787",
    "location": {
      "lat": 28.6629359,
      "lng": 77.4917577
    },
    "totalScore": 5,
    "permanentlyClosed": false,
    "temporarilyClosed": false,
    "placeId": "ChIJhfE2lwnzDDkR8aJQ3gkZ7AY",
    "categories": [
      "Car leasing service"
    ],
    "reviewsCount": 15,
    "imagesCount": 3,
    "openingHours": [
      {
        "day": "Monday",
        "hours": "Open 24 hours"
      },
      {
        "day": "Tuesday",
        "hours": "Open 24 hours"
      },
      {
        "day": "Wednesday",
        "hours": "Open 24 hours"
      },
      {
        "day": "Thursday",
        "hours": "Open 24 hours"
      },
      {
        "day": "Friday",
        "hours": "Open 24 hours"
      },
      {
        "day": "Saturday",
        "hours": "Open 24 hours"
      },
      {
        "day": "Sunday",
        "hours": "Open 24 hours"
      }
    ],
    "imageUrl": "https://media.indianluxurycars.com/google/b62397c60d9132900d28bd173c30faf4877522338724370712fb20fe1a14249a.jpg",
    "url": "https://www.google.com/maps/search/?api=1&query=VK%20Self%20Drive%20Car%20Rental%20%7C%20Self%20Drive%20Car%20Rental%20Agency%20%7C&query_place_id=ChIJhfE2lwnzDDkR8aJQ3gkZ7AY"
  },
  {
    "title": "WOW CAR X CHANGE",
    "subTitle": "‡§µ‡§æ‡§ì ‡§ï‡§æ‡§∞ ‡§ç‡§ï‡•ç‡§∏ ‡§ö‡•á‡§Ç‡§ú",
    "categoryName": "Used car dealer",
    "address": "3RD- C, 73 A, Moti Lal Nehru Marg, Ashok Nagar, Nehru Nagar III, Nehru Nagar, Ghaziabad, Uttar Pradesh 201001, India",
    "neighborhood": "Ashok Nagar, Nehru Nagar III, Nehru Nagar",
    "street": "3RD- C, 73 A, Moti Lal Nehru Marg",
    "city": "Ghaziabad",
    "postalCode": "201001",
    "state": "Uttar Pradesh",
    "countryCode": "IN",
    "phone": "+919999960443",
    "phoneUnformatted": "+919999960443",
    "location": {
      "lat": 28.6606248,
      "lng": 77.4416605
    },
    "totalScore": 4.6,
    "permanentlyClosed": false,
    "temporarilyClosed": false,
    "placeId": "ChIJ05I88szxDDkR6upz1KaUhsc",
    "categories": [
      "Used car dealer"
    ],
    "reviewsCount": 151,
    "imagesCount": 187,
    "openingHours": [
      {
        "day": "Monday",
        "hours": "9:30‚ÄØAM to 7‚ÄØPM"
      },
      {
        "day": "Tuesday",
        "hours": "9:30‚ÄØAM to 7‚ÄØPM"
      },
      {
        "day": "Wednesday",
        "hours": "9:30‚ÄØAM to 7‚ÄØPM"
      },
      {
        "day": "Thursday",
        "hours": "9:30‚ÄØAM to 7‚ÄØPM"
      },
      {
        "day": "Friday",
        "hours": "9:30‚ÄØAM to 7‚ÄØPM"
      },
      {
        "day": "Saturday",
        "hours": "9:30‚ÄØAM to 7‚ÄØPM"
      },
      {
        "day": "Sunday",
        "hours": "9:30‚ÄØAM to 7‚ÄØPM"
      }
    ],
    "imageUrl": "https://media.indianluxurycars.com/google/f4e67adc57ec15c3a46443cdde1fc06db2697ec719039db97287a76836c87529.png",
    "url": "https://www.google.com/maps/search/?api=1&query=WOW%20CAR%20X%20CHANGE&query_place_id=ChIJ05I88szxDDkR6upz1KaUhsc"
  },
  {
    "title": "Xdrives.in",
    "subTitle": "‡§è‡§ï‡•ç‡§∏‡§°‡•ç‡§∞‡§æ‡§á‡§µ‡•ç‡§∏.‡§á‡§®",
    "categoryName": "Car rental agency",
    "address": "2nd floor, Aditya Mall, S10, mall, above ICICI Bank, Aditya Mega City, Nyay Khand 2, Indirapuram, Ghaziabad, Uttar Pradesh 201014, India",
    "neighborhood": "Aditya Mega City, Nyay Khand 2, Indirapuram",
    "street": "2nd floor, Aditya Mall, S10, mall, above ICICI Bank",
    "city": "Ghaziabad",
    "postalCode": "201014",
    "state": "Uttar Pradesh",
    "countryCode": "IN",
    "phone": "+918800011701",
    "phoneUnformatted": "+918800011701",
    "location": {
      "lat": 28.6387016,
      "lng": 77.3620682
    },
    "totalScore": 4.9,
    "permanentlyClosed": false,
    "temporarilyClosed": false,
    "placeId": "ChIJLRrSo2b13igRGBI9LyrS1f8",
    "categories": [
      "Car rental agency"
    ],
    "reviewsCount": 285,
    "imagesCount": 26,
    "openingHours": [
      {
        "day": "Monday",
        "hours": "Open 24 hours"
      },
      {
        "day": "Tuesday",
        "hours": "Open 24 hours"
      },
      {
        "day": "Wednesday",
        "hours": "Open 24 hours"
      },
      {
        "day": "Thursday",
        "hours": "Open 24 hours"
      },
      {
        "day": "Friday",
        "hours": "Open 24 hours"
      },
      {
        "day": "Saturday",
        "hours": "Open 24 hours"
      },
      {
        "day": "Sunday",
        "hours": "Open 24 hours"
      }
    ],
    "imageUrl": "https://media.indianluxurycars.com/google/d227521096ef66dbad379a4bb7f6eb9b0401814a0bc6121b7d582320f4c6046e.jpg",
    "url": "https://www.google.com/maps/search/?api=1&query=Xdrives.in&query_place_id=ChIJLRrSo2b13igRGBI9LyrS1f8"
  },
  {
    "title": "‡§Ü‡§Ø‡§∂‡§æ ‡§Æ‡•ã‡§ü‡§∞‡•ç‡§∏",
    "categoryName": "Car dealer",
    "address": "Sector 10, Shakti Khand I, Indirapuram, Ghaziabad, Uttar Pradesh 201014, India",
    "neighborhood": "Sector 10, Shakti Khand I, Indirapuram",
    "city": "Ghaziabad",
    "state": "Uttar Pradesh",
    "countryCode": "IN",
    "phone": "+919873717871",
    "phoneUnformatted": "+919873717871",
    "location": {
      "lat": 28.6489396,
      "lng": 77.3613973
    },
    "totalScore": 5,
    "permanentlyClosed": false,
    "temporarilyClosed": false,
    "placeId": "ChIJgXBfArr6DDkRH3erfK2JOg4",
    "categories": [
      "Car dealer"
    ],
    "reviewsCount": 1,
    "imagesCount": 1,
    "openingHours": [],
    "imageUrl": "https://media.indianluxurycars.com/google/0ff3a85f55abb55a030916332fa1d9ed067732c6ff487cbb6e107eba0b7f6908.jpg",
    "url": "https://www.google.com/maps/search/?api=1&query=%E0%A4%86%E0%A4%AF%E0%A4%B6%E0%A4%BE%20%E0%A4%AE%E0%A5%8B%E0%A4%9F%E0%A4%B0%E0%A5%8D%E0%A4%B8&query_place_id=ChIJgXBfArr6DDkRH3erfK2JOg4"
  }
]
