[
  {
    "title": "4 wheeler Alam car bazar Pvt ltd",
    "subTitle": "आलम कार बाजार",
    "categoryName": "Used car dealer",
    "address": "Main Road, Daudpur, near Beeaar Hyundai, Uttar Pradesh 273001, India",
    "neighborhood": "Bansgaon Colony, Kalepur",
    "street": "Main Road, Daudpur, near Beeaar Hyundai",
    "city": "Gorakhpur",
    "postalCode": "273001",
    "state": "Uttar Pradesh",
    "countryCode": "IN",
    "phone": "+919918476777",
    "phoneUnformatted": "+919918476777",
    "location": {
      "lat": 26.7415842,
      "lng": 83.3815611
    },
    "totalScore": 3.7,
    "permanentlyClosed": false,
    "temporarilyClosed": false,
    "placeId": "ChIJF79F34BEkTkRjBn2AvXHl6A",
    "categories": [
      "Used car dealer",
      "Car repair and maintenance service"
    ],
    "reviewsCount": 246,
    "imagesCount": 78,
    "openingHours": [
      {
        "day": "Monday",
        "hours": "10 AM to 8 PM"
      },
      {
        "day": "Tuesday",
        "hours": "10 AM to 8 PM"
      },
      {
        "day": "Wednesday",
        "hours": "10 AM to 8 PM"
      },
      {
        "day": "Thursday",
        "hours": "10 AM to 8 PM"
      },
      {
        "day": "Friday",
        "hours": "10 AM to 8 PM"
      },
      {
        "day": "Saturday",
        "hours": "10 AM to 8 PM"
      },
      {
        "day": "Sunday",
        "hours": "10 AM to 8 PM"
      }
    ],
    "imageUrl": "https://media.indianluxurycars.com/google/93880c05c236febc729d246ead1957b88e4186fe3585fb1cc0331fc48484ba56.jpg",
    "url": "https://www.google.com/maps/search/?api=1&query=4%20wheeler%20Alam%20car%20bazar%20Pvt%20ltd&query_place_id=ChIJF79F34BEkTkRjBn2AvXHl6A"
  },
  {
    "title": "AMG LUXURY WHEELS (Car & Bikes)",
    "subTitle": "एएमजी लक्जरी व्हील्स (कार & बाइक्स)",
    "categoryName": "Car rental agency",
    "address": "Royal Luxury Cars, Betiahata Rd, beside Curve Dental Clinic, Betiahata, Gorakhpur, Uttar Pradesh 273001, India",
    "neighborhood": "Betiahata",
    "street": "Royal Luxury Cars, Betiahata Rd, beside Curve Dental Clinic",
    "city": "Gorakhpur",
    "postalCode": "273001",
    "state": "Uttar Pradesh",
    "countryCode": "IN",
    "location": {
      "lat": 26.7376568,
      "lng": 83.3618178
    },
    "permanentlyClosed": false,
    "temporarilyClosed": false,
    "placeId": "ChIJazg4wXVEkTkRQywm7kzhCbc",
    "categories": [
      "Car rental agency"
    ],
    "imagesCount": 1,
    "openingHours": [],
    "imageUrl": "https://media.indianluxurycars.com/google/7255880c06e11d9bee357376e0af75e7440f7d4c5b6539d0774becf514682aa3.jpg",
    "url": "https://www.google.com/maps/search/?api=1&query=AMG%20LUXURY%20WHEELS%20(Car%20%26%20Bikes)&query_place_id=ChIJazg4wXVEkTkRQywm7kzhCbc"
  },
  {
    "title": "Classic A To Z Tour And Travels",
    "subTitle": "क्लासिक ए तो ज़ी टूर एंड ट्रैवल्स",
    "categoryName": "Car leasing service",
    "address": "Suraj kund, Madarsa Rd, Gorakhnath, Gorakhpur, Uttar Pradesh 273015, India",
    "neighborhood": "Netaji Subas Chandra Bos Nagar Colony, Gorakhnath",
    "street": "Suraj kund, Madarsa Rd",
    "city": "Gorakhpur",
    "postalCode": "273015",
    "state": "Uttar Pradesh",
    "countryCode": "IN",
    "phone": "+919919991817",
    "phoneUnformatted": "+919919991817",
    "location": {
      "lat": 26.770388,
      "lng": 83.3470365
    },
    "totalScore": 5,
    "permanentlyClosed": false,
    "temporarilyClosed": false,
    "placeId": "ChIJMzC3NNRFkTkR7Asrp7DQn_Y",
    "categories": [
      "Car leasing service",
      "Taxi service"
    ],
    "reviewsCount": 229,
    "imagesCount": 44,
    "openingHours": [],
    "imageUrl": "https://media.indianluxurycars.com/google/e0a872f18ffb29e2bf1d6263838f0bf3958290f3be3e0d35f65b89adccf3d78c.jpg",
    "url": "https://www.google.com/maps/search/?api=1&query=Classic%20A%20To%20Z%20Tour%20And%20Travels&query_place_id=ChIJMzC3NNRFkTkR7Asrp7DQn_Y"
  },
  {
    "title": "Gorakhpur cab taxi and travels",
    "subTitle": "गोरखपुर कैब टैक्सी एंड ट्रैवल्स",
    "categoryName": "Car rental agency",
    "address": "844B, Ashok Nagar, in front of Sanskriti Public School, Ranidiha, Khorabar, Gorakhpur, Uttar Pradesh 273010, India",
    "neighborhood": "Divya Nagar, Ranidiha, Khorabar",
    "street": "844B, Ashok Nagar, in front of Sanskriti Public School",
    "city": "Gorakhpur",
    "postalCode": "273010",
    "state": "Uttar Pradesh",
    "countryCode": "IN",
    "phone": "+917525984787",
    "phoneUnformatted": "+917525984787",
    "location": {
      "lat": 26.7182208,
      "lng": 83.4278639
    },
    "totalScore": 5,
    "permanentlyClosed": false,
    "temporarilyClosed": false,
    "placeId": "ChIJVRwoasBdkTkRFa6LI89CdgY",
    "categories": [
      "Car rental agency",
      "Car leasing service",
      "Taxi service",
      "Tour operator",
      "Travel agency"
    ],
    "reviewsCount": 9,
    "imagesCount": 9,
    "openingHours": [],
    "imageUrl": "https://media.indianluxurycars.com/google/1f2f1d1d5e778726871300bfc2d888e14e9eb8a2bc9164199364a84df9bdfdd8.jpg",
    "url": "https://www.google.com/maps/search/?api=1&query=Gorakhpur%20cab%20taxi%20and%20travels&query_place_id=ChIJVRwoasBdkTkRFa6LI89CdgY"
  },
  {
    "title": "Gorakhpur car booking",
    "subTitle": "गोरखपुर कार बुकिंग",
    "categoryName": "Car rental agency",
    "address": "Medical College Road, Khajanchi Chauraha, RailVihar Ph-2 Colony, Chargawa,, Gorakhpur, Uttar Pradesh 273013, India",
    "neighborhood": "Khajanchi Chauraha, RailVihar Ph-2 Colony, Chargawa,",
    "street": "Medical College Road",
    "city": "Gorakhpur",
    "postalCode": "273013",
    "state": "Uttar Pradesh",
    "countryCode": "IN",
    "location": {
      "lat": 26.7975102,
      "lng": 83.395069
    },
    "totalScore": 5,
    "permanentlyClosed": false,
    "temporarilyClosed": false,
    "placeId": "ChIJ4cAANIlFkTkRBkCDdNtALK4",
    "categories": [
      "Car rental agency",
      "Tour agency"
    ],
    "reviewsCount": 52,
    "imagesCount": 131,
    "openingHours": [
      {
        "day": "Monday",
        "hours": "7 AM to 8 PM"
      },
      {
        "day": "Tuesday",
        "hours": "7 AM to 8 PM"
      },
      {
        "day": "Wednesday",
        "hours": "7 AM to 8 PM"
      },
      {
        "day": "Thursday",
        "hours": "7 AM to 8 PM"
      },
      {
        "day": "Friday",
        "hours": "7 AM to 8 PM"
      },
      {
        "day": "Saturday",
        "hours": "7 AM to 8 PM"
      },
      {
        "day": "Sunday",
        "hours": "7 AM to 8 PM"
      }
    ],
    "imageUrl": "https://media.indianluxurycars.com/google/256b90b529731606a1f4cb2e674eeef23887c9a41281e460795b129513082d9e.jpg",
    "url": "https://www.google.com/maps/search/?api=1&query=Gorakhpur%20car%20booking&query_place_id=ChIJ4cAANIlFkTkRBkCDdNtALK4"
  },
  {
    "title": "Gorakhpur Tour & Nepal Travels",
    "subTitle": "गोरखपुर टूर & नेपाल ट्रैवल्स",
    "categoryName": "Car rental agency",
    "address": "Padri Bazar, Vishwakarmapuram, Gorakhpur, Uttar Pradesh 273014, India",
    "neighborhood": "Padri Bazar, Vishwakarmapuram",
    "city": "Gorakhpur",
    "postalCode": "273014",
    "state": "Uttar Pradesh",
    "countryCode": "IN",
    "phone": "+919452779584",
    "phoneUnformatted": "+919452779584",
    "location": {
      "lat": 26.7791927,
      "lng": 83.4051966
    },
    "totalScore": 5,
    "permanentlyClosed": false,
    "temporarilyClosed": false,
    "placeId": "ChIJQZOY09FFkTkRFodP-Jg4yoE",
    "categories": [
      "Car rental agency"
    ],
    "reviewsCount": 32,
    "imagesCount": 92,
    "openingHours": [
      {
        "day": "Monday",
        "hours": "Open 24 hours"
      },
      {
        "day": "Tuesday",
        "hours": "Open 24 hours"
      },
      {
        "day": "Wednesday",
        "hours": "Open 24 hours"
      },
      {
        "day": "Thursday",
        "hours": "Open 24 hours"
      },
      {
        "day": "Friday",
        "hours": "Open 24 hours"
      },
      {
        "day": "Saturday",
        "hours": "Open 24 hours"
      },
      {
        "day": "Sunday",
        "hours": "Open 24 hours"
      }
    ],
    "imageUrl": "https://media.indianluxurycars.com/google/5765ec7896b1c2b409676dc73560bde035da079ee2b0a8acea2825c46da24109.jpg",
    "url": "https://www.google.com/maps/search/?api=1&query=Gorakhpur%20Tour%20%26%20Nepal%20Travels&query_place_id=ChIJQZOY09FFkTkRFodP-Jg4yoE"
  },
  {
    "title": "He Maa Travels",
    "subTitle": "हे माँ ट्रैवल्स",
    "categoryName": "Car rental agency",
    "address": "near Thana Kotwali, Miyan Baza, Gorakhpur, Uttar Pradesh 273001, India",
    "neighborhood": "Miyan Baza",
    "street": "near Thana Kotwali",
    "city": "Gorakhpur",
    "postalCode": "273001",
    "state": "Uttar Pradesh",
    "countryCode": "IN",
    "phone": "+917905374974",
    "phoneUnformatted": "+917905374974",
    "location": {
      "lat": 26.7493172,
      "lng": 83.3598486
    },
    "totalScore": 4.9,
    "permanentlyClosed": false,
    "temporarilyClosed": false,
    "placeId": "ChIJ-6AzKNpFkTkRjV9Yk7T6xt8",
    "categories": [
      "Car rental agency",
      "Ambulance service",
      "Bus company",
      "Bus tour agency",
      "Taxi service",
      "Tour agency",
      "Travel agency",
      "Wedding service"
    ],
    "reviewsCount": 211,
    "imagesCount": 508,
    "openingHours": [
      {
        "day": "Monday",
        "hours": "Open 24 hours"
      },
      {
        "day": "Tuesday",
        "hours": "Open 24 hours"
      },
      {
        "day": "Wednesday",
        "hours": "Open 24 hours"
      },
      {
        "day": "Thursday",
        "hours": "Open 24 hours"
      },
      {
        "day": "Friday",
        "hours": "Open 24 hours"
      },
      {
        "day": "Saturday",
        "hours": "Open 24 hours"
      },
      {
        "day": "Sunday",
        "hours": "Open 24 hours"
      }
    ],
    "imageUrl": "https://media.indianluxurycars.com/google/629e1fedc77bdf31ce2b983b381210e77f1537e37d9d25f6e95d73b9c6677e16.jpg",
    "url": "https://www.google.com/maps/search/?api=1&query=He%20Maa%20Travels&query_place_id=ChIJ-6AzKNpFkTkRjV9Yk7T6xt8"
  },
  {
    "title": "Ishan Tour And Travel's",
    "subTitle": "इशान टूर एंड ट्रैवल'स",
    "categoryName": "Car rental agency",
    "address": "near Navjeevan School, Gulahariya, Gorakhpur, Uttar Pradesh 273013, India",
    "neighborhood": "Gulahariya",
    "street": "near Navjeevan School",
    "city": "Gorakhpur",
    "postalCode": "273013",
    "state": "Uttar Pradesh",
    "countryCode": "IN",
    "website": "https://www.ishantravel.in/",
    "location": {
      "lat": 26.8221792,
      "lng": 83.4115854
    },
    "totalScore": 4.7,
    "permanentlyClosed": false,
    "temporarilyClosed": false,
    "placeId": "ChIJYedLEMhFkTkRkSbG67iaIGA",
    "categories": [
      "Car rental agency",
      "Bus tour agency",
      "Travel agency",
      "Car wash",
      "Taxi service",
      "Tour operator"
    ],
    "reviewsCount": 55,
    "imagesCount": 95,
    "openingHours": [
      {
        "day": "Monday",
        "hours": "9 AM to 5 PM"
      },
      {
        "day": "Tuesday",
        "hours": "9 AM to 5 PM"
      },
      {
        "day": "Wednesday",
        "hours": "9 AM to 5 PM"
      },
      {
        "day": "Thursday",
        "hours": "9 AM to 5 PM"
      },
      {
        "day": "Friday",
        "hours": "9 AM to 5 PM"
      },
      {
        "day": "Saturday",
        "hours": "9 AM to 5 PM"
      },
      {
        "day": "Sunday",
        "hours": "9 AM to 5 PM"
      }
    ],
    "imageUrl": "https://media.indianluxurycars.com/google/076e707d05a72eaac77b2d8505e979e3097eeca9a644fd3bd0d2ec5f35844a51.jpg",
    "url": "https://www.google.com/maps/search/?api=1&query=Ishan%20Tour%20And%20Travel's&query_place_id=ChIJYedLEMhFkTkRkSbG67iaIGA"
  },
  {
    "title": "Luxury wedding cars",
    "subTitle": "लक्जरी वेडिंग कार्स",
    "categoryName": "Car leasing service",
    "address": "Railway station, Gate No 1, Railway Station Rd, near OLA office, Gorakhpur, Uttar Pradesh 273001, India",
    "neighborhood": "Irrigation Colony, Kawwa Bagh Colony",
    "street": "Railway station, Gate No 1, Railway Station Rd, near OLA office",
    "city": "Gorakhpur",
    "postalCode": "273001",
    "state": "Uttar Pradesh",
    "countryCode": "IN",
    "website": "https://taxiverz.com/",
    "phone": "+917617028000",
    "phoneUnformatted": "+917617028000",
    "location": {
      "lat": 26.7577347,
      "lng": 83.3846435
    },
    "totalScore": 4.8,
    "permanentlyClosed": false,
    "temporarilyClosed": false,
    "placeId": "ChIJYW7LdoNFkTkRZYhXa2Lz1Rg",
    "categories": [
      "Car leasing service",
      "Air taxi",
      "BMW dealer",
      "Mercedes-Benz dealer",
      "Rental car return location",
      "Taxi service",
      "Travel clinic",
      "Truck stop",
      "Wedding service"
    ],
    "reviewsCount": 181,
    "imagesCount": 51,
    "openingHours": [
      {
        "day": "Monday",
        "hours": "Open 24 hours"
      },
      {
        "day": "Tuesday",
        "hours": "Open 24 hours"
      },
      {
        "day": "Wednesday",
        "hours": "Open 24 hours"
      },
      {
        "day": "Thursday",
        "hours": "Open 24 hours"
      },
      {
        "day": "Friday",
        "hours": "Open 24 hours"
      },
      {
        "day": "Saturday",
        "hours": "Open 24 hours"
      },
      {
        "day": "Sunday",
        "hours": "Open 24 hours"
      }
    ],
    "imageUrl": "https://media.indianluxurycars.com/google/a17cb820632965e4f0b3b0126cd17825395072f8710d6a04147c4053935813cb.jpg",
    "url": "https://www.google.com/maps/search/?api=1&query=Luxury%20wedding%20cars&query_place_id=ChIJYW7LdoNFkTkRZYhXa2Lz1Rg"
  },
  {
    "title": "Mahindra M.S. Automobile Private Ltd (DP AUTO)",
    "subTitle": "महिंद्रा म.स. ऑटोमोबाइल प्राइवेट एलटीडी (डीपी ऑटो)",
    "categoryName": "Car dealer",
    "address": "Plot No.101 & 103, Medical College Road, opposite City Hospital MughalPur, Chargawa,, Gorakhpur, Uttar Pradesh 273013, India",
    "neighborhood": "Chargawa,",
    "street": "Plot No.101 & 103, Medical College Road, opposite City Hospital MughalPur",
    "city": "Gorakhpur",
    "postalCode": "273013",
    "state": "Uttar Pradesh",
    "countryCode": "IN",
    "website": "https://dealers-auto.mahindra.com/mahindra-m-s-automobile-suv-and-commercial-vehicle-showroom-msa01sm011811-md-medical-college-road",
    "phone": "+919289117290",
    "phoneUnformatted": "+919289117290",
    "location": {
      "lat": 26.8070812,
      "lng": 83.3940978
    },
    "totalScore": 4.6,
    "permanentlyClosed": false,
    "temporarilyClosed": false,
    "placeId": "ChIJdZYrdP5FkTkRsLKBsXxRb-o",
    "categories": [
      "Car dealer",
      "Auto machine shop",
      "Car repair and maintenance service"
    ],
    "reviewsCount": 875,
    "imagesCount": 757,
    "openingHours": [
      {
        "day": "Monday",
        "hours": "9:30 AM to 8:30 PM"
      },
      {
        "day": "Tuesday",
        "hours": "9:30 AM to 8:30 PM"
      },
      {
        "day": "Wednesday",
        "hours": "9:30 AM to 8:30 PM"
      },
      {
        "day": "Thursday",
        "hours": "9:30 AM to 8:30 PM"
      },
      {
        "day": "Friday",
        "hours": "9:30 AM to 8:30 PM"
      },
      {
        "day": "Saturday",
        "hours": "9:30 AM to 8:30 PM"
      },
      {
        "day": "Sunday",
        "hours": "9:30 AM to 8:30 PM"
      }
    ],
    "imageUrl": "https://media.indianluxurycars.com/google/7a7deb460efeac66755f36db79ff452106a2b65fbb851f28533f3bf77b3e7bdd.jpg",
    "url": "https://www.google.com/maps/search/?api=1&query=Mahindra%20M.S.%20Automobile%20Private%20Ltd%20(DP%20AUTO)&query_place_id=ChIJdZYrdP5FkTkRsLKBsXxRb-o"
  },
  {
    "title": "Meethi Cabs",
    "subTitle": "मीठी कैब्स",
    "categoryName": "Car rental agency",
    "address": "Office No 211, Station Rd, Kawwa Bagh Colony, Gorakhpur, Uttar Pradesh 273012, India",
    "neighborhood": "Kawwa Bagh Colony",
    "street": "Office No 211, Station Rd",
    "city": "Gorakhpur",
    "postalCode": "273012",
    "state": "Uttar Pradesh",
    "countryCode": "IN",
    "website": "https://www.meethicabs.in/",
    "phone": "+917652024584",
    "phoneUnformatted": "+917652024584",
    "location": {
      "lat": 26.7607474,
      "lng": 83.3818921
    },
    "totalScore": 5,
    "permanentlyClosed": false,
    "temporarilyClosed": false,
    "placeId": "ChIJsw1tdbFFkTkRDdWd3KvOnMw",
    "categories": [
      "Car rental agency",
      "Car leasing service",
      "Taxi service",
      "Sightseeing tour agency",
      "Tour agency",
      "Travel agency"
    ],
    "reviewsCount": 136,
    "imagesCount": 65,
    "openingHours": [],
    "imageUrl": "https://media.indianluxurycars.com/google/5ca8b96217f3fdac91618e5c30865770de4ebd325e4290a28c55e58d53f9c4ed.jpg",
    "url": "https://www.google.com/maps/search/?api=1&query=Meethi%20Cabs&query_place_id=ChIJsw1tdbFFkTkRDdWd3KvOnMw"
  },
  {
    "title": "MG Motor Beeaar Auto Showroom",
    "subTitle": "यम जी मोटर्स इंडिया",
    "categoryName": "MG dealer",
    "address": "HN Singh chauraha, 240-D, Medical College Road, Basharatpur, Gorakhpur, Uttar Pradesh 273003, India",
    "neighborhood": "Basharatpur",
    "street": "HN Singh chauraha, 240-D, Medical College Road",
    "city": "Gorakhpur",
    "postalCode": "273003",
    "state": "Uttar Pradesh",
    "countryCode": "IN",
    "website": "https://www.mglucknow.co.in/",
    "phone": "+917600058655",
    "phoneUnformatted": "+917600058655",
    "location": {
      "lat": 26.7865229,
      "lng": 83.3858975
    },
    "totalScore": 4.8,
    "permanentlyClosed": false,
    "temporarilyClosed": false,
    "placeId": "ChIJufBSToBFkTkR9RQmSBbBNPw",
    "categories": [
      "MG dealer",
      "Car dealer",
      "Motor vehicle dealer"
    ],
    "reviewsCount": 790,
    "imagesCount": 209,
    "openingHours": [
      {
        "day": "Monday",
        "hours": "10 AM to 7 PM"
      },
      {
        "day": "Tuesday",
        "hours": "10 AM to 7 PM"
      },
      {
        "day": "Wednesday",
        "hours": "10 AM to 7 PM"
      },
      {
        "day": "Thursday",
        "hours": "10 AM to 7 PM"
      },
      {
        "day": "Friday",
        "hours": "10 AM to 7 PM"
      },
      {
        "day": "Saturday",
        "hours": "10 AM to 7 PM"
      },
      {
        "day": "Sunday",
        "hours": "10 AM to 12 AM"
      }
    ],
    "imageUrl": "https://media.indianluxurycars.com/google/707ef3f90d0f448acb41d4c6101b6f636ad07d2d3d1d440d69e6861ad6fd7665.jpg",
    "url": "https://www.google.com/maps/search/?api=1&query=MG%20Motor%20Beeaar%20Auto%20Showroom&query_place_id=ChIJufBSToBFkTkR9RQmSBbBNPw"
  },
  {
    "title": "Motors 24",
    "subTitle": "मोटर्स 24",
    "categoryName": "Car dealer",
    "address": "Infront of HP Petrol Pump, Ranidiha, Deoria Rd, Rapti Nagar Phase-4, Gorakhpur, Uttar Pradesh 273010, India",
    "neighborhood": "Rapti Nagar Phase-4",
    "street": "Infront of HP Petrol Pump, Ranidiha, Deoria Rd",
    "city": "Gorakhpur",
    "postalCode": "273010",
    "state": "Uttar Pradesh",
    "countryCode": "IN",
    "phone": "+917080243637",
    "phoneUnformatted": "+917080243637",
    "location": {
      "lat": 26.7225163,
      "lng": 83.4365244
    },
    "totalScore": 4.8,
    "permanentlyClosed": false,
    "temporarilyClosed": false,
    "placeId": "ChIJ5eVTjnldkTkRafwoW2xu5AQ",
    "categories": [
      "Car dealer",
      "Auto auction"
    ],
    "reviewsCount": 90,
    "imagesCount": 98,
    "openingHours": [
      {
        "day": "Monday",
        "hours": "9 AM to 7 PM"
      },
      {
        "day": "Tuesday",
        "hours": "9 AM to 7 PM"
      },
      {
        "day": "Wednesday",
        "hours": "9 AM to 7 PM"
      },
      {
        "day": "Thursday",
        "hours": "9 AM to 7 PM"
      },
      {
        "day": "Friday",
        "hours": "9 AM to 7 PM"
      },
      {
        "day": "Saturday",
        "hours": "Closed"
      },
      {
        "day": "Sunday",
        "hours": "9 AM to 7 PM"
      }
    ],
    "imageUrl": "https://media.indianluxurycars.com/google/3bddf782ba2579757b67ab736c898ee125904c1ccf5fdbd3dce448dad21c0d96.jpg",
    "url": "https://www.google.com/maps/search/?api=1&query=Motors%2024&query_place_id=ChIJ5eVTjnldkTkRafwoW2xu5AQ"
  },
  {
    "title": "MTC India Mobility",
    "subTitle": "एमटीसी इंडिया मोबिलिटी",
    "categoryName": "Car rental agency",
    "address": "House no 47, Jhungiya Market, Medical College Road, near Himalaya Ply, Jhungiya, Gorakhpur, Uttar Pradesh 273013, India",
    "neighborhood": "Jhungiya",
    "street": "House no 47, Jhungiya Market, Medical College Road, near Himalaya Ply",
    "city": "Gorakhpur",
    "postalCode": "273013",
    "state": "Uttar Pradesh",
    "countryCode": "IN",
    "website": "https://www.mtccarhire.com/car-hire-gorakhpur",
    "phone": "+917081609090",
    "phoneUnformatted": "+917081609090",
    "location": {
      "lat": 26.8178278,
      "lng": 83.4010824
    },
    "totalScore": 5,
    "permanentlyClosed": false,
    "temporarilyClosed": false,
    "placeId": "ChIJQ2umBvVFkTkRlGzO-cdQj50",
    "categories": [
      "Car rental agency",
      "Taxi service"
    ],
    "reviewsCount": 41,
    "imagesCount": 11,
    "openingHours": [
      {
        "day": "Monday",
        "hours": "Open 24 hours"
      },
      {
        "day": "Tuesday",
        "hours": "Open 24 hours"
      },
      {
        "day": "Wednesday",
        "hours": "Open 24 hours"
      },
      {
        "day": "Thursday",
        "hours": "Open 24 hours"
      },
      {
        "day": "Friday",
        "hours": "Open 24 hours"
      },
      {
        "day": "Saturday",
        "hours": "Open 24 hours"
      },
      {
        "day": "Sunday",
        "hours": "Open 24 hours"
      }
    ],
    "imageUrl": "https://media.indianluxurycars.com/google/59cc124e18e5504d44429a5cacefea8226b66b29f8e7848b3de53aee937644b5.jpg",
    "url": "https://www.google.com/maps/search/?api=1&query=MTC%20India%20Mobility&query_place_id=ChIJQ2umBvVFkTkRlGzO-cdQj50"
  },
  {
    "title": "Nepal Tours and Travels",
    "subTitle": "नेपाल टूर्स एण्ड ट्रैवेल्स",
    "categoryName": "Car rental agency",
    "address": "1 Opposite Platform, Railway Station Rd, Bilandpur, Gorakhpur, Uttar Pradesh 273012, India",
    "neighborhood": "Bilandpur",
    "street": "1 Opposite Platform, Railway Station Rd",
    "city": "Gorakhpur",
    "postalCode": "273012",
    "state": "Uttar Pradesh",
    "countryCode": "IN",
    "website": "https://nepaltoursandtravels.com/",
    "location": {
      "lat": 26.7596357,
      "lng": 83.3817355
    },
    "totalScore": 4.6,
    "permanentlyClosed": false,
    "temporarilyClosed": false,
    "placeId": "ChIJzwtE24pEkTkRHyhpTS3_KDc",
    "categories": [
      "Car rental agency",
      "Car leasing service",
      "Travel agency",
      "Taxi service",
      "Tour operator"
    ],
    "reviewsCount": 295,
    "imagesCount": 184,
    "openingHours": [
      {
        "day": "Monday",
        "hours": "Open 24 hours"
      },
      {
        "day": "Tuesday",
        "hours": "Open 24 hours"
      },
      {
        "day": "Wednesday",
        "hours": "Open 24 hours"
      },
      {
        "day": "Thursday",
        "hours": "Open 24 hours"
      },
      {
        "day": "Friday",
        "hours": "Open 24 hours"
      },
      {
        "day": "Saturday",
        "hours": "Open 24 hours"
      },
      {
        "day": "Sunday",
        "hours": "Open 24 hours"
      }
    ],
    "imageUrl": "https://media.indianluxurycars.com/google/534397b536fa073fa8fe9158e8d947a68f42cf1285f205cf6968bbdd0c9e13b0.jpg",
    "url": "https://www.google.com/maps/search/?api=1&query=Nepal%20Tours%20and%20Travels&query_place_id=ChIJzwtE24pEkTkRHyhpTS3_KDc"
  },
  {
    "title": "Nisha rental car services",
    "subTitle": "निशा रेंटल कार सर्विसेस",
    "categoryName": "Car rental agency",
    "address": "Medical College Road, Jhungiya, Gorakhpur, Uttar Pradesh 273013, India",
    "neighborhood": "Jhungiya",
    "street": "Medical College Road",
    "city": "Gorakhpur",
    "postalCode": "273013",
    "state": "Uttar Pradesh",
    "countryCode": "IN",
    "phone": "+918182854516",
    "phoneUnformatted": "+918182854516",
    "location": {
      "lat": 26.8178103,
      "lng": 83.4007587
    },
    "totalScore": 5,
    "permanentlyClosed": false,
    "temporarilyClosed": true,
    "placeId": "ChIJY90jQoVFkTkRlIRAyyYVTZY",
    "categories": [
      "Car rental agency"
    ],
    "reviewsCount": 3,
    "imagesCount": 29,
    "openingHours": [],
    "imageUrl": "https://media.indianluxurycars.com/google/e180485a1d5dd9bee185a266931f2f07e48108f8c5d344adf05a4ad86432a645.jpg",
    "url": "https://www.google.com/maps/search/?api=1&query=Nisha%20rental%20car%20services&query_place_id=ChIJY90jQoVFkTkRlIRAyyYVTZY"
  },
  {
    "title": "NITYA’s Tours and Cabs",
    "subTitle": "नित्य'स टूर्स एंड कैब्स",
    "categoryName": "Car rental agency",
    "address": "730 c, Luchhipur, Dayanand Nagar, Gorakhpur, Uttar Pradesh 273015, India",
    "neighborhood": "Luchhipur, Dayanand Nagar",
    "street": "730 c",
    "city": "Gorakhpur",
    "postalCode": "273015",
    "state": "Uttar Pradesh",
    "countryCode": "IN",
    "website": "https://nityastoursandcabs.com/",
    "phone": "+918400209988",
    "phoneUnformatted": "+918400209988",
    "location": {
      "lat": 26.785218,
      "lng": 83.3603307
    },
    "totalScore": 5,
    "permanentlyClosed": false,
    "temporarilyClosed": false,
    "placeId": "ChIJCVrYFwBFkTkRmzGPs8OdK2A",
    "categories": [
      "Car rental agency",
      "Bus tour agency",
      "Chauffeur service",
      "Minibus taxi service",
      "Sightseeing tour agency",
      "Taxi service",
      "Tour agency",
      "Tour operator",
      "Tourist attraction",
      "Travel agency"
    ],
    "reviewsCount": 263,
    "imagesCount": 558,
    "openingHours": [
      {
        "day": "Monday",
        "hours": "Open 24 hours"
      },
      {
        "day": "Tuesday",
        "hours": "Open 24 hours"
      },
      {
        "day": "Wednesday",
        "hours": "Open 24 hours"
      },
      {
        "day": "Thursday",
        "hours": "Open 24 hours"
      },
      {
        "day": "Friday",
        "hours": "Open 24 hours"
      },
      {
        "day": "Saturday",
        "hours": "Open 24 hours"
      },
      {
        "day": "Sunday",
        "hours": "Open 24 hours"
      }
    ],
    "imageUrl": "https://media.indianluxurycars.com/google/63394853517a924a14f2117fb6ba164d550cd5904e4d84e2b04452c79f06c246.png",
    "url": "https://www.google.com/maps/search/?api=1&query=NITYA%E2%80%99s%20Tours%20and%20Cabs&query_place_id=ChIJCVrYFwBFkTkRmzGPs8OdK2A"
  },
  {
    "title": "Pegasus Nissan",
    "categoryName": "Nissan dealer",
    "address": "Ground Floor NH 28, Nausarh, opposite BPCL Petrol Pump, Gorakhpur, Uttar Pradesh 273016, India",
    "street": "Ground Floor NH 28, Nausarh, opposite BPCL Petrol Pump",
    "city": "Gorakhpur",
    "postalCode": "273016",
    "state": "Uttar Pradesh",
    "countryCode": "IN",
    "website": "https://dealers.nissan.in/pegasus-nissan-pegasus-nissan-gorakhpur-nissan-dealer-nausarh-gorakhpur-76503/Home?utm_source=locator&utm_medium=googleplaces",
    "phone": "+918874701000",
    "phoneUnformatted": "+918874701000",
    "location": {
      "lat": 26.7321165,
      "lng": 83.3420829
    },
    "totalScore": 3.7,
    "permanentlyClosed": false,
    "temporarilyClosed": false,
    "placeId": "ChIJx_R72PhDkTkRZTQiXMwwaC4",
    "categories": [
      "Nissan dealer",
      "Auto parts store",
      "Auto repair shop",
      "Car accessories store",
      "Car dealer"
    ],
    "reviewsCount": 296,
    "imagesCount": 27,
    "openingHours": [
      {
        "day": "Monday",
        "hours": "9:30 AM to 6:30 PM"
      },
      {
        "day": "Tuesday",
        "hours": "9:30 AM to 6:30 PM"
      },
      {
        "day": "Wednesday",
        "hours": "9:30 AM to 6:30 PM"
      },
      {
        "day": "Thursday",
        "hours": "9:30 AM to 6:30 PM"
      },
      {
        "day": "Friday",
        "hours": "9:30 AM to 6:30 PM"
      },
      {
        "day": "Saturday",
        "hours": "Closed"
      },
      {
        "day": "Sunday",
        "hours": "9:30 AM to 6:30 PM"
      }
    ],
    "imageUrl": "https://media.indianluxurycars.com/google/f4bcc643fa39d6efc2b9c2ae63c0ad89b972f712b6929a90ff419bc1473c39be.jpg",
    "url": "https://www.google.com/maps/search/?api=1&query=Pegasus%20Nissan&query_place_id=ChIJx_R72PhDkTkRZTQiXMwwaC4"
  },
  {
    "title": "Relocaa Travels | Car rental in Gorakhpur | Taxi service in Gorakhpur | cab booking in Gorakhpur |",
    "subTitle": "रीलोका ट्रैवल्स",
    "categoryName": "Car rental agency",
    "address": "D-187, Malviya Nagar Colony, Malviya Nagar, Kunraghat, Gorakhpur, Uttar Pradesh 273008, India",
    "neighborhood": "Malviya Nagar Colony, Malviya Nagar, Kunraghat",
    "street": "D-187",
    "city": "Gorakhpur",
    "postalCode": "273008",
    "state": "Uttar Pradesh",
    "countryCode": "IN",
    "website": "https://relocaatravels.com/",
    "phone": "+919793037999",
    "phoneUnformatted": "+919793037999",
    "location": {
      "lat": 26.7332648,
      "lng": 83.4262984
    },
    "totalScore": 5,
    "permanentlyClosed": false,
    "temporarilyClosed": false,
    "placeId": "ChIJS5Lx5TJdkTkRAyMo672m1ik",
    "categories": [
      "Car rental agency",
      "Airport shuttle service",
      "Bus tour agency",
      "Car leasing service",
      "Taxi service",
      "Minibus taxi service",
      "Tour operator",
      "Transportation service",
      "Travel agency"
    ],
    "reviewsCount": 389,
    "imagesCount": 150,
    "openingHours": [],
    "imageUrl": "https://media.indianluxurycars.com/google/82593b4b39762f171a6698c32d3aa67876e43bf3e24e562a7a19916af88ba7cb.jpg",
    "url": "https://www.google.com/maps/search/?api=1&query=Relocaa%20Travels%20%7C%20Car%20rental%20in%20Gorakhpur%20%7C%20Taxi%20service%20in%20Gorakhpur%20%7C%20cab%20booking%20in%20Gorakhpur%20%7C&query_place_id=ChIJS5Lx5TJdkTkRAyMo672m1ik"
  },
  {
    "title": "Safar Cab Gorakhpur | Nepal Tour and Travels Taxi Service in Gorakhpur | Nepal Tour Packages from Gorakhpur",
    "subTitle": "सफ़र कैब",
    "categoryName": "Car rental agency",
    "address": "Q9P8+VCR, Ramjanki Nagar, Gorakhpur, Uttar Pradesh 273004, India",
    "neighborhood": "Ramjanki Nagar",
    "street": "Q9P8+VCR",
    "city": "Gorakhpur",
    "postalCode": "273004",
    "state": "Uttar Pradesh",
    "countryCode": "IN",
    "website": "https://safarcab.in/",
    "phone": "+919555480408",
    "phoneUnformatted": "+919555480408",
    "location": {
      "lat": 26.7875049,
      "lng": 83.3661731
    },
    "totalScore": 4.9,
    "permanentlyClosed": false,
    "temporarilyClosed": false,
    "placeId": "ChIJSQKC7pJFkTkRjJk-s7uhxlM",
    "categories": [
      "Car rental agency",
      "Car leasing service",
      "Taxi service",
      "Tour agency",
      "Tour operator",
      "Travel agency",
      "Travel lounge"
    ],
    "reviewsCount": 455,
    "imagesCount": 134,
    "openingHours": [],
    "imageUrl": "https://media.indianluxurycars.com/google/0c1ddbdd0706a38f8ac744ed6f75cb88eb8d993e1c6e0b97d2eea077e4f67b7c.jpg",
    "url": "https://www.google.com/maps/search/?api=1&query=Safar%20Cab%20Gorakhpur%20%7C%20Nepal%20Tour%20and%20Travels%20Taxi%20Service%20in%20Gorakhpur%20%7C%20Nepal%20Tour%20Packages%20from%20Gorakhpur&query_place_id=ChIJSQKC7pJFkTkRjJk-s7uhxlM"
  },
  {
    "title": "Samridhi Tour And Travels Gorakhpur | Gorakhpur Taxi Service | Best Taxi Service in Gorakhpur | Cab Booking Gorakhpur",
    "subTitle": "समृद्धि टूर एंड ट्रैवल्स गोरखपुर | गोरखपुर टैक्सी सर्विस | बेस्ट टैक्सी सर्विस इन गोरखपुर | कैब बुकिंग गोरखपुर",
    "categoryName": "Car rental agency",
    "address": "House No, 72 G, Sainik Vihar Colony Rd, Sainik Kunj, Nanda Nagar, Kunraghat, Gorakhpur, Uttar Pradesh 273008, India",
    "neighborhood": "Sainik Kunj, Nanda Nagar, Kunraghat",
    "street": "House No, 72 G, Sainik Vihar Colony Rd",
    "city": "Gorakhpur",
    "postalCode": "273008",
    "state": "Uttar Pradesh",
    "countryCode": "IN",
    "phone": "+917007665415",
    "phoneUnformatted": "+917007665415",
    "location": {
      "lat": 26.7513993,
      "lng": 83.4377483
    },
    "totalScore": 4.9,
    "permanentlyClosed": false,
    "temporarilyClosed": false,
    "placeId": "ChIJX1DdgiZbkTkRgNiOnB9klGM",
    "categories": [
      "Car rental agency",
      "Car leasing service",
      "Taxi service",
      "Minibus taxi service",
      "Transportation service"
    ],
    "reviewsCount": 54,
    "imagesCount": 28,
    "openingHours": [],
    "imageUrl": "https://media.indianluxurycars.com/google/8fe59436d3a43db35c6150c637fd0d8852ee5198c53c663c6d95ae8167939d1b.jpg",
    "url": "https://www.google.com/maps/search/?api=1&query=Samridhi%20Tour%20And%20Travels%20Gorakhpur%20%7C%20Gorakhpur%20Taxi%20Service%20%7C%20Best%20Taxi%20Service%20in%20Gorakhpur%20%7C%20Cab%20Booking%20Gorakhpur&query_place_id=ChIJX1DdgiZbkTkRgNiOnB9klGM"
  },
  {
    "title": "Siddhivinayak Tour & Travels",
    "subTitle": "सिद्धिविनायक टूर एंड ट्रेवल्स",
    "categoryName": "Car rental agency",
    "address": "Medical College Road, near Railway Station, Basharatpur, Gorakhpur, Uttar Pradesh 273003, India",
    "neighborhood": "Basharatpur",
    "street": "Medical College Road, near Railway Station",
    "city": "Gorakhpur",
    "postalCode": "273003",
    "state": "Uttar Pradesh",
    "countryCode": "IN",
    "website": "https://siddhivinayaktourandtravels.com/",
    "phone": "+918112971223",
    "phoneUnformatted": "+918112971223",
    "location": {
      "lat": 26.7884252,
      "lng": 83.3857695
    },
    "totalScore": 4.5,
    "permanentlyClosed": false,
    "temporarilyClosed": false,
    "placeId": "ChIJ_bmolQNFkTkRrH6jx89wEL4",
    "categories": [
      "Car rental agency",
      "Bus tour agency",
      "Car leasing service",
      "Travel agency",
      "Tour agency",
      "Tour operator"
    ],
    "reviewsCount": 58,
    "imagesCount": 115,
    "openingHours": [
      {
        "day": "Monday",
        "hours": "Open 24 hours"
      },
      {
        "day": "Tuesday",
        "hours": "Open 24 hours"
      },
      {
        "day": "Wednesday",
        "hours": "Open 24 hours"
      },
      {
        "day": "Thursday",
        "hours": "Open 24 hours"
      },
      {
        "day": "Friday",
        "hours": "Open 24 hours"
      },
      {
        "day": "Saturday",
        "hours": "Open 24 hours"
      },
      {
        "day": "Sunday",
        "hours": "Open 24 hours"
      }
    ],
    "imageUrl": "https://media.indianluxurycars.com/google/b246b275e66fb09cf4ad3cf2723e9761d96b7b987a87c41abe370f4f03b3eefd.jpg",
    "url": "https://www.google.com/maps/search/?api=1&query=Siddhivinayak%20Tour%20%26%20Travels&query_place_id=ChIJ_bmolQNFkTkRrH6jx89wEL4"
  },
  {
    "title": "Swastik Tour & Travels",
    "subTitle": "स्वस्तिक टूर & ट्रैवल्स",
    "categoryName": "Car rental agency",
    "address": "Shop no 1 Avas Vikas Colony, Road, Padri Bazar, Shahpur, Gorakhpur, Uttar Pradesh 273006, India",
    "neighborhood": "Padri Bazar, Shahpur, Bichhiya Railway Colony",
    "street": "Shop no 1 Avas Vikas Colony, Road",
    "city": "Gorakhpur",
    "postalCode": "273006",
    "state": "Uttar Pradesh",
    "countryCode": "IN",
    "phone": "+919984448270",
    "phoneUnformatted": "+919984448270",
    "location": {
      "lat": 26.7732302,
      "lng": 83.4032658
    },
    "totalScore": 3,
    "permanentlyClosed": false,
    "temporarilyClosed": false,
    "placeId": "ChIJRXPLk6RFkTkRsWQVhRWeRV0",
    "categories": [
      "Car rental agency"
    ],
    "reviewsCount": 1,
    "imagesCount": 24,
    "openingHours": [
      {
        "day": "Monday",
        "hours": "Open 24 hours"
      },
      {
        "day": "Tuesday",
        "hours": "Open 24 hours"
      },
      {
        "day": "Wednesday",
        "hours": "Open 24 hours"
      },
      {
        "day": "Thursday",
        "hours": "Open 24 hours"
      },
      {
        "day": "Friday",
        "hours": "Open 24 hours"
      },
      {
        "day": "Saturday",
        "hours": "Open 24 hours"
      },
      {
        "day": "Sunday",
        "hours": "Open 24 hours"
      }
    ],
    "imageUrl": "https://media.indianluxurycars.com/google/a8f075d75fb63d6d6bbdab74fe4f66570afa92308db29c08fc357364ccc039ec.jpg",
    "url": "https://www.google.com/maps/search/?api=1&query=Swastik%20Tour%20%26%20Travels&query_place_id=ChIJRXPLk6RFkTkRsWQVhRWeRV0"
  },
  {
    "title": "Tata Motors Cars Showroom - RKL Motors, Gorakhpur",
    "subTitle": "टाटा मोटर्स कार्स शोरूम - आरकेएल मोटर्स, गोरखपुर",
    "categoryName": "Car dealer",
    "address": "Gulharia, Medical College Road, Gorakhpur, Uttar Pradesh 273013, India",
    "street": "Gulharia, Medical College Road",
    "city": "Gorakhpur",
    "postalCode": "273013",
    "state": "Uttar Pradesh",
    "countryCode": "IN",
    "website": "https://dealer-locator.cars.tatamotors.com/tata-motors-cars-showroom-rkl-motors-gorakhpur-car-dealer-gorakhpur-gorakhpur-208888/Home?utm_source=locator&utm_medium=googleplaces",
    "phone": "+919167027715",
    "phoneUnformatted": "+919167027715",
    "location": {
      "lat": 26.8248724,
      "lng": 83.4094379
    },
    "totalScore": 4.8,
    "permanentlyClosed": false,
    "temporarilyClosed": false,
    "placeId": "ChIJEcqPZwBQkTkRNPSwxkfWVbo",
    "categories": [
      "Car dealer"
    ],
    "reviewsCount": 1058,
    "imagesCount": 750,
    "openingHours": [
      {
        "day": "Monday",
        "hours": "10 AM to 7 PM"
      },
      {
        "day": "Tuesday",
        "hours": "10 AM to 7 PM"
      },
      {
        "day": "Wednesday",
        "hours": "10 AM to 7 PM"
      },
      {
        "day": "Thursday",
        "hours": "10 AM to 7 PM"
      },
      {
        "day": "Friday",
        "hours": "10 AM to 7 PM"
      },
      {
        "day": "Saturday",
        "hours": "10 AM to 7 PM"
      },
      {
        "day": "Sunday",
        "hours": "10 AM to 7 PM"
      }
    ],
    "imageUrl": "https://media.indianluxurycars.com/google/3e0153ef56712ec5816c41c52396d84d104da25e50117dd64b93159d4a3ff382.jpg",
    "url": "https://www.google.com/maps/search/?api=1&query=Tata%20Motors%20Cars%20Showroom%20-%20RKL%20Motors%2C%20Gorakhpur&query_place_id=ChIJEcqPZwBQkTkRNPSwxkfWVbo"
  },
  {
    "title": "Tirupati Nepal Tours And Travels",
    "subTitle": "तिरुपति नेपाल टुर एंड ट्रेवल्स",
    "categoryName": "Car rental agency",
    "address": "M Eng, M.M, Divya Nagar, Mahadevapuram Colony, Kunraghat, Gorakhpur, Uttar Pradesh 273010, India",
    "neighborhood": "Divya Nagar, Mahadevapuram Colony, Kunraghat",
    "street": "M Eng, M.M",
    "city": "Gorakhpur",
    "postalCode": "273010",
    "state": "Uttar Pradesh",
    "countryCode": "IN",
    "website": "http://www.tirupatinepaltoursandtravels.com/",
    "phone": "+919956552006",
    "phoneUnformatted": "+919956552006",
    "location": {
      "lat": 26.7276828,
      "lng": 83.4324603
    },
    "totalScore": 4.9,
    "permanentlyClosed": false,
    "temporarilyClosed": false,
    "placeId": "ChIJqR0Tu9RdkTkRTb_WtoDMq0I",
    "categories": [
      "Car rental agency",
      "Bus tour agency",
      "Travel agency",
      "Sightseeing tour agency",
      "Tour operator"
    ],
    "reviewsCount": 327,
    "imagesCount": 399,
    "openingHours": [
      {
        "day": "Monday",
        "hours": "Open 24 hours"
      },
      {
        "day": "Tuesday",
        "hours": "Open 24 hours"
      },
      {
        "day": "Wednesday",
        "hours": "Open 24 hours"
      },
      {
        "day": "Thursday",
        "hours": "Open 24 hours"
      },
      {
        "day": "Friday",
        "hours": "Open 24 hours"
      },
      {
        "day": "Saturday",
        "hours": "Open 24 hours"
      },
      {
        "day": "Sunday",
        "hours": "Open 24 hours"
      }
    ],
    "imageUrl": "https://media.indianluxurycars.com/google/258729358e07e64b17be3224050cd2bd207b4ac3d2587a961972c74112534abc.jpg",
    "url": "https://www.google.com/maps/search/?api=1&query=Tirupati%20Nepal%20Tours%20And%20Travels&query_place_id=ChIJqR0Tu9RdkTkRTb_WtoDMq0I"
  },
  {
    "title": "Trishna Tours and Travels",
    "subTitle": "तृष्णा टूर्स एंड ट्रेवल्स",
    "categoryName": "Car rental agency",
    "address": "near Khetan Hospital, Bargadwa, Gorakhpur, Uttar Pradesh 273015, India",
    "neighborhood": "Bargadwa",
    "street": "near Khetan Hospital",
    "city": "Gorakhpur",
    "postalCode": "273015",
    "state": "Uttar Pradesh",
    "countryCode": "IN",
    "website": "https://www.trishnatoursandtravels.com/",
    "location": {
      "lat": 26.7996904,
      "lng": 83.3538698
    },
    "totalScore": 4.4,
    "permanentlyClosed": false,
    "temporarilyClosed": false,
    "placeId": "ChIJjzqTp8dFkTkRCZz5dm2pUyM",
    "categories": [
      "Car rental agency",
      "Car leasing service",
      "Taxi service",
      "Tour agency"
    ],
    "reviewsCount": 342,
    "imagesCount": 34,
    "openingHours": [],
    "imageUrl": "https://media.indianluxurycars.com/google/9399b47b2d450ec5ad6947ea06dcd50fb9588c89fda13a6c52b116209f4b41b4.jpg",
    "url": "https://www.google.com/maps/search/?api=1&query=Trishna%20Tours%20and%20Travels&query_place_id=ChIJjzqTp8dFkTkRCZz5dm2pUyM"
  },
  {
    "title": "UCCabs",
    "subTitle": "उकैब्स",
    "categoryName": "Car rental agency",
    "address": "A-79, Awas Vikas Colony, Tiwaripur, Ilahi Bagh, Gorakhpur, Uttar Pradesh 273001, India",
    "neighborhood": "Ilahi Bagh",
    "street": "A-79, Awas Vikas Colony, Tiwaripur",
    "city": "Gorakhpur",
    "postalCode": "273001",
    "state": "Uttar Pradesh",
    "countryCode": "IN",
    "phone": "+917668518051",
    "phoneUnformatted": "+917668518051",
    "location": {
      "lat": 26.7642323,
      "lng": 83.3475003
    },
    "totalScore": 5,
    "permanentlyClosed": false,
    "temporarilyClosed": true,
    "placeId": "ChIJ5eQ_0D5EkTkR81-D4Ml62yE",
    "categories": [
      "Car rental agency"
    ],
    "reviewsCount": 2,
    "imagesCount": 1,
    "openingHours": [],
    "imageUrl": "https://media.indianluxurycars.com/google/4446688861d19464a0005996d22c00b1eab7ceecff3ca302cffe1d885de15d9e.jpg",
    "url": "https://www.google.com/maps/search/?api=1&query=UCCabs&query_place_id=ChIJ5eQ_0D5EkTkR81-D4Ml62yE"
  },
  {
    "title": "Wheels Scenario",
    "subTitle": "व्हील्स सिनेरियो",
    "categoryName": "Car leasing service",
    "address": "Gate no.-01, Railway Station Rd, Kawwa Bagh Colony, Gorakhpur, Uttar Pradesh 273012, India",
    "neighborhood": "Kawwa Bagh Colony",
    "street": "Gate no.-01, Railway Station Rd",
    "city": "Gorakhpur",
    "postalCode": "273012",
    "state": "Uttar Pradesh",
    "countryCode": "IN",
    "location": {
      "lat": 26.7596374,
      "lng": 83.381736
    },
    "totalScore": 5,
    "permanentlyClosed": false,
    "temporarilyClosed": false,
    "placeId": "ChIJ6yJkNWRFkTkRD6iRS46xIA4",
    "categories": [
      "Car leasing service",
      "Bus tour agency",
      "Tour agency",
      "Travel agency"
    ],
    "reviewsCount": 2,
    "openingHours": [
      {
        "day": "Monday",
        "hours": "Open 24 hours"
      },
      {
        "day": "Tuesday",
        "hours": "Open 24 hours"
      },
      {
        "day": "Wednesday",
        "hours": "Open 24 hours"
      },
      {
        "day": "Thursday",
        "hours": "Open 24 hours"
      },
      {
        "day": "Friday",
        "hours": "Open 24 hours"
      },
      {
        "day": "Saturday",
        "hours": "Open 24 hours"
      },
      {
        "day": "Sunday",
        "hours": "Open 24 hours"
      }
    ],
    "url": "https://www.google.com/maps/search/?api=1&query=Wheels%20Scenario&query_place_id=ChIJ6yJkNWRFkTkRD6iRS46xIA4"
  },
  {
    "title": "YASH CAR BAZAAR | Second Hand Car Dealership in Gorakhpur |",
    "subTitle": "यश कार बाज़ार | सेकंड हैंड कार डीलरशिप इन गोरखपुर |",
    "categoryName": "Used car dealer",
    "address": "YASH CAR BAZAAR, chowk, Bansgaon Colony, Paidleganj, Gorakhpur, Uttar Pradesh 273001, India",
    "neighborhood": "Bansgaon Colony, Paidleganj",
    "street": "YASH CAR BAZAAR, chowk",
    "city": "Gorakhpur",
    "postalCode": "273001",
    "state": "Uttar Pradesh",
    "countryCode": "IN",
    "website": "http://www.yashcarbazaar.com/",
    "phone": "+919935369111",
    "phoneUnformatted": "+919935369111",
    "location": {
      "lat": 26.7433553,
      "lng": 83.3846399
    },
    "totalScore": 4.4,
    "permanentlyClosed": false,
    "temporarilyClosed": false,
    "placeId": "ChIJl_6WSnv9kDkRnaXunyazavw",
    "categories": [
      "Used car dealer"
    ],
    "reviewsCount": 259,
    "imagesCount": 288,
    "openingHours": [
      {
        "day": "Monday",
        "hours": "9:30 AM to 8 PM"
      },
      {
        "day": "Tuesday",
        "hours": "9:30 AM to 8 PM"
      },
      {
        "day": "Wednesday",
        "hours": "9:30 AM to 8 PM"
      },
      {
        "day": "Thursday",
        "hours": "9:30 AM to 8 PM"
      },
      {
        "day": "Friday",
        "hours": "9:30 AM to 8 PM"
      },
      {
        "day": "Saturday",
        "hours": "9:30 AM to 8 PM"
      },
      {
        "day": "Sunday",
        "hours": "9:30 AM to 8 PM"
      }
    ],
    "imageUrl": "https://media.indianluxurycars.com/google/b2dac937564026d4a1817bd3e428acacf721e879c7a5f2c5a09a8a083cc8dde7.jpg",
    "url": "https://www.google.com/maps/search/?api=1&query=YASH%20CAR%20BAZAAR%20%7C%20Second%20Hand%20Car%20Dealership%20in%20Gorakhpur%20%7C&query_place_id=ChIJl_6WSnv9kDkRnaXunyazavw"
  }
]
