[
  {
    "title": "ABHI CAR'S TRAVEL'S - Guntur",
    "categoryName": "Car rental agency",
    "address": "Mangaldas Nagar, Guntur, Andhra Pradesh 522002, India",
    "neighborhood": "Mangaldas Nagar",
    "city": "Guntur",
    "postalCode": "522002",
    "state": "Andhra Pradesh",
    "countryCode": "IN",
    "phone": "+917396846408",
    "phoneUnformatted": "+917396846408",
    "location": {
      "lat": 16.3109575,
      "lng": 80.4557065
    },
    "totalScore": 5,
    "permanentlyClosed": false,
    "temporarilyClosed": false,
    "placeId": "ChIJtUDXvKF1SjoRWfJxs4x3w70",
    "categories": [
      "Car rental agency"
    ],
    "reviewsCount": 6,
    "imagesCount": 14,
    "openingHours": [
      {
        "day": "Monday",
        "hours": "Open 24 hours"
      },
      {
        "day": "Tuesday",
        "hours": "Open 24 hours"
      },
      {
        "day": "Wednesday",
        "hours": "Open 24 hours"
      },
      {
        "day": "Thursday",
        "hours": "Open 24 hours"
      },
      {
        "day": "Friday",
        "hours": "Open 24 hours"
      },
      {
        "day": "Saturday",
        "hours": "Open 24 hours"
      },
      {
        "day": "Sunday",
        "hours": "Open 24 hours"
      }
    ],
    "imageUrl": "https://media.indianluxurycars.com/google/14440a3930538cc4c9043843bf9305630f590c010cee9f5077da591e54657c38.jpg",
    "url": "https://www.google.com/maps/search/?api=1&query=ABHI%20CAR'S%20TRAVEL'S%20-%20Guntur&query_place_id=ChIJtUDXvKF1SjoRWfJxs4x3w70"
  },
  {
    "title": "Ambica Motors - used car showroom",
    "categoryName": "Car dealer",
    "address": "Chandramouli Nagar, Guntur, Andhra Pradesh 522007, India",
    "neighborhood": "Chandramouli Nagar",
    "city": "Guntur",
    "postalCode": "522007",
    "state": "Andhra Pradesh",
    "countryCode": "IN",
    "location": {
      "lat": 16.3154072,
      "lng": 80.4274287
    },
    "totalScore": 4.9,
    "permanentlyClosed": false,
    "temporarilyClosed": false,
    "placeId": "ChIJ9-bvgbp1SjoRSQeZjmXD6C8",
    "categories": [
      "Car dealer"
    ],
    "reviewsCount": 10,
    "imagesCount": 11,
    "openingHours": [
      {
        "day": "Monday",
        "hours": "9 AM to 10 PM"
      },
      {
        "day": "Tuesday",
        "hours": "9 AM to 10 PM"
      },
      {
        "day": "Wednesday",
        "hours": "9 AM to 10 PM"
      },
      {
        "day": "Thursday",
        "hours": "9 AM to 10 PM"
      },
      {
        "day": "Friday",
        "hours": "9 AM to 10 PM"
      },
      {
        "day": "Saturday",
        "hours": "9 AM to 10 PM"
      },
      {
        "day": "Sunday",
        "hours": "9 AM to 10 PM"
      }
    ],
    "imageUrl": "https://media.indianluxurycars.com/google/670c9bf5b686f368f0ba7363a80ac0d2aa4ed2bb765a77ce2d9ccd05625e7d05.jpg",
    "url": "https://www.google.com/maps/search/?api=1&query=Ambica%20Motors%20-%20used%20car%20showroom&query_place_id=ChIJ9-bvgbp1SjoRSQeZjmXD6C8"
  },
  {
    "title": "Asha Self Drive Cars",
    "categoryName": "Car rental agency",
    "address": "Sudhapalli Donka Rd, Pathareddypalem, Old Guntur, Guntur, Andhra Pradesh 522001, India",
    "neighborhood": "Pathareddypalem, Old Guntur",
    "street": "Sudhapalli Donka Rd",
    "city": "Guntur",
    "postalCode": "522001",
    "state": "Andhra Pradesh",
    "countryCode": "IN",
    "location": {
      "lat": 16.2851558,
      "lng": 80.463012
    },
    "totalScore": 4.6,
    "permanentlyClosed": false,
    "temporarilyClosed": false,
    "placeId": "ChIJhe-SkTILSjoR6JD4cKUHXLg",
    "categories": [
      "Car rental agency"
    ],
    "reviewsCount": 8,
    "imagesCount": 17,
    "openingHours": [
      {
        "day": "Monday",
        "hours": "Open 24 hours"
      },
      {
        "day": "Tuesday",
        "hours": "Open 24 hours"
      },
      {
        "day": "Wednesday",
        "hours": "Open 24 hours"
      },
      {
        "day": "Thursday",
        "hours": "Open 24 hours"
      },
      {
        "day": "Friday",
        "hours": "Open 24 hours"
      },
      {
        "day": "Saturday",
        "hours": "Open 24 hours"
      },
      {
        "day": "Sunday",
        "hours": "Open 24 hours"
      }
    ],
    "imageUrl": "https://media.indianluxurycars.com/google/5981a348a471fdf4bbbeeaf4699b1a195960395ee7920c0acd0bac4502e47b33.jpg",
    "url": "https://www.google.com/maps/search/?api=1&query=Asha%20Self%20Drive%20Cars&query_place_id=ChIJhe-SkTILSjoR6JD4cKUHXLg"
  },
  {
    "title": "Balu Car Travels (Car Travels In Guntur)",
    "subTitle": "బాలు కారు ట్రావెల్స్ (కారు ట్రావెల్స్ ఇన్ గుంటూరు)",
    "categoryName": "Car rental agency",
    "address": "Balaji Car Travels, 1st Ln, opp. Hanumayya Nagar Road, Lakshmipuram, Koritepadu, Guntur, Andhra Pradesh 522007, India",
    "neighborhood": "Lakshmipuram, Koritepadu",
    "street": "Balaji Car Travels, 1st Ln, opp. Hanumayya Nagar Road",
    "city": "Guntur",
    "postalCode": "522007",
    "state": "Andhra Pradesh",
    "countryCode": "IN",
    "website": "https://www.balucartravels.com/",
    "phone": "+919160989989",
    "phoneUnformatted": "+919160989989",
    "location": {
      "lat": 16.3120407,
      "lng": 80.4319567
    },
    "totalScore": 4.7,
    "permanentlyClosed": false,
    "temporarilyClosed": false,
    "placeId": "ChIJjRrmUXx1SjoRGSkBVqebkMU",
    "categories": [
      "Car rental agency",
      "Car leasing service",
      "Travel agency"
    ],
    "reviewsCount": 768,
    "imagesCount": 66,
    "openingHours": [
      {
        "day": "Monday",
        "hours": "Open 24 hours"
      },
      {
        "day": "Tuesday",
        "hours": "Open 24 hours"
      },
      {
        "day": "Wednesday",
        "hours": "Open 24 hours"
      },
      {
        "day": "Thursday",
        "hours": "Open 24 hours"
      },
      {
        "day": "Friday",
        "hours": "Open 24 hours"
      },
      {
        "day": "Saturday",
        "hours": "Open 24 hours"
      },
      {
        "day": "Sunday",
        "hours": "Open 24 hours"
      }
    ],
    "imageUrl": "https://media.indianluxurycars.com/google/cfedcd597ed0c23d2f9730de505f4bdc7e97b38ebeef816b0bf9df83c998ff19.jpg",
    "url": "https://www.google.com/maps/search/?api=1&query=Balu%20Car%20Travels%20(Car%20Travels%20In%20Guntur)&query_place_id=ChIJjRrmUXx1SjoRGSkBVqebkMU"
  },
  {
    "title": "Charvith Travels",
    "categoryName": "Car leasing service",
    "address": "S1, 2nd floor, Sri Sai Complex, 5-87-34/A, Lakshmipuram Main Rd, Brodipet, Guntur, Andhra Pradesh 522006, India",
    "neighborhood": "Brodipet",
    "street": "S1, 2nd floor, Sri Sai Complex, 5-87-34/A, Lakshmipuram Main Rd",
    "city": "Guntur",
    "postalCode": "522006",
    "state": "Andhra Pradesh",
    "countryCode": "IN",
    "website": "https://charvithtravels.com/",
    "location": {
      "lat": 16.3149141,
      "lng": 80.4188749
    },
    "totalScore": 5,
    "permanentlyClosed": false,
    "temporarilyClosed": true,
    "placeId": "ChIJlY9E61x1SjoRv9hl_UjwEVE",
    "categories": [
      "Car leasing service"
    ],
    "reviewsCount": 4,
    "imagesCount": 3,
    "openingHours": [],
    "imageUrl": "https://media.indianluxurycars.com/google/81383dc719f66b8cb2de8fde755fd9cee8bf449b563dd73627fa6d5f957a141b.jpg",
    "url": "https://www.google.com/maps/search/?api=1&query=Charvith%20Travels&query_place_id=ChIJlY9E61x1SjoRv9hl_UjwEVE"
  },
  {
    "title": "Chinni car travels guntur",
    "categoryName": "Car leasing service",
    "address": "gowthami nagar, 5th Line, Chaitanyapuri, Venugopalnagar, Koritepadu, Guntur, Andhra Pradesh 522007, India",
    "neighborhood": "Chaitanyapuri, Venugopalnagar, Koritepadu",
    "street": "gowthami nagar, 5th Line",
    "city": "Guntur",
    "postalCode": "522007",
    "state": "Andhra Pradesh",
    "countryCode": "IN",
    "phone": "+919398743332",
    "phoneUnformatted": "+919398743332",
    "location": {
      "lat": 16.3179246,
      "lng": 80.4337735
    },
    "totalScore": 5,
    "permanentlyClosed": false,
    "temporarilyClosed": false,
    "placeId": "ChIJee2YZgqLNToRyrj9NrwInfs",
    "categories": [
      "Car leasing service"
    ],
    "reviewsCount": 21,
    "imagesCount": 4,
    "openingHours": [
      {
        "day": "Monday",
        "hours": "Open 24 hours"
      },
      {
        "day": "Tuesday",
        "hours": "Open 24 hours"
      },
      {
        "day": "Wednesday",
        "hours": "Open 24 hours"
      },
      {
        "day": "Thursday",
        "hours": "Open 24 hours"
      },
      {
        "day": "Friday",
        "hours": "Open 24 hours"
      },
      {
        "day": "Saturday",
        "hours": "Open 24 hours"
      },
      {
        "day": "Sunday",
        "hours": "Open 24 hours"
      }
    ],
    "imageUrl": "https://media.indianluxurycars.com/google/b8a7c66d735e4eab82419ce85a1728b19548f50a563cb0e8bd876cf2d6586ad3.png",
    "url": "https://www.google.com/maps/search/?api=1&query=Chinni%20car%20travels%20guntur&query_place_id=ChIJee2YZgqLNToRyrj9NrwInfs"
  },
  {
    "title": "Go Panda Cars",
    "categoryName": "Car rental agency",
    "address": "Sai Baba Colony, 93-169/4, Gandhi Nagar, Guntur, Andhra Pradesh 522003, India",
    "neighborhood": "Gandhi Nagar",
    "street": "Sai Baba Colony, 93-169/4",
    "city": "Guntur",
    "postalCode": "522003",
    "state": "Andhra Pradesh",
    "countryCode": "IN",
    "website": "http://gopandacars.in/",
    "phone": "+919052017979",
    "phoneUnformatted": "+919052017979",
    "location": {
      "lat": 16.2797441,
      "lng": 80.4618636
    },
    "totalScore": 3.8,
    "permanentlyClosed": false,
    "temporarilyClosed": false,
    "placeId": "ChIJzdNMiuULSjoRON7U7hjrxQc",
    "categories": [
      "Car rental agency"
    ],
    "reviewsCount": 143,
    "imagesCount": 4,
    "openingHours": [
      {
        "day": "Monday",
        "hours": "6 AM to 11:30 PM"
      },
      {
        "day": "Tuesday",
        "hours": "6 AM to 11:30 PM"
      },
      {
        "day": "Wednesday",
        "hours": "6 AM to 11:30 PM"
      },
      {
        "day": "Thursday",
        "hours": "6 AM to 11:30 PM"
      },
      {
        "day": "Friday",
        "hours": "6 AM to 11:30 PM"
      },
      {
        "day": "Saturday",
        "hours": "6 AM to 11:30 PM"
      },
      {
        "day": "Sunday",
        "hours": "6 AM to 11:30 PM"
      }
    ],
    "imageUrl": "https://media.indianluxurycars.com/google/2113278010ec734c871d0f4d4035be1eb26feb8b03b88deef27e2369dad38749.jpg",
    "url": "https://www.google.com/maps/search/?api=1&query=Go%20Panda%20Cars&query_place_id=ChIJzdNMiuULSjoRON7U7hjrxQc"
  },
  {
    "title": "GoGo Taxi | Guntur to Hyderabad Cabs | cab service in guntur | car rental guntur | taxi service in guntur | Tempo Traveller",
    "categoryName": "Car rental agency",
    "address": "Shop No. 2, 6th Ln, Pandaripuram, Brodipet, Guntur, Andhra Pradesh 522002, India",
    "neighborhood": "Pandaripuram, Brodipet",
    "street": "Shop No. 2, 6th Ln",
    "city": "Guntur",
    "postalCode": "522002",
    "state": "Andhra Pradesh",
    "countryCode": "IN",
    "phone": "+918008444542",
    "phoneUnformatted": "+918008444542",
    "location": {
      "lat": 16.30709,
      "lng": 80.429583
    },
    "totalScore": 4.9,
    "permanentlyClosed": false,
    "temporarilyClosed": false,
    "placeId": "ChIJj5U2UBZ1SjoRaZChC5IY6dg",
    "categories": [
      "Car rental agency",
      "Car leasing service",
      "Taxi service",
      "Minibus taxi service",
      "Tour agency",
      "Tour operator",
      "Travel agency"
    ],
    "reviewsCount": 15,
    "imagesCount": 24,
    "openingHours": [],
    "imageUrl": "https://media.indianluxurycars.com/google/10dd5b3f78dc8579795e82838f0f418f39c98b4ef168c8547ad35ae305e03d62.jpg",
    "url": "https://www.google.com/maps/search/?api=1&query=GoGo%20Taxi%20%7C%20Guntur%20to%20Hyderabad%20Cabs%20%7C%20cab%20service%20in%20guntur%20%7C%20car%20rental%20guntur%20%7C%20taxi%20service%20in%20guntur%20%7C%20Tempo%20Traveller&query_place_id=ChIJj5U2UBZ1SjoRaZChC5IY6dg"
  },
  {
    "title": "JBS Car Travels",
    "categoryName": "Car rental agency",
    "address": "41-1-159 Arundhati Nagar, 2nd Line, Guntur, Andhra Pradesh 522001, India",
    "neighborhood": "Arundhati Nagar, Mangaldas Nagar",
    "street": "41-1-159 Arundhati Nagar, 2nd Line",
    "city": "Guntur",
    "postalCode": "522001",
    "state": "Andhra Pradesh",
    "countryCode": "IN",
    "website": "http://www.jbscartravels.in/",
    "location": {
      "lat": 16.3066835,
      "lng": 80.4585957
    },
    "totalScore": 5,
    "permanentlyClosed": false,
    "temporarilyClosed": false,
    "placeId": "ChIJJTAlpMsLSjoRZxEDNYQliYk",
    "categories": [
      "Car rental agency"
    ],
    "reviewsCount": 8,
    "imagesCount": 28,
    "openingHours": [
      {
        "day": "Monday",
        "hours": "Open 24 hours"
      },
      {
        "day": "Tuesday",
        "hours": "Open 24 hours"
      },
      {
        "day": "Wednesday",
        "hours": "Open 24 hours"
      },
      {
        "day": "Thursday",
        "hours": "Open 24 hours"
      },
      {
        "day": "Friday",
        "hours": "Open 24 hours"
      },
      {
        "day": "Saturday",
        "hours": "Open 24 hours"
      },
      {
        "day": "Sunday",
        "hours": "Open 24 hours"
      }
    ],
    "imageUrl": "https://media.indianluxurycars.com/google/d2f0a13d5a1ec670ea938547398da5812c6d6f203e07c685d6a37051ce4ca1a3.jpg",
    "url": "https://www.google.com/maps/search/?api=1&query=JBS%20Car%20Travels&query_place_id=ChIJJTAlpMsLSjoRZxEDNYQliYk"
  },
  {
    "title": "Luxury Tours Travels",
    "subTitle": "లక్సరీ టూర్స్ ట్రావెల్స్",
    "categoryName": "Car leasing service",
    "address": "3-30, 15/1, Ring Rd, R.Agraharam, Guntur, Andhra Pradesh 522006, India",
    "neighborhood": "R.Agraharam",
    "street": "3-30, 15/1, Ring Rd",
    "city": "Guntur",
    "postalCode": "522006",
    "state": "Andhra Pradesh",
    "countryCode": "IN",
    "location": {
      "lat": 16.3180297,
      "lng": 80.418883
    },
    "totalScore": 5,
    "permanentlyClosed": false,
    "temporarilyClosed": false,
    "placeId": "ChIJD9JAt0iLNToR0sdN8T_f9Yg",
    "categories": [
      "Car leasing service",
      "Taxi service",
      "Corporate office",
      "Tour agency",
      "Transportation service",
      "Travel agency"
    ],
    "reviewsCount": 1,
    "imagesCount": 2,
    "openingHours": [],
    "imageUrl": "https://media.indianluxurycars.com/google/9399b1f5ba4dadcf87137399f858633dae1f81f9a987ac7fd8a76d25cd10063a.jpg",
    "url": "https://www.google.com/maps/search/?api=1&query=Luxury%20Tours%20Travels&query_place_id=ChIJD9JAt0iLNToR0sdN8T_f9Yg"
  },
  {
    "title": "Malleswari tour&travels",
    "categoryName": "Car rental agency",
    "address": "Swasakthi Building, Nagarampalem, Guntur, Andhra Pradesh 522004, India",
    "neighborhood": "Nagarampalem",
    "street": "Swasakthi Building",
    "city": "Guntur",
    "postalCode": "522004",
    "state": "Andhra Pradesh",
    "countryCode": "IN",
    "location": {
      "lat": 16.2927648,
      "lng": 80.4297964
    },
    "totalScore": 4.8,
    "permanentlyClosed": false,
    "temporarilyClosed": false,
    "placeId": "ChIJnX9bCAB1SjoR5MLM6nw0tlM",
    "categories": [
      "Car rental agency"
    ],
    "reviewsCount": 38,
    "imagesCount": 42,
    "openingHours": [
      {
        "day": "Monday",
        "hours": "Open 24 hours"
      },
      {
        "day": "Tuesday",
        "hours": "Open 24 hours"
      },
      {
        "day": "Wednesday",
        "hours": "Open 24 hours"
      },
      {
        "day": "Thursday",
        "hours": "Open 24 hours"
      },
      {
        "day": "Friday",
        "hours": "Open 24 hours"
      },
      {
        "day": "Saturday",
        "hours": "Open 24 hours"
      },
      {
        "day": "Sunday",
        "hours": "Open 24 hours"
      }
    ],
    "imageUrl": "https://media.indianluxurycars.com/google/883ce47ef18a32fcc87058b0ff5a0d2259e5fe00ac0e443adc31d09beb5fc19b.jpg",
    "url": "https://www.google.com/maps/search/?api=1&query=Malleswari%20tour%26travels&query_place_id=ChIJnX9bCAB1SjoR5MLM6nw0tlM"
  },
  {
    "title": "PR Carz",
    "categoryName": "Car dealer",
    "address": "Devapuram 5th Ln, behind NTR Stadium, Brindavan Gardens, Guntur, Andhra Pradesh 522002, India",
    "neighborhood": "Brindavan Gardens",
    "street": "Devapuram 5th Ln, behind NTR Stadium",
    "city": "Guntur",
    "postalCode": "522002",
    "state": "Andhra Pradesh",
    "countryCode": "IN",
    "phone": "+917989952067",
    "phoneUnformatted": "+917989952067",
    "location": {
      "lat": 16.3108401,
      "lng": 80.4231663
    },
    "totalScore": 4.5,
    "permanentlyClosed": false,
    "temporarilyClosed": false,
    "placeId": "ChIJhQs-A8l1SjoR_k0t2uR5ctQ",
    "categories": [
      "Car dealer"
    ],
    "reviewsCount": 11,
    "imagesCount": 10,
    "openingHours": [
      {
        "day": "Monday",
        "hours": "8 AM to 9 PM"
      },
      {
        "day": "Tuesday",
        "hours": "8 AM to 9 PM"
      },
      {
        "day": "Wednesday",
        "hours": "8 AM to 9 PM"
      },
      {
        "day": "Thursday",
        "hours": "8 AM to 9 PM"
      },
      {
        "day": "Friday",
        "hours": "8 AM to 9 PM"
      },
      {
        "day": "Saturday",
        "hours": "8 AM to 9 PM"
      },
      {
        "day": "Sunday",
        "hours": "8 AM to 9 PM"
      }
    ],
    "imageUrl": "https://media.indianluxurycars.com/google/69216407658ccf9fac20dfb5333fb38f7b2967229e1cda56df3db449f544de06.jpg",
    "url": "https://www.google.com/maps/search/?api=1&query=PR%20Carz&query_place_id=ChIJhQs-A8l1SjoR_k0t2uR5ctQ"
  },
  {
    "title": "Self Drive Car Rental Marketplace || Book Self Drive Cars Online - Drive and jive.",
    "categoryName": "Car rental agency",
    "address": "Third Floor, Backside of Rehmat Climic, 95 Collectorate Road Ward No - 26, Dr No - 137, Guntur, Andhra Pradesh 522004, India",
    "neighborhood": "Nagarampalem",
    "street": "Third Floor, Backside of Rehmat Climic, 95 Collectorate Road Ward No - 26, Dr No - 137",
    "city": "Guntur",
    "postalCode": "522004",
    "state": "Andhra Pradesh",
    "countryCode": "IN",
    "website": "https://driveandjive.com/",
    "location": {
      "lat": 16.3012784,
      "lng": 80.4267111
    },
    "permanentlyClosed": false,
    "temporarilyClosed": false,
    "placeId": "ChIJp2YCJvp1SjoRAYxf2VFdd2I",
    "categories": [
      "Car rental agency",
      "Car leasing service"
    ],
    "imagesCount": 6,
    "openingHours": [
      {
        "day": "Monday",
        "hours": "Open 24 hours"
      },
      {
        "day": "Tuesday",
        "hours": "Open 24 hours"
      },
      {
        "day": "Wednesday",
        "hours": "Open 24 hours"
      },
      {
        "day": "Thursday",
        "hours": "Open 24 hours"
      },
      {
        "day": "Friday",
        "hours": "Open 24 hours"
      },
      {
        "day": "Saturday",
        "hours": "Open 24 hours"
      },
      {
        "day": "Sunday",
        "hours": "Open 24 hours"
      }
    ],
    "imageUrl": "https://media.indianluxurycars.com/google/18ec74871d4335c1ab6d75454b265e9b7c85ec2b014333fcabf2b6abc3708089.jpg",
    "url": "https://www.google.com/maps/search/?api=1&query=Self%20Drive%20Car%20Rental%20Marketplace%20%7C%7C%20Book%20Self%20Drive%20Cars%20Online%20-%20Drive%20and%20jive.&query_place_id=ChIJp2YCJvp1SjoRAYxf2VFdd2I"
  },
  {
    "title": "Self drive cars in guntur",
    "categoryName": "Car leasing service",
    "address": "Amaravathi Rd, near alla hospital, Bandlamudi Complex, Srinagar Colony, Guntur, Andhra Pradesh 522002, India",
    "neighborhood": "Bandlamudi Complex, Srinagar Colony",
    "street": "Amaravathi Rd, near alla hospital",
    "city": "Guntur",
    "postalCode": "522002",
    "state": "Andhra Pradesh",
    "countryCode": "IN",
    "phone": "+919666222783",
    "phoneUnformatted": "+919666222783",
    "location": {
      "lat": 16.3123831,
      "lng": 80.4373306
    },
    "totalScore": 4.8,
    "permanentlyClosed": false,
    "temporarilyClosed": false,
    "placeId": "ChIJv41jAWt1SjoRgEFlv5M9gv4",
    "categories": [
      "Car leasing service"
    ],
    "reviewsCount": 21,
    "imagesCount": 2,
    "openingHours": [
      {
        "day": "Monday",
        "hours": "Open 24 hours"
      },
      {
        "day": "Tuesday",
        "hours": "Open 24 hours"
      },
      {
        "day": "Wednesday",
        "hours": "Open 24 hours"
      },
      {
        "day": "Thursday",
        "hours": "Open 24 hours"
      },
      {
        "day": "Friday",
        "hours": "Open 24 hours"
      },
      {
        "day": "Saturday",
        "hours": "Open 24 hours"
      },
      {
        "day": "Sunday",
        "hours": "Open 24 hours"
      }
    ],
    "imageUrl": "https://media.indianluxurycars.com/google/29d7832ac60bd12577baffac5261d1d7a87829e0355ed455af176e6cd04e66a3.jpg",
    "url": "https://www.google.com/maps/search/?api=1&query=Self%20drive%20cars%20in%20guntur&query_place_id=ChIJv41jAWt1SjoRgEFlv5M9gv4"
  },
  {
    "title": "Self drive cars in guntur-satish tours & travels",
    "categoryName": "Car rental agency",
    "address": "Lodge centre, Brodipet, Guntur, Andhra Pradesh 522007, India",
    "neighborhood": "Brodipet",
    "street": "Lodge centre",
    "city": "Guntur",
    "postalCode": "522007",
    "state": "Andhra Pradesh",
    "countryCode": "IN",
    "phone": "+917989163056",
    "phoneUnformatted": "+917989163056",
    "location": {
      "lat": 16.3081718,
      "lng": 80.4344441
    },
    "totalScore": 5,
    "permanentlyClosed": false,
    "temporarilyClosed": false,
    "placeId": "ChIJI2XiBG2LNToR_q5ehI6wlT8",
    "categories": [
      "Car rental agency"
    ],
    "reviewsCount": 28,
    "imagesCount": 16,
    "openingHours": [
      {
        "day": "Monday",
        "hours": "Open 24 hours"
      },
      {
        "day": "Tuesday",
        "hours": "Open 24 hours"
      },
      {
        "day": "Wednesday",
        "hours": "Open 24 hours"
      },
      {
        "day": "Thursday",
        "hours": "Open 24 hours"
      },
      {
        "day": "Friday",
        "hours": "Open 24 hours"
      },
      {
        "day": "Saturday",
        "hours": "Open 24 hours"
      },
      {
        "day": "Sunday",
        "hours": "Open 24 hours"
      }
    ],
    "imageUrl": "https://media.indianluxurycars.com/google/79145e399bc9d948b26649d23263720b2b0868b1991d1ba536f109727f04d8ce.jpg",
    "url": "https://www.google.com/maps/search/?api=1&query=Self%20drive%20cars%20in%20guntur-satish%20tours%20%26%20travels&query_place_id=ChIJI2XiBG2LNToR_q5ehI6wlT8"
  },
  {
    "title": "Self drive cars Travels",
    "subTitle": "సెల్ఫ్ డ్రైవ్ కార్స్ ట్రావెల్స్",
    "categoryName": "Car dealer",
    "address": "Near Subhani Hotel, Srinivasarao Pet, Guntur, Andhra Pradesh 522004, India",
    "neighborhood": "Srinivasarao Pet",
    "street": "Near Subhani Hotel",
    "city": "Guntur",
    "postalCode": "522004",
    "state": "Andhra Pradesh",
    "countryCode": "IN",
    "phone": "+918555813257",
    "phoneUnformatted": "+918555813257",
    "location": {
      "lat": 16.2896465,
      "lng": 80.4333486
    },
    "totalScore": 5,
    "permanentlyClosed": false,
    "temporarilyClosed": false,
    "placeId": "ChIJpdGdanp1SjoRzI6bVJGa0aA",
    "categories": [
      "Car dealer",
      "Auto broker"
    ],
    "reviewsCount": 1,
    "imagesCount": 4,
    "openingHours": [
      {
        "day": "Monday",
        "hours": "Open 24 hours"
      },
      {
        "day": "Tuesday",
        "hours": "Open 24 hours"
      },
      {
        "day": "Wednesday",
        "hours": "Open 24 hours"
      },
      {
        "day": "Thursday",
        "hours": "Open 24 hours"
      },
      {
        "day": "Friday",
        "hours": "Open 24 hours"
      },
      {
        "day": "Saturday",
        "hours": "Open 24 hours"
      },
      {
        "day": "Sunday",
        "hours": "Open 24 hours"
      }
    ],
    "imageUrl": "https://media.indianluxurycars.com/google/4ece7a6cff0a15d06179bc4cdb3c598acf00603cbd8656a3eec5775c7190629a.jpg",
    "url": "https://www.google.com/maps/search/?api=1&query=Self%20drive%20cars%20Travels&query_place_id=ChIJpdGdanp1SjoRzI6bVJGa0aA"
  },
  {
    "title": "SRI SAI CAR TRAVELS",
    "subTitle": "శ్రీ సాయి కారు ట్రావెల్స్",
    "categoryName": "Car leasing service",
    "address": "beside Oxford school, Brindavan Gardens, Guntur, Andhra Pradesh 522007, India",
    "neighborhood": "Brindavan Gardens",
    "street": "beside Oxford school",
    "city": "Guntur",
    "postalCode": "522007",
    "state": "Andhra Pradesh",
    "countryCode": "IN",
    "phone": "+919849207186",
    "phoneUnformatted": "+919849207186",
    "location": {
      "lat": 16.3156491,
      "lng": 80.4217645
    },
    "totalScore": 4.7,
    "permanentlyClosed": false,
    "temporarilyClosed": false,
    "placeId": "ChIJ_ab0XfN1SjoRAtaf6d__3no",
    "categories": [
      "Car leasing service"
    ],
    "reviewsCount": 16,
    "imagesCount": 109,
    "openingHours": [
      {
        "day": "Monday",
        "hours": "Open 24 hours"
      },
      {
        "day": "Tuesday",
        "hours": "Open 24 hours"
      },
      {
        "day": "Wednesday",
        "hours": "Open 24 hours"
      },
      {
        "day": "Thursday",
        "hours": "Open 24 hours"
      },
      {
        "day": "Friday",
        "hours": "Open 24 hours"
      },
      {
        "day": "Saturday",
        "hours": "Open 24 hours"
      },
      {
        "day": "Sunday",
        "hours": "Open 24 hours"
      }
    ],
    "imageUrl": "https://media.indianluxurycars.com/google/95eb7187665e42a43c782f9f239c666bc4316da8f96dd659fe1083052f3ece34.jpg",
    "url": "https://www.google.com/maps/search/?api=1&query=SRI%20SAI%20CAR%20TRAVELS&query_place_id=ChIJ_ab0XfN1SjoRAtaf6d__3no"
  },
  {
    "title": "Srinivasa Car Bookings",
    "subTitle": "శ్రీనివాస కారు బుకింగ్స్",
    "categoryName": "Car rental agency",
    "address": "Pattabipuram, beside Krishna Mess, Krishna Nagar, Guntur, Andhra Pradesh 522006, India",
    "neighborhood": "Krishna Nagar",
    "street": "Pattabipuram, beside Krishna Mess",
    "city": "Guntur",
    "postalCode": "522006",
    "state": "Andhra Pradesh",
    "countryCode": "IN",
    "phone": "+919908978510",
    "phoneUnformatted": "+919908978510",
    "location": {
      "lat": 16.3086875,
      "lng": 80.4189717
    },
    "totalScore": 4.7,
    "permanentlyClosed": false,
    "temporarilyClosed": false,
    "placeId": "ChIJg8sVWsh1SjoRFPoUUnliiaI",
    "categories": [
      "Car rental agency",
      "Car leasing service",
      "Minibus taxi service",
      "Motoring club",
      "Taxi service"
    ],
    "reviewsCount": 141,
    "imagesCount": 26,
    "openingHours": [
      {
        "day": "Monday",
        "hours": "Open 24 hours"
      },
      {
        "day": "Tuesday",
        "hours": "Open 24 hours"
      },
      {
        "day": "Wednesday",
        "hours": "Open 24 hours"
      },
      {
        "day": "Thursday",
        "hours": "Open 24 hours"
      },
      {
        "day": "Friday",
        "hours": "Open 24 hours"
      },
      {
        "day": "Saturday",
        "hours": "Open 24 hours"
      },
      {
        "day": "Sunday",
        "hours": "Open 24 hours"
      }
    ],
    "imageUrl": "https://media.indianluxurycars.com/google/e3091ba3734dcb8c00ec9868c8226135a4896b0f0a51fc0604ddbdb6bae78ee8.jpg",
    "url": "https://www.google.com/maps/search/?api=1&query=Srinivasa%20Car%20Bookings&query_place_id=ChIJg8sVWsh1SjoRFPoUUnliiaI"
  },
  {
    "title": "The Vip Cars (Travel & Rental)",
    "categoryName": "Car rental agency",
    "address": "VIP Grand, VIP Rd, Guntur, Andhra Pradesh 522004, India",
    "street": "VIP Grand, VIP Rd",
    "city": "Guntur",
    "postalCode": "522004",
    "state": "Andhra Pradesh",
    "countryCode": "IN",
    "website": "http://www.thevipcars.in/",
    "phone": "+919000251215",
    "phoneUnformatted": "+919000251215",
    "location": {
      "lat": 16.2798679,
      "lng": 80.4246323
    },
    "totalScore": 5,
    "permanentlyClosed": false,
    "temporarilyClosed": false,
    "placeId": "ChIJ88QzRLJ1SjoRgLc-gRLbnBk",
    "categories": [
      "Car rental agency"
    ],
    "reviewsCount": 13,
    "imagesCount": 11,
    "openingHours": [],
    "imageUrl": "https://media.indianluxurycars.com/google/fa07f7a02c03fed4c4e3398902d15f73e4b4dd4214dc4e6acf7311d4d38d3b82.jpg",
    "url": "https://www.google.com/maps/search/?api=1&query=The%20Vip%20Cars%20(Travel%20%26%20Rental)&query_place_id=ChIJ88QzRLJ1SjoRgLc-gRLbnBk"
  },
  {
    "title": "VS SELF driving cars",
    "categoryName": "Car rental agency",
    "address": "5th Line, Ananda Theertha Agraharam, Guntur, Andhra Pradesh 522006, India",
    "neighborhood": "Ananda Theertha Agraharam",
    "street": "5th Line",
    "city": "Guntur",
    "postalCode": "522006",
    "state": "Andhra Pradesh",
    "countryCode": "IN",
    "phone": "+917013643340",
    "phoneUnformatted": "+917013643340",
    "location": {
      "lat": 16.3115276,
      "lng": 80.4171802
    },
    "totalScore": 3.7,
    "permanentlyClosed": false,
    "temporarilyClosed": false,
    "placeId": "ChIJhbk8jwJ1SjoRh48q1OqylJ0",
    "categories": [
      "Car rental agency"
    ],
    "reviewsCount": 11,
    "imagesCount": 16,
    "openingHours": [
      {
        "day": "Monday",
        "hours": "Open 24 hours"
      },
      {
        "day": "Tuesday",
        "hours": "Open 24 hours"
      },
      {
        "day": "Wednesday",
        "hours": "Open 24 hours"
      },
      {
        "day": "Thursday",
        "hours": "Open 24 hours"
      },
      {
        "day": "Friday",
        "hours": "Open 24 hours"
      },
      {
        "day": "Saturday",
        "hours": "Open 24 hours"
      },
      {
        "day": "Sunday",
        "hours": "Open 24 hours"
      }
    ],
    "imageUrl": "https://media.indianluxurycars.com/google/e2ed85622e21959376f4a6164974ff87c7d4549f815c621d4a16061d0e5ec964.jpg",
    "url": "https://www.google.com/maps/search/?api=1&query=VS%20SELF%20driving%20cars&query_place_id=ChIJhbk8jwJ1SjoRh48q1OqylJ0"
  }
]
