[
  {
    "title": "Anwar Cars",
    "subTitle": "అన్వర్ కార్లు",
    "categoryName": "Used car dealer",
    "address": "Plot # 1& 2, Block 2, Main Rd, Phase IV, Autonagar, Guntur, Andhra Pradesh 522001, India",
    "neighborhood": "Phase IV, Autonagar",
    "street": "Plot # 1& 2, Block 2, Main Rd",
    "city": "Guntur, Agatavarappadu",
    "postalCode": "522001",
    "state": "Andhra Pradesh",
    "countryCode": "IN",
    "website": "http://www.anwarcars.com/",
    "phone": "+918977333666",
    "phoneUnformatted": "+918977333666",
    "location": {
      "lat": 16.321792,
      "lng": 80.477488
    },
    "totalScore": 4.3,
    "permanentlyClosed": false,
    "temporarilyClosed": false,
    "placeId": "ChIJEYSzfmD1NToR9eFlUJhzcCw",
    "categories": [
      "Used car dealer",
      "Auto insurance agency",
      "Car finance and loan company"
    ],
    "reviewsCount": 40,
    "imagesCount": 169,
    "openingHours": [
      {
        "day": "Monday",
        "hours": "10 AM to 7 PM"
      },
      {
        "day": "Tuesday",
        "hours": "10 AM to 7 PM"
      },
      {
        "day": "Wednesday",
        "hours": "10 AM to 7 PM"
      },
      {
        "day": "Thursday",
        "hours": "10 AM to 7 PM"
      },
      {
        "day": "Friday",
        "hours": "10 AM to 7 PM"
      },
      {
        "day": "Saturday",
        "hours": "10 AM to 7 PM"
      },
      {
        "day": "Sunday",
        "hours": "11 AM to 3 PM"
      }
    ],
    "imageUrl": "https://lh3.googleusercontent.com/gps-cs-s/AG0ilSyMCatk__dfa6HPQFQqsbZe3NM4NzwXbvWRTw-q_JEhM2Rdytzll8V-YIXmjxiis_HhiZxOsChQHq5yYTy7mEF3TGx3aas-NhCIIVxXhkPNOqjnLhSaFo75vPNJowkA7Au8DWmXbw=w533-h240-k-no",
    "url": "https://www.google.com/maps/search/?api=1&query=Anwar%20Cars&query_place_id=ChIJEYSzfmD1NToR9eFlUJhzcCw"
  },
  {
    "title": "Dream car",
    "categoryName": "Car dealer",
    "address": "55-25/15, autonagar Mane road, opp. NISSAN showroom, beside Mahendra showroom, Agatha Varappadu, Guntur, Agatavarappadu, Andhra Pradesh 522001, India",
    "neighborhood": "Agatha Varappadu",
    "street": "55-25/15, autonagar Mane road, opp. NISSAN showroom, beside Mahendra showroom",
    "city": "Guntur, Agatavarappadu",
    "postalCode": "522001",
    "state": "Andhra Pradesh",
    "countryCode": "IN",
    "phone": "+917095187385",
    "phoneUnformatted": "+917095187385",
    "location": {
      "lat": 16.3157107,
      "lng": 80.4701449
    },
    "totalScore": 4.9,
    "permanentlyClosed": false,
    "temporarilyClosed": false,
    "placeId": "ChIJtekAnHYLSjoRadGLyeRf3JM",
    "categories": [
      "Car dealer"
    ],
    "reviewsCount": 38,
    "imagesCount": 89,
    "openingHours": [
      {
        "day": "Monday",
        "hours": "8 AM to 8:30 PM"
      },
      {
        "day": "Tuesday",
        "hours": "8 AM to 8:30 PM"
      },
      {
        "day": "Wednesday",
        "hours": "8 AM to 8:30 PM"
      },
      {
        "day": "Thursday",
        "hours": "8 AM to 8:30 PM"
      },
      {
        "day": "Friday",
        "hours": "8 AM to 8:30 PM"
      },
      {
        "day": "Saturday",
        "hours": "8 AM to 8:30 PM"
      },
      {
        "day": "Sunday",
        "hours": "10 AM to 2 PM"
      }
    ],
    "imageUrl": "https://lh3.googleusercontent.com/p/AF1QipPge9mwSqaZvDWEK4ybhBPywTDpR-QqYFjKliWI=w408-h306-k-no",
    "url": "https://www.google.com/maps/search/?api=1&query=Dream%20car&query_place_id=ChIJtekAnHYLSjoRadGLyeRf3JM"
  },
  {
    "title": "Express Honda",
    "subTitle": "ఎక్స్ప్రెస్ హోండా",
    "categoryName": "Car dealer",
    "address": "Plot No 556, Autonagar, Guntur, Agatavarappadu, Andhra Pradesh 522001, India",
    "neighborhood": "Autonagar",
    "street": "Plot No 556",
    "city": "Guntur, Agatavarappadu",
    "postalCode": "522001",
    "state": "Andhra Pradesh",
    "countryCode": "IN",
    "website": "https://dealer.hondacarindia.com/express-honda-lm-auto-motive-india-pvt-ltd-car-dealer-auto-nagar-guntur-67197/Home",
    "phone": "+918657588816",
    "phoneUnformatted": "+918657588816",
    "location": {
      "lat": 16.3228338,
      "lng": 80.4773853
    },
    "totalScore": 4.4,
    "permanentlyClosed": false,
    "temporarilyClosed": false,
    "placeId": "ChIJg9iVzGb1NToReWD31AxJg-g",
    "categories": [
      "Car dealer",
      "Auto dent removal service",
      "Auto repair shop",
      "Car accessories store",
      "Honda dealer"
    ],
    "reviewsCount": 1096,
    "imagesCount": 218,
    "openingHours": [
      {
        "day": "Monday",
        "hours": "9:30 AM to 6:30 PM"
      },
      {
        "day": "Tuesday",
        "hours": "9:30 AM to 6:30 PM"
      },
      {
        "day": "Wednesday",
        "hours": "9:30 AM to 6:30 PM"
      },
      {
        "day": "Thursday",
        "hours": "9:30 AM to 6:30 PM"
      },
      {
        "day": "Friday",
        "hours": "9:30 AM to 6:30 PM"
      },
      {
        "day": "Saturday",
        "hours": "9:30 AM to 6:30 PM"
      },
      {
        "day": "Sunday",
        "hours": "9:30 AM to 6:30 PM"
      }
    ],
    "imageUrl": "https://lh3.googleusercontent.com/gps-cs-s/AG0ilSzjFwUwangNS5E2eYRhW-FgoRa_jQGY3ybkjk-2TjQyCRRzLhzr_f4wC1ua4saypSK4n-AytBOYQ8Uv9H1DLyEmcuSdR82HccHDQtXfynmS419lpKE7L9UwfIg6KgNQr9uMfkrm=w408-h272-k-no",
    "url": "https://www.google.com/maps/search/?api=1&query=Express%20Honda&query_place_id=ChIJg9iVzGb1NToReWD31AxJg-g"
  }
]
