[
  {
    "title": "Adventurecarz",
    "subTitle": "অদ্ভেন্তুরেকার্জ",
    "categoryName": "Car rental agency",
    "address": "MA Road, Krishna Mandir Path, near Banik Nagar, Rehabari, Guwahati, Assam 781008, India",
    "neighborhood": "Rehabari",
    "street": "MA Road, Krishna Mandir Path, near Banik Nagar",
    "city": "Guwahati",
    "postalCode": "781008",
    "state": "Assam",
    "countryCode": "IN",
    "website": "https://www.instagram.com/adventurecarz/?hl=en",
    "phone": "+917002457987",
    "phoneUnformatted": "+917002457987",
    "location": {
      "lat": 26.1720554,
      "lng": 91.7516767
    },
    "totalScore": 4.9,
    "permanentlyClosed": false,
    "temporarilyClosed": false,
    "placeId": "ChIJ-4ifLjxbWjcR-vR1XYoWJ-c",
    "categories": [
      "Car rental agency",
      "Car leasing service"
    ],
    "reviewsCount": 450,
    "imagesCount": 267,
    "openingHours": [
      {
        "day": "Monday",
        "hours": "Open 24 hours"
      },
      {
        "day": "Tuesday",
        "hours": "Open 24 hours"
      },
      {
        "day": "Wednesday",
        "hours": "Open 24 hours"
      },
      {
        "day": "Thursday",
        "hours": "Open 24 hours"
      },
      {
        "day": "Friday",
        "hours": "Open 24 hours"
      },
      {
        "day": "Saturday",
        "hours": "Open 24 hours"
      },
      {
        "day": "Sunday",
        "hours": "Open 24 hours"
      }
    ],
    "imageUrl": "https://media.indianluxurycars.com/google/d9f0b5e0ae0d3e22e90504a7b32269714657be1714552c4fd96623d63d04ef40.jpg",
    "url": "https://www.google.com/maps/search/?api=1&query=Adventurecarz&query_place_id=ChIJ-4ifLjxbWjcR-vR1XYoWJ-c"
  },
  {
    "title": "Ahija Self Drive",
    "subTitle": "আহিযা",
    "categoryName": "Car rental agency",
    "address": "357 A, Mother Teresa Rd, near Union Bank, Zoo Road Tiniali, Ambikagirinagar, Guwahati, Assam 781024, India",
    "neighborhood": "Zoo Road Tiniali, Ambikagirinagar",
    "street": "357 A, Mother Teresa Rd, near Union Bank",
    "city": "Guwahati",
    "postalCode": "781024",
    "state": "Assam",
    "countryCode": "IN",
    "website": "https://www.ahija.com/",
    "phone": "+917670017670",
    "phoneUnformatted": "+917670017670",
    "location": {
      "lat": 26.1745928,
      "lng": 91.7781218
    },
    "totalScore": 4.4,
    "permanentlyClosed": false,
    "temporarilyClosed": false,
    "placeId": "ChIJOzBGQKFZWjcR4ULoUNy2pVQ",
    "categories": [
      "Car rental agency",
      "Motorcycle rental agency"
    ],
    "reviewsCount": 2684,
    "imagesCount": 932,
    "openingHours": [
      {
        "day": "Monday",
        "hours": "8 AM to 8 PM"
      },
      {
        "day": "Tuesday",
        "hours": "8 AM to 8 PM"
      },
      {
        "day": "Wednesday",
        "hours": "8 AM to 8 PM"
      },
      {
        "day": "Thursday",
        "hours": "8 AM to 8 PM"
      },
      {
        "day": "Friday",
        "hours": "8 AM to 8 PM"
      },
      {
        "day": "Saturday",
        "hours": "8 AM to 8 PM"
      },
      {
        "day": "Sunday",
        "hours": "8 AM to 8 PM"
      }
    ],
    "imageUrl": "https://media.indianluxurycars.com/google/9fe1b5794a05842d253d71e54b3e4c035a9c324715f6a14a4e603596d954997e.jpg",
    "url": "https://www.google.com/maps/search/?api=1&query=Ahija%20Self%20Drive&query_place_id=ChIJOzBGQKFZWjcR4ULoUNy2pVQ"
  },
  {
    "title": "Assam Adventures",
    "categoryName": "Car rental agency",
    "address": "opp. Astc Bus stand, PWD Colony, Paltan Bazaar, Guwahati, Assam 781008, India",
    "neighborhood": "PWD Colony, Paltan Bazaar",
    "street": "opp. Astc Bus stand",
    "city": "Guwahati",
    "postalCode": "781008",
    "state": "Assam",
    "countryCode": "IN",
    "website": "http://www.assamadventures.com/",
    "phone": "+917099216645",
    "phoneUnformatted": "+917099216645",
    "location": {
      "lat": 26.1807308,
      "lng": 91.7499046
    },
    "totalScore": 5,
    "permanentlyClosed": false,
    "temporarilyClosed": false,
    "placeId": "ChIJR4CZrRJbWjcRepYWtzahSo0",
    "categories": [
      "Car rental agency",
      "Airline ticket agency",
      "Travel agency",
      "Sightseeing tour agency",
      "Tour operator",
      "Transportation service"
    ],
    "reviewsCount": 8,
    "imagesCount": 28,
    "openingHours": [
      {
        "day": "Monday",
        "hours": "10 AM to 7 PM"
      },
      {
        "day": "Tuesday",
        "hours": "10 AM to 7 PM"
      },
      {
        "day": "Wednesday",
        "hours": "10 AM to 7 PM"
      },
      {
        "day": "Thursday",
        "hours": "10 AM to 7 PM"
      },
      {
        "day": "Friday",
        "hours": "10 AM to 7 PM"
      },
      {
        "day": "Saturday",
        "hours": "10 AM to 7 PM"
      },
      {
        "day": "Sunday",
        "hours": "10 AM to 7 PM"
      }
    ],
    "imageUrl": "https://media.indianluxurycars.com/google/7eda221bce63967c2e209bf729cfa68ee47eb35da588f8825e16c1a06aca8117.jpg",
    "url": "https://www.google.com/maps/search/?api=1&query=Assam%20Adventures&query_place_id=ChIJR4CZrRJbWjcRepYWtzahSo0"
  },
  {
    "title": "assam holidays",
    "categoryName": "Car rental agency",
    "address": "House no 24, Nilomani Phukan Path, Christian Basti, Guwahati, Assam 781005, India",
    "neighborhood": "Christian Basti",
    "street": "House no 24, Nilomani Phukan Path",
    "city": "Guwahati",
    "postalCode": "781005",
    "state": "Assam",
    "countryCode": "IN",
    "website": "https://assamholidays.com/",
    "phone": "+919678005056",
    "phoneUnformatted": "+919678005056",
    "location": {
      "lat": 26.1574709,
      "lng": 91.7793799
    },
    "totalScore": 4.7,
    "permanentlyClosed": false,
    "temporarilyClosed": false,
    "placeId": "ChIJ60Ym_XdZWjcRdb0uKUfQPn8",
    "categories": [
      "Car rental agency",
      "Airline ticket agency",
      "Car leasing service",
      "Tour agency",
      "Sightseeing tour agency",
      "Taxi service",
      "Tour operator",
      "Transportation service",
      "Travel agency"
    ],
    "reviewsCount": 247,
    "imagesCount": 445,
    "openingHours": [
      {
        "day": "Monday",
        "hours": "10 AM to 7 PM"
      },
      {
        "day": "Tuesday",
        "hours": "10 AM to 7 PM"
      },
      {
        "day": "Wednesday",
        "hours": "10 AM to 7 PM"
      },
      {
        "day": "Thursday",
        "hours": "10 AM to 7 PM"
      },
      {
        "day": "Friday",
        "hours": "10 AM to 7 PM"
      },
      {
        "day": "Saturday",
        "hours": "10 AM to 7 PM"
      },
      {
        "day": "Sunday",
        "hours": "Closed"
      }
    ],
    "imageUrl": "https://media.indianluxurycars.com/google/79ba859bfcd79511eeb81c2f8cf8a53bee2ab003a8e8c003f58cc68263b2f856.jpg",
    "url": "https://www.google.com/maps/search/?api=1&query=assam%20holidays&query_place_id=ChIJ60Ym_XdZWjcRdb0uKUfQPn8"
  },
  {
    "title": "Axom Rental",
    "categoryName": "Car rental agency",
    "address": "Commerce College, Sarbodaya Nagar, near Guwahati, Sasa Alka Enclave, Chandmari, Guwahati, Assam 781021, India",
    "neighborhood": "Sasa Alka Enclave, Chandmari",
    "street": "Commerce College, Sarbodaya Nagar, near Guwahati",
    "city": "Guwahati",
    "postalCode": "781021",
    "state": "Assam",
    "countryCode": "IN",
    "website": "http://axomrental.in/",
    "phone": "+916000544262",
    "phoneUnformatted": "+916000544262",
    "location": {
      "lat": 26.1819779,
      "lng": 91.7758612
    },
    "totalScore": 5,
    "permanentlyClosed": false,
    "temporarilyClosed": false,
    "placeId": "ChIJBSTphVJZWjcRGlMF0768Ogc",
    "categories": [
      "Car rental agency"
    ],
    "reviewsCount": 43,
    "imagesCount": 19,
    "openingHours": [
      {
        "day": "Monday",
        "hours": "Open 24 hours"
      },
      {
        "day": "Tuesday",
        "hours": "Open 24 hours"
      },
      {
        "day": "Wednesday",
        "hours": "Open 24 hours"
      },
      {
        "day": "Thursday",
        "hours": "Open 24 hours"
      },
      {
        "day": "Friday",
        "hours": "Open 24 hours"
      },
      {
        "day": "Saturday",
        "hours": "Open 24 hours"
      },
      {
        "day": "Sunday",
        "hours": "Open 24 hours"
      }
    ],
    "imageUrl": "https://media.indianluxurycars.com/google/7b9463c7c6eb1c5efacb81493e53b3ff9d6e2ab161d27ad2ff5f85bd362cb68d.jpg",
    "url": "https://www.google.com/maps/search/?api=1&query=Axom%20Rental&query_place_id=ChIJBSTphVJZWjcRGlMF0768Ogc"
  },
  {
    "title": "BAJRANG AUTO WORLD / BEST CAR SHOWROOM IN GUWAHATI / BEST SECOND HAND CAR SHOWROOM IN GUWAHATI ASSAM / CAR BAZZAR IN GHY",
    "categoryName": "Car dealer",
    "address": "house no. 2, Pragati Path, Lal Ganesh, Guwahati, Assam 781034, India",
    "neighborhood": "Lal Ganesh",
    "street": "house no. 2, Pragati Path",
    "city": "Guwahati",
    "postalCode": "781034",
    "state": "Assam",
    "countryCode": "IN",
    "phone": "+919395291654",
    "phoneUnformatted": "+919395291654",
    "location": {
      "lat": 26.1404936,
      "lng": 91.7446141
    },
    "totalScore": 5,
    "permanentlyClosed": false,
    "temporarilyClosed": false,
    "placeId": "ChIJ6xmlFZtbWjcRANYHSdu8fNo",
    "categories": [
      "Car dealer"
    ],
    "reviewsCount": 8,
    "imagesCount": 170,
    "openingHours": [
      {
        "day": "Monday",
        "hours": "9 AM to 11 PM"
      },
      {
        "day": "Tuesday",
        "hours": "9 AM to 11 PM"
      },
      {
        "day": "Wednesday",
        "hours": "9 AM to 11 PM"
      },
      {
        "day": "Thursday",
        "hours": "9 AM to 11 PM"
      },
      {
        "day": "Friday",
        "hours": "9 AM to 11 PM"
      },
      {
        "day": "Saturday",
        "hours": "9 AM to 11 PM"
      },
      {
        "day": "Sunday",
        "hours": "9 AM to 11 PM"
      }
    ],
    "imageUrl": "https://media.indianluxurycars.com/google/86821a67e477062c7a0958ea1a93a7cc4a1253b0c8400700deec1a2f2f3444c2.jpg",
    "url": "https://www.google.com/maps/search/?api=1&query=BAJRANG%20AUTO%20WORLD%20%2F%20BEST%20CAR%20SHOWROOM%20IN%20GUWAHATI%20%2F%20BEST%20SECOND%20HAND%20CAR%20SHOWROOM%20IN%20GUWAHATI%20ASSAM%20%2F%20CAR%20BAZZAR%20IN%20GHY&query_place_id=ChIJ6xmlFZtbWjcRANYHSdu8fNo"
  },
  {
    "title": "Cabinnortheast.in - Best Taxi Services & Tours and Travels in Guwahati, Meghalaya & Arunachal Pradesh",
    "categoryName": "Car leasing service",
    "address": "Ulubari, Paltan Bazaar, Guwahati, Assam 781008, India",
    "neighborhood": "Paltan Bazaar",
    "street": "Ulubari",
    "city": "Guwahati",
    "postalCode": "781008",
    "state": "Assam",
    "countryCode": "IN",
    "website": "http://cabinnortheast.in/",
    "phone": "+918453728848",
    "phoneUnformatted": "+918453728848",
    "location": {
      "lat": 26.1792425,
      "lng": 91.7532828
    },
    "totalScore": 4.8,
    "permanentlyClosed": false,
    "temporarilyClosed": false,
    "placeId": "ChIJ_w71oxtZWjcRjQkO_56v4Vg",
    "categories": [
      "Car leasing service",
      "Taxi service",
      "Tour operator",
      "Travel agency"
    ],
    "reviewsCount": 274,
    "imagesCount": 54,
    "openingHours": [],
    "imageUrl": "https://media.indianluxurycars.com/google/741d26947d1bd870ad039da54da24d21b0f2cce35a8eddefb72b555ec4194c07.jpg",
    "url": "https://www.google.com/maps/search/?api=1&query=Cabinnortheast.in%20-%20Best%20Taxi%20Services%20%26%20Tours%20and%20Travels%20in%20Guwahati%2C%20Meghalaya%20%26%20Arunachal%20Pradesh&query_place_id=ChIJ_w71oxtZWjcRjQkO_56v4Vg"
  },
  {
    "title": "CAR CLUB",
    "subTitle": "কার ক্লাব",
    "categoryName": "Car dealer",
    "address": "Rajgarh Rd, Opposite Swagatam Path, Bhangagarh, Guwahati, Assam 781007, India",
    "neighborhood": "Bhangagarh",
    "street": "Rajgarh Rd, Opposite Swagatam Path",
    "city": "Guwahati",
    "postalCode": "781007",
    "state": "Assam",
    "countryCode": "IN",
    "website": "https://www.instagram.com/carclubghy?igsh=MW5lNmFrbHdleTBlcQ==",
    "phone": "+919864203666",
    "phoneUnformatted": "+919864203666",
    "location": {
      "lat": 26.1700129,
      "lng": 91.770615
    },
    "totalScore": 4.6,
    "permanentlyClosed": false,
    "temporarilyClosed": false,
    "placeId": "ChIJdTotr3VZWjcRlnWM6KT2apE",
    "categories": [
      "Car dealer",
      "Auto accessories wholesaler",
      "Auto air conditioning service",
      "Auto parts store",
      "Auto window tinting service",
      "Car accessories store",
      "Used car dealer"
    ],
    "reviewsCount": 329,
    "imagesCount": 587,
    "openingHours": [
      {
        "day": "Monday",
        "hours": "10:30 AM to 8 PM"
      },
      {
        "day": "Tuesday",
        "hours": "10:30 AM to 8 PM"
      },
      {
        "day": "Wednesday",
        "hours": "10:30 AM to 8 PM"
      },
      {
        "day": "Thursday",
        "hours": "10:30 AM to 8 PM"
      },
      {
        "day": "Friday",
        "hours": "10:30 AM to 8 PM"
      },
      {
        "day": "Saturday",
        "hours": "10:30 AM to 8 PM"
      },
      {
        "day": "Sunday",
        "hours": "Closed"
      }
    ],
    "imageUrl": "https://media.indianluxurycars.com/google/988c4f6c8130189ea22b6597f16d9f1256c3885504ca8ad1873b086eee2556e9.jpg",
    "url": "https://www.google.com/maps/search/?api=1&query=CAR%20CLUB&query_place_id=ChIJdTotr3VZWjcRlnWM6KT2apE"
  },
  {
    "title": "CAR FOR HIRE",
    "categoryName": "Car rental agency",
    "address": "5PFX+7MG, AK Azad Rd, Rehabari, Guwahati, Assam 781008, India",
    "neighborhood": "Rehabari",
    "street": "5PFX+7MG, AK Azad Rd",
    "city": "Guwahati",
    "postalCode": "781008",
    "state": "Assam",
    "countryCode": "IN",
    "phone": "+918474837895",
    "phoneUnformatted": "+918474837895",
    "location": {
      "lat": 26.1731929,
      "lng": 91.7491932
    },
    "totalScore": 4.3,
    "permanentlyClosed": false,
    "temporarilyClosed": false,
    "placeId": "ChIJpzDQVytaWjcR9F7UWQAinWU",
    "categories": [
      "Car rental agency"
    ],
    "reviewsCount": 20,
    "imagesCount": 3,
    "openingHours": [
      {
        "day": "Monday",
        "hours": "9 AM to 5 PM"
      },
      {
        "day": "Tuesday",
        "hours": "9 AM to 5 PM"
      },
      {
        "day": "Wednesday",
        "hours": "9 AM to 5 PM"
      },
      {
        "day": "Thursday",
        "hours": "9 AM to 5 PM"
      },
      {
        "day": "Friday",
        "hours": "9 AM to 5 PM"
      },
      {
        "day": "Saturday",
        "hours": "9 AM to 5 PM"
      },
      {
        "day": "Sunday",
        "hours": "9 AM to 5 PM"
      }
    ],
    "imageUrl": "https://media.indianluxurycars.com/google/408d96a5e7a5fbd7e1560251885ef4698ba51f3ead75d1e8e9b8edb99300113b.jpg",
    "url": "https://www.google.com/maps/search/?api=1&query=CAR%20FOR%20HIRE&query_place_id=ChIJpzDQVytaWjcR9F7UWQAinWU"
  },
  {
    "title": "Car Rental Guwahati | EzyRide",
    "categoryName": "Car rental agency",
    "address": "Assam Trunk Rd, Paltan Bazaar, Guwahati, Assam 781001, India",
    "neighborhood": "Paltan Bazaar",
    "street": "Assam Trunk Rd",
    "city": "Guwahati",
    "postalCode": "781001",
    "state": "Assam",
    "countryCode": "IN",
    "phone": "+918069645044",
    "phoneUnformatted": "+918069645044",
    "location": {
      "lat": 26.1805901,
      "lng": 91.7465219
    },
    "totalScore": 4.8,
    "permanentlyClosed": false,
    "temporarilyClosed": false,
    "placeId": "ChIJb8W2zLlbWjcRVxYFphOIb88",
    "categories": [
      "Car rental agency"
    ],
    "reviewsCount": 24,
    "imagesCount": 8,
    "openingHours": [
      {
        "day": "Monday",
        "hours": "Open 24 hours"
      },
      {
        "day": "Tuesday",
        "hours": "Open 24 hours"
      },
      {
        "day": "Wednesday",
        "hours": "Open 24 hours"
      },
      {
        "day": "Thursday",
        "hours": "Open 24 hours"
      },
      {
        "day": "Friday",
        "hours": "Open 24 hours"
      },
      {
        "day": "Saturday",
        "hours": "Open 24 hours"
      },
      {
        "day": "Sunday",
        "hours": "Open 24 hours"
      }
    ],
    "imageUrl": "https://media.indianluxurycars.com/google/f4d9d8df3c0a4747b4cd152d201ed8562f9a6c1cf11e64bc5447d1f469e7663f.jpg",
    "url": "https://www.google.com/maps/search/?api=1&query=Car%20Rental%20Guwahati%20%7C%20EzyRide&query_place_id=ChIJb8W2zLlbWjcRVxYFphOIb88"
  },
  {
    "title": "CarBike24",
    "categoryName": "Used car dealer",
    "address": "Bongshar, Jonaknagar, Kahilipara, Guwahati, Assam 781019, India",
    "neighborhood": "Bongshar, Jonaknagar, Kahilipara",
    "city": "Guwahati",
    "postalCode": "781019",
    "state": "Assam",
    "countryCode": "IN",
    "website": "https://carbike24.com/",
    "location": {
      "lat": 26.1409266,
      "lng": 91.762682
    },
    "permanentlyClosed": false,
    "temporarilyClosed": false,
    "placeId": "ChIJoTKmKTVZWjcR5VL_uBrKyPM",
    "categories": [
      "Used car dealer"
    ],
    "imagesCount": 1,
    "openingHours": [
      {
        "day": "Monday",
        "hours": "9 AM to 8 PM"
      },
      {
        "day": "Tuesday",
        "hours": "9 AM to 8 PM"
      },
      {
        "day": "Wednesday",
        "hours": "9 AM to 8 PM"
      },
      {
        "day": "Thursday",
        "hours": "9 AM to 8 PM"
      },
      {
        "day": "Friday",
        "hours": "9 AM to 8 PM"
      },
      {
        "day": "Saturday",
        "hours": "9 AM to 8 PM"
      },
      {
        "day": "Sunday",
        "hours": "9 AM to 8 PM"
      }
    ],
    "imageUrl": "https://media.indianluxurycars.com/google/4b19e1dabd2861cf0069ac60e477ea377694e02bdd37ede7d525ca1a7501c3ae.jpg",
    "url": "https://www.google.com/maps/search/?api=1&query=CarBike24&query_place_id=ChIJoTKmKTVZWjcR5VL_uBrKyPM"
  },
  {
    "title": "Chalo Apni Rides - Self driving car for Northeast",
    "categoryName": "Car rental agency",
    "address": "binova nagar, Binowa Nagar, Kala Pahar, Guwahati, Assam 781018, India",
    "neighborhood": "Binowa Nagar, Kala Pahar",
    "street": "binova nagar",
    "city": "Guwahati",
    "postalCode": "781018",
    "state": "Assam",
    "countryCode": "IN",
    "website": "http://chaloapnirides.com/",
    "phone": "+917002641316",
    "phoneUnformatted": "+917002641316",
    "location": {
      "lat": 26.1523285,
      "lng": 91.7430348
    },
    "totalScore": 5,
    "permanentlyClosed": false,
    "temporarilyClosed": false,
    "placeId": "ChIJN97346FbWjcReLoyUS8c8u0",
    "categories": [
      "Car rental agency"
    ],
    "reviewsCount": 59,
    "imagesCount": 119,
    "openingHours": [
      {
        "day": "Monday",
        "hours": "Open 24 hours"
      },
      {
        "day": "Tuesday",
        "hours": "Open 24 hours"
      },
      {
        "day": "Wednesday",
        "hours": "Open 24 hours"
      },
      {
        "day": "Thursday",
        "hours": "Open 24 hours"
      },
      {
        "day": "Friday",
        "hours": "Open 24 hours"
      },
      {
        "day": "Saturday",
        "hours": "Open 24 hours"
      },
      {
        "day": "Sunday",
        "hours": "Open 24 hours"
      }
    ],
    "imageUrl": "https://media.indianluxurycars.com/google/1843c40c4408f4f35517e675a693ccbb8ed8045d7001d032d801aec72531fbc3.jpg",
    "url": "https://www.google.com/maps/search/?api=1&query=Chalo%20Apni%20Rides%20-%20Self%20driving%20car%20for%20Northeast&query_place_id=ChIJN97346FbWjcReLoyUS8c8u0"
  },
  {
    "title": "Cozy Car",
    "subTitle": "কোজি কার",
    "categoryName": "Car stereo store",
    "address": "1St, Purabi Complex, Near Vishal Mega Mart, Paltan Bazaar, Guwahati, Assam 781001, India",
    "neighborhood": "Near Vishal Mega Mart, Paltan Bazaar",
    "street": "1St, Purabi Complex",
    "city": "Guwahati",
    "postalCode": "781001",
    "state": "Assam",
    "countryCode": "IN",
    "phone": "+917080601376",
    "phoneUnformatted": "+917080601376",
    "location": {
      "lat": 26.1805084,
      "lng": 91.7455222
    },
    "totalScore": 5,
    "permanentlyClosed": false,
    "temporarilyClosed": false,
    "placeId": "ChIJnQ7fRi5aWjcRFeMnD5YNGHs",
    "categories": [
      "Car stereo store",
      "Car accessories store",
      "GPS supplier"
    ],
    "reviewsCount": 54,
    "imagesCount": 13,
    "openingHours": [
      {
        "day": "Monday",
        "hours": "10 AM to 7:30 PM"
      },
      {
        "day": "Tuesday",
        "hours": "10 AM to 7:30 PM"
      },
      {
        "day": "Wednesday",
        "hours": "10 AM to 7:30 PM"
      },
      {
        "day": "Thursday",
        "hours": "10 AM to 7:30 PM"
      },
      {
        "day": "Friday",
        "hours": "10 AM to 7:30 PM"
      },
      {
        "day": "Saturday",
        "hours": "10 AM to 7:30 PM"
      },
      {
        "day": "Sunday",
        "hours": "Closed"
      }
    ],
    "imageUrl": "https://media.indianluxurycars.com/google/28c1bb78f8ff825463b2925c9565514df3233c76da14105fcc8837560437cbc3.jpg",
    "url": "https://www.google.com/maps/search/?api=1&query=Cozy%20Car&query_place_id=ChIJnQ7fRi5aWjcRFeMnD5YNGHs"
  },
  {
    "title": "Drive365",
    "categoryName": "Car rental agency",
    "address": "3rd Floor, Dr BK Kakati Rd, near HDFC Bank Pashupati Complex, Ulubari, Guwahati, Assam 781007, India",
    "neighborhood": "Ulubari",
    "street": "3rd Floor, Dr BK Kakati Rd, near HDFC Bank Pashupati Complex",
    "city": "Guwahati",
    "postalCode": "781007",
    "state": "Assam",
    "countryCode": "IN",
    "location": {
      "lat": 26.1702835,
      "lng": 91.7550397
    },
    "totalScore": 4.9,
    "permanentlyClosed": false,
    "temporarilyClosed": false,
    "placeId": "ChIJ2wmOVV9ZWjcRMofRk5x74EY",
    "categories": [
      "Car rental agency"
    ],
    "reviewsCount": 29,
    "imagesCount": 6,
    "openingHours": [
      {
        "day": "Monday",
        "hours": "Open 24 hours"
      },
      {
        "day": "Tuesday",
        "hours": "Open 24 hours"
      },
      {
        "day": "Wednesday",
        "hours": "Open 24 hours"
      },
      {
        "day": "Thursday",
        "hours": "Open 24 hours"
      },
      {
        "day": "Friday",
        "hours": "Open 24 hours"
      },
      {
        "day": "Saturday",
        "hours": "Open 24 hours"
      },
      {
        "day": "Sunday",
        "hours": "Open 24 hours"
      }
    ],
    "imageUrl": "https://media.indianluxurycars.com/google/374357f859bf9851b8446ffc477a211d720b2a03551acc5cca94272b26e05975.png",
    "url": "https://www.google.com/maps/search/?api=1&query=Drive365&query_place_id=ChIJ2wmOVV9ZWjcRMofRk5x74EY"
  },
  {
    "title": "EaseMyDrives",
    "categoryName": "Car leasing service",
    "address": "Byelane 06, Hno 47, ABC, Tarun Nagar, Guwahati, Assam 781024, India",
    "neighborhood": "Tarun Nagar",
    "street": "Byelane 06, Hno 47, ABC",
    "city": "Guwahati",
    "postalCode": "781024",
    "state": "Assam",
    "countryCode": "IN",
    "phone": "+918638133088",
    "phoneUnformatted": "+918638133088",
    "location": {
      "lat": 26.1641158,
      "lng": 91.7747249
    },
    "totalScore": 5,
    "permanentlyClosed": false,
    "temporarilyClosed": false,
    "placeId": "ChIJN2X1bk5ZWjcRsJwrAV-vaCg",
    "categories": [
      "Car leasing service"
    ],
    "reviewsCount": 36,
    "imagesCount": 13,
    "openingHours": [
      {
        "day": "Monday",
        "hours": "Open 24 hours"
      },
      {
        "day": "Tuesday",
        "hours": "Open 24 hours"
      },
      {
        "day": "Wednesday",
        "hours": "Open 24 hours"
      },
      {
        "day": "Thursday",
        "hours": "Open 24 hours"
      },
      {
        "day": "Friday",
        "hours": "Open 24 hours"
      },
      {
        "day": "Saturday",
        "hours": "Open 24 hours"
      },
      {
        "day": "Sunday",
        "hours": "Open 24 hours"
      }
    ],
    "imageUrl": "https://media.indianluxurycars.com/google/1a71916113a4e459974d58d6e93f0071043b4f081c1d81fad19552e571c4d5e4.png",
    "url": "https://www.google.com/maps/search/?api=1&query=EaseMyDrives&query_place_id=ChIJN2X1bk5ZWjcRsJwrAV-vaCg"
  },
  {
    "title": "Galaxy Holidays self drive car rental !! Guwahati",
    "categoryName": "Car leasing service",
    "address": "Namghar Path, near Pragjyotish College, Santipur, Guwahati, Assam 781009, India",
    "neighborhood": "Santipur",
    "street": "Namghar Path, near Pragjyotish College",
    "city": "Guwahati",
    "postalCode": "781009",
    "state": "Assam",
    "countryCode": "IN",
    "phone": "+918812062865",
    "phoneUnformatted": "+918812062865",
    "location": {
      "lat": 26.168104,
      "lng": 91.7299186
    },
    "totalScore": 4.8,
    "permanentlyClosed": false,
    "temporarilyClosed": false,
    "placeId": "ChIJFUpXOQJbWjcRFLYOy984tRo",
    "categories": [
      "Car leasing service",
      "Travel agency"
    ],
    "reviewsCount": 20,
    "imagesCount": 20,
    "openingHours": [
      {
        "day": "Monday",
        "hours": "Open 24 hours"
      },
      {
        "day": "Tuesday",
        "hours": "Open 24 hours"
      },
      {
        "day": "Wednesday",
        "hours": "Open 24 hours"
      },
      {
        "day": "Thursday",
        "hours": "Open 24 hours"
      },
      {
        "day": "Friday",
        "hours": "Open 24 hours"
      },
      {
        "day": "Saturday",
        "hours": "Open 24 hours"
      },
      {
        "day": "Sunday",
        "hours": "Open 24 hours"
      }
    ],
    "imageUrl": "https://media.indianluxurycars.com/google/a2afa4580ca7a56b68107498093acfa7ee34458283e15f874aaef8db22ac262f.jpg",
    "url": "https://www.google.com/maps/search/?api=1&query=Galaxy%20Holidays%20self%20drive%20car%20rental%20!!%20Guwahati&query_place_id=ChIJFUpXOQJbWjcRFLYOy984tRo"
  },
  {
    "title": "Go Carsz",
    "categoryName": "Car rental agency",
    "address": "2nd Floor, Shop No. 207 ABC, Dona Planet, ABC Point, Guwahati, Assam 781005, India",
    "neighborhood": "ABC Point",
    "street": "2nd Floor, Shop No. 207 ABC, Dona Planet",
    "city": "Guwahati",
    "postalCode": "781005",
    "state": "Assam",
    "countryCode": "IN",
    "location": {
      "lat": 26.1610485,
      "lng": 91.7723294
    },
    "totalScore": 3.2,
    "permanentlyClosed": false,
    "temporarilyClosed": false,
    "placeId": "ChIJ8TxEkZhZWjcRvB6bWmrodVE",
    "categories": [
      "Car rental agency"
    ],
    "reviewsCount": 13,
    "imagesCount": 15,
    "openingHours": [
      {
        "day": "Monday",
        "hours": "8 AM to 9 PM"
      },
      {
        "day": "Tuesday",
        "hours": "8 AM to 9 PM"
      },
      {
        "day": "Wednesday",
        "hours": "8 AM to 9 PM"
      },
      {
        "day": "Thursday",
        "hours": "8 AM to 9 PM"
      },
      {
        "day": "Friday",
        "hours": "8 AM to 9 PM"
      },
      {
        "day": "Saturday",
        "hours": "8 AM to 9 PM"
      },
      {
        "day": "Sunday",
        "hours": "8 AM to 9 PM"
      }
    ],
    "imageUrl": "https://media.indianluxurycars.com/google/3df95f625f957a4fff7d9ff037f4b625c8019dbe089dd222e8649a785d8ff85d.jpg",
    "url": "https://www.google.com/maps/search/?api=1&query=Go%20Carsz&query_place_id=ChIJ8TxEkZhZWjcRvB6bWmrodVE"
  },
  {
    "title": "GREEN VALLEY RENTALS || Car Rental Agency in Guwahati",
    "categoryName": "Car leasing service",
    "address": "Green Valley Complex, Maniram Dewan Rd, Silpukhuri, Krishna Nagar, Chandmari, Guwahati, Assam 781003, India",
    "neighborhood": "Silpukhuri, Krishna Nagar, Chandmari",
    "street": "Green Valley Complex, Maniram Dewan Rd",
    "city": "Guwahati",
    "postalCode": "781003",
    "state": "Assam",
    "countryCode": "IN",
    "location": {
      "lat": 26.1845327,
      "lng": 91.7657669
    },
    "totalScore": 5,
    "permanentlyClosed": false,
    "temporarilyClosed": false,
    "placeId": "ChIJFRy_m0FZWjcRsKtJlI9TMYw",
    "categories": [
      "Car leasing service"
    ],
    "reviewsCount": 4,
    "imagesCount": 7,
    "openingHours": [
      {
        "day": "Monday",
        "hours": "Open 24 hours"
      },
      {
        "day": "Tuesday",
        "hours": "Open 24 hours"
      },
      {
        "day": "Wednesday",
        "hours": "Open 24 hours"
      },
      {
        "day": "Thursday",
        "hours": "Open 24 hours"
      },
      {
        "day": "Friday",
        "hours": "Open 24 hours"
      },
      {
        "day": "Saturday",
        "hours": "Open 24 hours"
      },
      {
        "day": "Sunday",
        "hours": "Open 24 hours"
      }
    ],
    "imageUrl": "https://media.indianluxurycars.com/google/77fb21f138422e2488ffdb410242cf03a3aa34bb17c4d36e09a674a0d4f66d45.png",
    "url": "https://www.google.com/maps/search/?api=1&query=GREEN%20VALLEY%20RENTALS%20%7C%7C%20Car%20Rental%20Agency%20in%20Guwahati&query_place_id=ChIJFRy_m0FZWjcRsKtJlI9TMYw"
  },
  {
    "title": "Green Valley Travels Yamaha - Silpukhuri",
    "categoryName": "Motorcycle dealer",
    "address": "Maniram Dewan Rd, opposite Reliance Digital Showroom, Silpukhuri, Krishna Nagar, Chandmari, Guwahati, Assam 781003, India",
    "neighborhood": "Silpukhuri, Krishna Nagar, Chandmari",
    "street": "Maniram Dewan Rd, opposite Reliance Digital Showroom",
    "city": "Guwahati",
    "postalCode": "781003",
    "state": "Assam",
    "countryCode": "IN",
    "phone": "+917578800999",
    "phoneUnformatted": "+917578800999",
    "location": {
      "lat": 26.184632,
      "lng": 91.7656488
    },
    "totalScore": 3.8,
    "permanentlyClosed": false,
    "temporarilyClosed": false,
    "placeId": "ChIJ74BFbzNfWjcRC_VWOPDgMj8",
    "categories": [
      "Motorcycle dealer",
      "Motor vehicle dealer"
    ],
    "reviewsCount": 553,
    "imagesCount": 125,
    "openingHours": [
      {
        "day": "Monday",
        "hours": "9:30 AM to 8:30 PM"
      },
      {
        "day": "Tuesday",
        "hours": "9:30 AM to 8:30 PM"
      },
      {
        "day": "Wednesday",
        "hours": "9:30 AM to 8:30 PM"
      },
      {
        "day": "Thursday",
        "hours": "9:30 AM to 8:30 PM"
      },
      {
        "day": "Friday",
        "hours": "9:30 AM to 8:30 PM"
      },
      {
        "day": "Saturday",
        "hours": "9:30 AM to 8:30 PM"
      },
      {
        "day": "Sunday",
        "hours": "9:30 AM to 5 PM"
      }
    ],
    "imageUrl": "https://media.indianluxurycars.com/google/4c96b9e7c0b6378a6f57045e185b8b0458f3a16ae24b997b55cd82089d162659.jpg",
    "url": "https://www.google.com/maps/search/?api=1&query=Green%20Valley%20Travels%20Yamaha%20-%20Silpukhuri&query_place_id=ChIJ74BFbzNfWjcRC_VWOPDgMj8"
  },
  {
    "title": "Guwahati Self Drive",
    "subTitle": "গুয়াহাটি সেলফ ড্রাইভ",
    "categoryName": "Car rental agency",
    "address": "ABC, Dona Planet, GS Rd, behind Pallavi motors, ABC Point, Guwahati, Assam 781005, India",
    "neighborhood": "ABC Point",
    "street": "ABC, Dona Planet, GS Rd, behind Pallavi motors",
    "city": "Guwahati",
    "postalCode": "781005",
    "state": "Assam",
    "countryCode": "IN",
    "website": "http://www.guwahatiselfdrive.in/",
    "phone": "+919864679195",
    "phoneUnformatted": "+919864679195",
    "location": {
      "lat": 26.1610625,
      "lng": 91.7722809
    },
    "totalScore": 4.3,
    "permanentlyClosed": false,
    "temporarilyClosed": false,
    "placeId": "ChIJy8U7ZNdYWjcRHl6FGbnO6YI",
    "categories": [
      "Car rental agency"
    ],
    "reviewsCount": 376,
    "imagesCount": 229,
    "openingHours": [
      {
        "day": "Monday",
        "hours": "Open 24 hours"
      },
      {
        "day": "Tuesday",
        "hours": "Open 24 hours"
      },
      {
        "day": "Wednesday",
        "hours": "Open 24 hours"
      },
      {
        "day": "Thursday",
        "hours": "Open 24 hours"
      },
      {
        "day": "Friday",
        "hours": "Open 24 hours"
      },
      {
        "day": "Saturday",
        "hours": "Open 24 hours"
      },
      {
        "day": "Sunday",
        "hours": "Open 24 hours"
      }
    ],
    "imageUrl": "https://media.indianluxurycars.com/google/d716f2f98611e231562b782c5053e47eebe0ea6de5b47c12973819af76a96cd2.jpg",
    "url": "https://www.google.com/maps/search/?api=1&query=Guwahati%20Self%20Drive&query_place_id=ChIJy8U7ZNdYWjcRHl6FGbnO6YI"
  },
  {
    "title": "High Hills Travelz (Registered Under Assam Tourism)",
    "categoryName": "Car rental agency",
    "address": "HN3, Tetelital Path, Shanti Nagar, Odalbakra, Kahilipara, Guwahati, Assam 781034, India",
    "neighborhood": "Shanti Nagar, Odalbakra, Kahilipara",
    "street": "HN3, Tetelital Path",
    "city": "Guwahati",
    "postalCode": "781034",
    "state": "Assam",
    "countryCode": "IN",
    "website": "https://www.highhills.co.in/",
    "phone": "+918638908348",
    "phoneUnformatted": "+918638908348",
    "location": {
      "lat": 26.1413401,
      "lng": 91.7538645
    },
    "totalScore": 4.8,
    "permanentlyClosed": false,
    "temporarilyClosed": false,
    "placeId": "ChIJCaWcqC9bWjcRmBaAyAgQ9YI",
    "categories": [
      "Car rental agency",
      "Car leasing service",
      "Travel agency",
      "Sightseeing tour agency",
      "Tour operator"
    ],
    "reviewsCount": 92,
    "imagesCount": 82,
    "openingHours": [
      {
        "day": "Monday",
        "hours": "11 AM to 7 PM"
      },
      {
        "day": "Tuesday",
        "hours": "11 AM to 7 PM"
      },
      {
        "day": "Wednesday",
        "hours": "11 AM to 7 PM"
      },
      {
        "day": "Thursday",
        "hours": "11 AM to 7 PM"
      },
      {
        "day": "Friday",
        "hours": "11 AM to 7 PM"
      },
      {
        "day": "Saturday",
        "hours": "11 AM to 3:30 PM"
      },
      {
        "day": "Sunday",
        "hours": "Closed"
      }
    ],
    "imageUrl": "https://media.indianluxurycars.com/google/d0d1dbafa74d3b67822b20529840b5118d22ba51f6c49242f23cb6f060186d3a.png",
    "url": "https://www.google.com/maps/search/?api=1&query=High%20Hills%20Travelz%20(Registered%20Under%20Assam%20Tourism)&query_place_id=ChIJCaWcqC9bWjcRmBaAyAgQ9YI"
  },
  {
    "title": "Huge Commercial Tours & Travels",
    "subTitle": "হিউজ কমার্শিয়াল ট্যুরস & ট্রাভেলস",
    "categoryName": "Car rental agency",
    "address": "House No, Markandaw Bhavan, 2, Nayanpur Rd, GMC Ward Number 44, Ganeshguri, Guwahati, Assam 781006, India",
    "neighborhood": "GMC Ward Number 44, Ganeshguri",
    "street": "House No, Markandaw Bhavan, 2, Nayanpur Rd",
    "city": "Guwahati",
    "postalCode": "781006",
    "state": "Assam",
    "countryCode": "IN",
    "website": "http://www.hugecarrentals.com/",
    "phone": "+919435108482",
    "phoneUnformatted": "+919435108482",
    "location": {
      "lat": 26.1501529,
      "lng": 91.7853265
    },
    "totalScore": 4.3,
    "permanentlyClosed": false,
    "temporarilyClosed": false,
    "placeId": "ChIJV-6wtSNZWjcRg7w6N89mG3M",
    "categories": [
      "Car rental agency",
      "Boat rental service",
      "Canoe & kayak tour agency",
      "Sightseeing tour agency",
      "Tent rental service",
      "Tour agency",
      "Tour operator",
      "Travel agency"
    ],
    "reviewsCount": 48,
    "imagesCount": 122,
    "openingHours": [
      {
        "day": "Monday",
        "hours": "9 AM to 9 PM"
      },
      {
        "day": "Tuesday",
        "hours": "9 AM to 9 PM"
      },
      {
        "day": "Wednesday",
        "hours": "9 AM to 9 PM"
      },
      {
        "day": "Thursday",
        "hours": "9 AM to 9 PM"
      },
      {
        "day": "Friday",
        "hours": "9 AM to 9 PM"
      },
      {
        "day": "Saturday",
        "hours": "9 AM to 9 PM"
      },
      {
        "day": "Sunday",
        "hours": "9 AM to 12 PM"
      }
    ],
    "imageUrl": "https://media.indianluxurycars.com/google/734ddbb9f4eece25660b5ad55e92ca97ca865e60669db3317d53d8fca5b662f0.jpg",
    "url": "https://www.google.com/maps/search/?api=1&query=Huge%20Commercial%20Tours%20%26%20Travels&query_place_id=ChIJV-6wtSNZWjcRg7w6N89mG3M"
  },
  {
    "title": "JD North East Tour And Travels",
    "categoryName": "Car rental agency",
    "address": "Odalbakra, Lal Ganesh, Guwahati, Assam 781034, India",
    "neighborhood": "Odalbakra, Lal Ganesh",
    "city": "Guwahati",
    "postalCode": "781034",
    "state": "Assam",
    "countryCode": "IN",
    "phone": "+918131936447",
    "phoneUnformatted": "+918131936447",
    "location": {
      "lat": 26.1383576,
      "lng": 91.7516553
    },
    "totalScore": 4.8,
    "permanentlyClosed": false,
    "temporarilyClosed": false,
    "placeId": "ChIJNTvS4DZbWjcR7ikx9icXkIM",
    "categories": [
      "Car rental agency",
      "Travel agency",
      "Tour operator"
    ],
    "reviewsCount": 6,
    "imagesCount": 1,
    "openingHours": [
      {
        "day": "Monday",
        "hours": "Open 24 hours"
      },
      {
        "day": "Tuesday",
        "hours": "Open 24 hours"
      },
      {
        "day": "Wednesday",
        "hours": "Open 24 hours"
      },
      {
        "day": "Thursday",
        "hours": "Open 24 hours"
      },
      {
        "day": "Friday",
        "hours": "Open 24 hours"
      },
      {
        "day": "Saturday",
        "hours": "Open 24 hours"
      },
      {
        "day": "Sunday",
        "hours": "Open 24 hours"
      }
    ],
    "imageUrl": "https://media.indianluxurycars.com/google/3e99632722696629155214ba4a9c9da7966d5fa8a5c81bd367f4a2851aa256af.jpg",
    "url": "https://www.google.com/maps/search/?api=1&query=JD%20North%20East%20Tour%20And%20Travels&query_place_id=ChIJNTvS4DZbWjcR7ikx9icXkIM"
  },
  {
    "title": "Kamakshi Tours",
    "categoryName": "Car leasing service",
    "address": "House No : 109, Room No: 1, 2nd Floor, Dr BK Kakati Rd, South Sarania, Manipuri Rajbari, Ulubari, Guwahati, Assam 781007, India",
    "neighborhood": "South Sarania, Manipuri Rajbari, Ulubari",
    "street": "House No : 109, Room No: 1, 2nd Floor, Dr BK Kakati Rd",
    "city": "Guwahati",
    "postalCode": "781007",
    "state": "Assam",
    "countryCode": "IN",
    "website": "https://www.kamakshitours.com/",
    "phone": "+919864047996",
    "phoneUnformatted": "+919864047996",
    "location": {
      "lat": 26.1732642,
      "lng": 91.7569107
    },
    "totalScore": 4.3,
    "permanentlyClosed": false,
    "temporarilyClosed": false,
    "placeId": "ChIJl_CXvX9ZWjcR2nCEh-QJuSc",
    "categories": [
      "Car leasing service",
      "Tour operator",
      "Taxi service",
      "Travel agency"
    ],
    "reviewsCount": 254,
    "imagesCount": 1723,
    "openingHours": [
      {
        "day": "Monday",
        "hours": "Open 24 hours"
      },
      {
        "day": "Tuesday",
        "hours": "Open 24 hours"
      },
      {
        "day": "Wednesday",
        "hours": "Open 24 hours"
      },
      {
        "day": "Thursday",
        "hours": "Open 24 hours"
      },
      {
        "day": "Friday",
        "hours": "Open 24 hours"
      },
      {
        "day": "Saturday",
        "hours": "Open 24 hours"
      },
      {
        "day": "Sunday",
        "hours": "Open 24 hours"
      }
    ],
    "imageUrl": "https://media.indianluxurycars.com/google/e07dee9f3ff631ea40338cdaa060ebbfb07a1e7197907f1f48cf366b4cc66600.jpg",
    "url": "https://www.google.com/maps/search/?api=1&query=Kamakshi%20Tours&query_place_id=ChIJl_CXvX9ZWjcR2nCEh-QJuSc"
  },
  {
    "title": "KAZIRANGA SELF DRIVE",
    "categoryName": "Car leasing service",
    "address": "Jatia, Kahilipara, Guwahati, Assam 781019, India",
    "neighborhood": "Jatia, Kahilipara",
    "city": "Guwahati",
    "postalCode": "781019",
    "state": "Assam",
    "countryCode": "IN",
    "website": "https://www.kazirangaselfdrive.com/",
    "phone": "+916281384094",
    "phoneUnformatted": "+916281384094",
    "location": {
      "lat": 26.1444067,
      "lng": 91.7749653
    },
    "totalScore": 4.8,
    "permanentlyClosed": false,
    "temporarilyClosed": false,
    "placeId": "ChIJex1OLY5ZWjcREh8WT8Idat8",
    "categories": [
      "Car leasing service"
    ],
    "reviewsCount": 49,
    "imagesCount": 3,
    "openingHours": [
      {
        "day": "Monday",
        "hours": "Open 24 hours"
      },
      {
        "day": "Tuesday",
        "hours": "Open 24 hours"
      },
      {
        "day": "Wednesday",
        "hours": "Open 24 hours"
      },
      {
        "day": "Thursday",
        "hours": "Open 24 hours"
      },
      {
        "day": "Friday",
        "hours": "Open 24 hours"
      },
      {
        "day": "Saturday",
        "hours": "Open 24 hours"
      },
      {
        "day": "Sunday",
        "hours": "7 AM to 11:30 PM"
      }
    ],
    "imageUrl": "https://media.indianluxurycars.com/google/b017445805708110efdf3511568828fc01427b8835727b636a86f77bafdb2e06.jpg",
    "url": "https://www.google.com/maps/search/?api=1&query=KAZIRANGA%20SELF%20DRIVE&query_place_id=ChIJex1OLY5ZWjcREh8WT8Idat8"
  },
  {
    "title": "LANDSCAPE SAFARI",
    "subTitle": "ল্যান্ডস্কেপ সাফারি",
    "categoryName": "Car leasing service",
    "address": "2nd floor, Anil Niloy House, 6, Dr BK Kakati Rd, South Sarania, Ulubari, Guwahati, Assam 781007, India",
    "neighborhood": "South Sarania, Ulubari",
    "street": "2nd floor, Anil Niloy House, 6, Dr BK Kakati Rd",
    "city": "Guwahati",
    "postalCode": "781007",
    "state": "Assam",
    "countryCode": "IN",
    "website": "http://www.landscapesafari.com/",
    "phone": "+919818377244",
    "phoneUnformatted": "+919818377244",
    "location": {
      "lat": 26.1735365,
      "lng": 91.7572967
    },
    "totalScore": 4.4,
    "permanentlyClosed": false,
    "temporarilyClosed": false,
    "placeId": "ChIJAQAAAH9ZWjcR8Wb0ezslfvg",
    "categories": [
      "Car leasing service",
      "Travel agency",
      "Tour operator"
    ],
    "reviewsCount": 69,
    "imagesCount": 41,
    "openingHours": [
      {
        "day": "Monday",
        "hours": "10 AM to 7 PM"
      },
      {
        "day": "Tuesday",
        "hours": "10 AM to 7 PM"
      },
      {
        "day": "Wednesday",
        "hours": "10 AM to 7 PM"
      },
      {
        "day": "Thursday",
        "hours": "10 AM to 7 PM"
      },
      {
        "day": "Friday",
        "hours": "10 AM to 7 PM"
      },
      {
        "day": "Saturday",
        "hours": "10 AM to 7 PM"
      },
      {
        "day": "Sunday",
        "hours": "Closed"
      }
    ],
    "imageUrl": "https://media.indianluxurycars.com/google/731b971855d7e9cabd2dd4ed3c060dd3fabb536f77507d83c7816a6a8d909e11.jpg",
    "url": "https://www.google.com/maps/search/?api=1&query=LANDSCAPE%20SAFARI&query_place_id=ChIJAQAAAH9ZWjcR8Wb0ezslfvg"
  },
  {
    "title": "Laskar Car",
    "categoryName": "Used car dealer",
    "address": "Dr B Baruah Rd, near Nehru Stadium, Gandhi Basti, Islampur, Guwahati, Assam 781003, India",
    "neighborhood": "Gandhi Basti, Islampur",
    "street": "Dr B Baruah Rd, near Nehru Stadium",
    "city": "Guwahati",
    "postalCode": "781003",
    "state": "Assam",
    "countryCode": "IN",
    "phone": "+916901312521",
    "phoneUnformatted": "+916901312521",
    "location": {
      "lat": 26.1816552,
      "lng": 91.7584117
    },
    "totalScore": 4.4,
    "permanentlyClosed": false,
    "temporarilyClosed": false,
    "placeId": "ChIJz23xdg5ZWjcRIy1g7spHuks",
    "categories": [
      "Used car dealer"
    ],
    "reviewsCount": 5,
    "imagesCount": 167,
    "openingHours": [
      {
        "day": "Monday",
        "hours": "9 AM to 8 PM"
      },
      {
        "day": "Tuesday",
        "hours": "9 AM to 8 PM"
      },
      {
        "day": "Wednesday",
        "hours": "9 AM to 8 PM"
      },
      {
        "day": "Thursday",
        "hours": "9 AM to 8 PM"
      },
      {
        "day": "Friday",
        "hours": "9 AM to 8 PM"
      },
      {
        "day": "Saturday",
        "hours": "9 AM to 8 PM"
      },
      {
        "day": "Sunday",
        "hours": "9 AM to 6 PM"
      }
    ],
    "imageUrl": "https://media.indianluxurycars.com/google/a6ca584e1044e8dad179236a5bf8afd9aea0ce15f3a4f8cdd7ee9098abede0cf.jpg",
    "url": "https://www.google.com/maps/search/?api=1&query=Laskar%20Car&query_place_id=ChIJz23xdg5ZWjcRIy1g7spHuks"
  },
  {
    "title": "Lavetam tours and travels",
    "categoryName": "Car rental agency",
    "address": "1st floor, house no:1, Zoo Rd, opposite of Parnil Complex, above Eagle wine shop, Tiniali, Ambikagirinagar, Guwahati, Assam 781024, India",
    "neighborhood": "Tiniali, Ambikagirinagar",
    "street": "1st floor, house no:1, Zoo Rd, opposite of Parnil Complex, above Eagle wine shop",
    "city": "Guwahati",
    "postalCode": "781024",
    "state": "Assam",
    "countryCode": "IN",
    "location": {
      "lat": 26.17437,
      "lng": 91.7771232
    },
    "totalScore": 5,
    "permanentlyClosed": false,
    "temporarilyClosed": false,
    "placeId": "ChIJdVZLO6xZWjcR0eqtwaxE3w0",
    "categories": [
      "Car rental agency",
      "Airline ticket agency",
      "Tour operator",
      "Travel agency"
    ],
    "reviewsCount": 1,
    "imagesCount": 6,
    "openingHours": [
      {
        "day": "Monday",
        "hours": "9 AM to 9 PM"
      },
      {
        "day": "Tuesday",
        "hours": "9 AM to 9 PM"
      },
      {
        "day": "Wednesday",
        "hours": "9 AM to 9 PM"
      },
      {
        "day": "Thursday",
        "hours": "9 AM to 9 PM"
      },
      {
        "day": "Friday",
        "hours": "9 AM to 9 PM"
      },
      {
        "day": "Saturday",
        "hours": "9 AM to 9 PM"
      },
      {
        "day": "Sunday",
        "hours": "9 AM to 9 PM"
      }
    ],
    "imageUrl": "https://media.indianluxurycars.com/google/fe3c2d36c9f083a81e7fb162f3bb6e0c621187f7135d8b5317c0941d3ce66f21.png",
    "url": "https://www.google.com/maps/search/?api=1&query=Lavetam%20tours%20and%20travels&query_place_id=ChIJdVZLO6xZWjcR0eqtwaxE3w0"
  },
  {
    "title": "Luxvac Tours And Travels",
    "categoryName": "Car rental agency",
    "address": "House No 109, 2nd Floor, 2nd Building, Dr BK Kakati Rd, South Sarania, Manipuri Rajbari, Ulubari, Guwahati, Assam 781007, India",
    "neighborhood": "South Sarania, Manipuri Rajbari, Ulubari",
    "street": "House No 109, 2nd Floor, 2nd Building, Dr BK Kakati Rd",
    "city": "Guwahati",
    "postalCode": "781007",
    "state": "Assam",
    "countryCode": "IN",
    "website": "http://www.luxvactravels.com/",
    "phone": "+917577036975",
    "phoneUnformatted": "+917577036975",
    "location": {
      "lat": 26.1733426,
      "lng": 91.7567528
    },
    "totalScore": 4.6,
    "permanentlyClosed": false,
    "temporarilyClosed": false,
    "placeId": "ChIJIb8c0IFZWjcRll5GvZEHWc8",
    "categories": [
      "Car rental agency",
      "Airline ticket agency",
      "Tour operator",
      "Hotel",
      "Travel agency"
    ],
    "reviewsCount": 197,
    "imagesCount": 204,
    "openingHours": [],
    "imageUrl": "https://media.indianluxurycars.com/google/69dc9ec5174b03d0e0deb69cc15ffb785717b9d7a085d8282b169abb8c92171d.jpg",
    "url": "https://www.google.com/maps/search/?api=1&query=Luxvac%20Tours%20And%20Travels&query_place_id=ChIJIb8c0IFZWjcRll5GvZEHWc8"
  },
  {
    "title": "Maa Laxmi Enterprise",
    "subTitle": "মা লক্ষ্মী এণ্টাৰপ্ৰাইজ",
    "categoryName": "Used car dealer",
    "address": "5QH3+4V7, Paltan Bazaar, Guwahati, Assam 781007, India",
    "neighborhood": "Paltan Bazaar",
    "street": "5QH3+4V7",
    "city": "Guwahati",
    "postalCode": "781007",
    "state": "Assam",
    "countryCode": "IN",
    "phone": "+919435748535",
    "phoneUnformatted": "+919435748535",
    "location": {
      "lat": 26.1777861,
      "lng": 91.7546723
    },
    "totalScore": 4.2,
    "permanentlyClosed": false,
    "temporarilyClosed": false,
    "placeId": "ChIJFZmPsIBZWjcRZMgpHUSBrlw",
    "categories": [
      "Used car dealer"
    ],
    "reviewsCount": 19,
    "imagesCount": 10,
    "openingHours": [
      {
        "day": "Monday",
        "hours": "10 AM to 8 PM"
      },
      {
        "day": "Tuesday",
        "hours": "10 AM to 8 PM"
      },
      {
        "day": "Wednesday",
        "hours": "10 AM to 8 PM"
      },
      {
        "day": "Thursday",
        "hours": "10 AM to 8 PM"
      },
      {
        "day": "Friday",
        "hours": "10 AM to 8 PM"
      },
      {
        "day": "Saturday",
        "hours": "10 AM to 8 PM"
      },
      {
        "day": "Sunday",
        "hours": "10 AM to 8 PM"
      }
    ],
    "imageUrl": "https://media.indianluxurycars.com/google/7f7541eebb947f35722588123e6bb771426f80e43d0800e7ecced1133985c646.jpg",
    "url": "https://www.google.com/maps/search/?api=1&query=Maa%20Laxmi%20Enterprise&query_place_id=ChIJFZmPsIBZWjcRZMgpHUSBrlw"
  },
  {
    "title": "Maa Manasha Motors",
    "categoryName": "Used car dealer",
    "address": "Kushal Konwar Path, opp. PWD office, Fatasil Ambari, Guwahati, Assam 781025, India",
    "neighborhood": "Fatasil Ambari",
    "street": "Kushal Konwar Path, opp. PWD office",
    "city": "Guwahati",
    "postalCode": "781025",
    "state": "Assam",
    "countryCode": "IN",
    "phone": "+919085529999",
    "phoneUnformatted": "+919085529999",
    "location": {
      "lat": 26.1583176,
      "lng": 91.7362442
    },
    "totalScore": 4.5,
    "permanentlyClosed": false,
    "temporarilyClosed": false,
    "placeId": "ChIJuTBM1gtbWjcRNL-HZXQ9deI",
    "categories": [
      "Used car dealer"
    ],
    "reviewsCount": 27,
    "imagesCount": 131,
    "openingHours": [
      {
        "day": "Monday",
        "hours": "9 AM to 9 PM"
      },
      {
        "day": "Tuesday",
        "hours": "9 AM to 9 PM"
      },
      {
        "day": "Wednesday",
        "hours": "9 AM to 9 PM"
      },
      {
        "day": "Thursday",
        "hours": "9 AM to 9 PM"
      },
      {
        "day": "Friday",
        "hours": "9 AM to 9 PM"
      },
      {
        "day": "Saturday",
        "hours": "9 AM to 9 PM"
      },
      {
        "day": "Sunday",
        "hours": "9 AM to 9 PM"
      }
    ],
    "imageUrl": "https://media.indianluxurycars.com/google/050605ec9e45467f2f2c2e634a6e0f80be44f175771f9c57aa2a0036f8f53e21.jpg",
    "url": "https://www.google.com/maps/search/?api=1&query=Maa%20Manasha%20Motors&query_place_id=ChIJuTBM1gtbWjcRNL-HZXQ9deI"
  },
  {
    "title": "Mahesh Jeep Guwahati",
    "categoryName": "Car dealer",
    "address": "Sohum Residency, Ground, Bharat Petroleum, near Zoo Road, Sree Nagar, Guwahati, Assam 781005, India",
    "neighborhood": "Sree Nagar",
    "street": "Sohum Residency, Ground, Bharat Petroleum, near Zoo Road",
    "city": "Guwahati",
    "postalCode": "781005",
    "state": "Assam",
    "countryCode": "IN",
    "website": "http://maheshmotors.jeep-india.com/",
    "phone": "+918471933111",
    "phoneUnformatted": "+918471933111",
    "location": {
      "lat": 26.159798,
      "lng": 91.7815732
    },
    "totalScore": 4.6,
    "permanentlyClosed": false,
    "temporarilyClosed": false,
    "placeId": "ChIJgYn91BRZWjcRoP4B4rA00UU",
    "categories": [
      "Car dealer"
    ],
    "reviewsCount": 333,
    "imagesCount": 130,
    "openingHours": [
      {
        "day": "Monday",
        "hours": "9:30 AM to 6:30 PM"
      },
      {
        "day": "Tuesday",
        "hours": "9:30 AM to 6:30 PM"
      },
      {
        "day": "Wednesday",
        "hours": "9:30 AM to 6:30 PM"
      },
      {
        "day": "Thursday",
        "hours": "9:30 AM to 6:30 PM"
      },
      {
        "day": "Friday",
        "hours": "9:30 AM to 6:30 PM"
      },
      {
        "day": "Saturday",
        "hours": "9:30 AM to 6:30 PM"
      },
      {
        "day": "Sunday",
        "hours": "Closed"
      }
    ],
    "imageUrl": "https://media.indianluxurycars.com/google/9de7a4aa0ca4a9a29207789652414cb002da3b1879df2064ab7dbe9430989c3a.jpg",
    "url": "https://www.google.com/maps/search/?api=1&query=Mahesh%20Jeep%20Guwahati&query_place_id=ChIJgYn91BRZWjcRoP4B4rA00UU"
  },
  {
    "title": "North East Car World",
    "categoryName": "Used car dealer",
    "address": "Swaraj Nagar, Ganeshguri, Guwahati, Assam 781006, India",
    "neighborhood": "Swaraj Nagar, Ganeshguri",
    "city": "Guwahati",
    "postalCode": "781006",
    "state": "Assam",
    "countryCode": "IN",
    "phone": "+917002679434",
    "phoneUnformatted": "+917002679434",
    "location": {
      "lat": 26.1477956,
      "lng": 91.7878482
    },
    "totalScore": 4.5,
    "permanentlyClosed": false,
    "temporarilyClosed": false,
    "placeId": "ChIJ7XBvMW9ZWjcROyfTVUN2usc",
    "categories": [
      "Used car dealer"
    ],
    "reviewsCount": 23,
    "imagesCount": 23,
    "openingHours": [
      {
        "day": "Monday",
        "hours": "9 AM to 6:30 PM"
      },
      {
        "day": "Tuesday",
        "hours": "9 AM to 6:30 PM"
      },
      {
        "day": "Wednesday",
        "hours": "9 AM to 6:30 PM"
      },
      {
        "day": "Thursday",
        "hours": "9 AM to 6:30 PM"
      },
      {
        "day": "Friday",
        "hours": "9 AM to 6:30 PM"
      },
      {
        "day": "Saturday",
        "hours": "9 AM to 6:30 PM"
      },
      {
        "day": "Sunday",
        "hours": "Closed"
      }
    ],
    "imageUrl": "https://media.indianluxurycars.com/google/a15355f050f60dd6cef7e398f295e506fc033944cb738ff88cc14f6cc2e8f5b9.jpg",
    "url": "https://www.google.com/maps/search/?api=1&query=North%20East%20Car%20World&query_place_id=ChIJ7XBvMW9ZWjcROyfTVUN2usc"
  },
  {
    "title": "North East On Wheels",
    "subTitle": "নর্থ ইস্ট অন হুইলস",
    "categoryName": "Car leasing service",
    "address": "Ambari Rd, Fatasil Ambari, Guwahati, Assam 781018, India",
    "neighborhood": "Fatasil Ambari",
    "street": "Ambari Rd",
    "city": "Guwahati",
    "postalCode": "781018",
    "state": "Assam",
    "countryCode": "IN",
    "website": "http://www.northeastonwheels.in/",
    "phone": "+918473818451",
    "phoneUnformatted": "+918473818451",
    "location": {
      "lat": 26.1593919,
      "lng": 91.7378495
    },
    "totalScore": 4.9,
    "permanentlyClosed": false,
    "temporarilyClosed": false,
    "placeId": "ChIJBaxiP8ZbWjcRfr8xm8Uj_jo",
    "categories": [
      "Car leasing service"
    ],
    "reviewsCount": 86,
    "imagesCount": 78,
    "openingHours": [
      {
        "day": "Monday",
        "hours": "Open 24 hours"
      },
      {
        "day": "Tuesday",
        "hours": "Open 24 hours"
      },
      {
        "day": "Wednesday",
        "hours": "Open 24 hours"
      },
      {
        "day": "Thursday",
        "hours": "Open 24 hours"
      },
      {
        "day": "Friday",
        "hours": "Open 24 hours"
      },
      {
        "day": "Saturday",
        "hours": "Open 24 hours"
      },
      {
        "day": "Sunday",
        "hours": "Open 24 hours"
      }
    ],
    "imageUrl": "https://media.indianluxurycars.com/google/982fb99ce72b41105b3ac4550833381e7e97ec2de2356246f54f8216b7b7c958.jpg",
    "url": "https://www.google.com/maps/search/?api=1&query=North%20East%20On%20Wheels&query_place_id=ChIJBaxiP8ZbWjcRfr8xm8Uj_jo"
  },
  {
    "title": "North Hindustan Tour and travel",
    "categoryName": "Car rental agency",
    "address": "opposite multi parking lod, PWD Colony, Paltan Bazaar, Guwahati, Assam 781008, India",
    "neighborhood": "PWD Colony, Paltan Bazaar",
    "street": "opposite multi parking lod",
    "city": "Guwahati",
    "postalCode": "781008",
    "state": "Assam",
    "countryCode": "IN",
    "website": "https://hindustan-tours-and-travels.ueniweb.com/",
    "location": {
      "lat": 26.180569,
      "lng": 91.7489421
    },
    "permanentlyClosed": false,
    "temporarilyClosed": true,
    "placeId": "ChIJHXQxUcdbWjcRa015QFmEvos",
    "categories": [
      "Car rental agency"
    ],
    "imagesCount": 3,
    "openingHours": [],
    "imageUrl": "https://media.indianluxurycars.com/google/2b6d31ee421d965ea37cd9eef6ce1f369f674718b475bcfa7eac8311c95eae2e.jpg",
    "url": "https://www.google.com/maps/search/?api=1&query=North%20Hindustan%20Tour%20and%20travel&query_place_id=ChIJHXQxUcdbWjcRa015QFmEvos"
  },
  {
    "title": "Orange cabs Guwahati",
    "categoryName": "Car leasing service",
    "address": "plot no 8, Bishnu Rabha Path, near Assam state zoo, Tarun Nagar, Guwahati, Assam 781024, India",
    "neighborhood": "Tarun Nagar",
    "street": "plot no 8, Bishnu Rabha Path, near Assam state zoo",
    "city": "Guwahati",
    "postalCode": "781024",
    "state": "Assam",
    "countryCode": "IN",
    "website": "https://orangecabs.in/",
    "phone": "+919394939500",
    "phoneUnformatted": "+919394939500",
    "location": {
      "lat": 26.1639011,
      "lng": 91.7795583
    },
    "totalScore": 4.3,
    "permanentlyClosed": false,
    "temporarilyClosed": false,
    "placeId": "ChIJRbfhDilZWjcR11bWR2J8DmA",
    "categories": [
      "Car leasing service"
    ],
    "reviewsCount": 84,
    "imagesCount": 65,
    "openingHours": [
      {
        "day": "Monday",
        "hours": "Open 24 hours"
      },
      {
        "day": "Tuesday",
        "hours": "Open 24 hours"
      },
      {
        "day": "Wednesday",
        "hours": "Open 24 hours"
      },
      {
        "day": "Thursday",
        "hours": "Open 24 hours"
      },
      {
        "day": "Friday",
        "hours": "Open 24 hours"
      },
      {
        "day": "Saturday",
        "hours": "Open 24 hours"
      },
      {
        "day": "Sunday",
        "hours": "Open 24 hours"
      }
    ],
    "imageUrl": "https://media.indianluxurycars.com/google/fb23a88765afa671aa56765d8a68004d90f89946980faed3b31b37ff6bf7e08a.jpg",
    "url": "https://www.google.com/maps/search/?api=1&query=Orange%20cabs%20Guwahati&query_place_id=ChIJRbfhDilZWjcR11bWR2J8DmA"
  },
  {
    "title": "Rent My Ride",
    "categoryName": "Car rental agency",
    "address": "s post office building, 30, MA Path, Rehabari, Guwahati, Assam 781008, India",
    "neighborhood": "Rehabari",
    "street": "s post office building, 30, MA Path",
    "city": "Guwahati",
    "postalCode": "781008",
    "state": "Assam",
    "countryCode": "IN",
    "website": "http://rentmyride.in/",
    "phone": "+919707215525",
    "phoneUnformatted": "+919707215525",
    "location": {
      "lat": 26.1722442,
      "lng": 91.750644
    },
    "totalScore": 4.4,
    "permanentlyClosed": false,
    "temporarilyClosed": false,
    "placeId": "ChIJvaskI4VbWjcR6ckFHogsUGM",
    "categories": [
      "Car rental agency",
      "Car leasing service",
      "Motoring club"
    ],
    "reviewsCount": 74,
    "imagesCount": 34,
    "openingHours": [
      {
        "day": "Monday",
        "hours": "Open 24 hours"
      },
      {
        "day": "Tuesday",
        "hours": "Open 24 hours"
      },
      {
        "day": "Wednesday",
        "hours": "Open 24 hours"
      },
      {
        "day": "Thursday",
        "hours": "Open 24 hours"
      },
      {
        "day": "Friday",
        "hours": "Open 24 hours"
      },
      {
        "day": "Saturday",
        "hours": "Open 24 hours"
      },
      {
        "day": "Sunday",
        "hours": "Open 24 hours"
      }
    ],
    "imageUrl": "https://media.indianluxurycars.com/google/fbbf75cc3edc4475573f00f18fc246abb25e1948fa9ea577aaef45313901e014.jpg",
    "url": "https://www.google.com/maps/search/?api=1&query=Rent%20My%20Ride&query_place_id=ChIJvaskI4VbWjcR6ckFHogsUGM"
  },
  {
    "title": "RK Rentals | Self-Drive Car Rental in Guwahati | Bike Rental in Guwahati",
    "categoryName": "Car rental agency",
    "address": "Nilgiri Path, Ambikagirinagar, Guwahati, Assam 781024, India",
    "neighborhood": "Ambikagirinagar",
    "street": "Nilgiri Path",
    "city": "Guwahati",
    "postalCode": "781024",
    "state": "Assam",
    "countryCode": "IN",
    "website": "https://www.instagram.com/rk.rentals_?igsh=MXQzc2UyejA5Z3prZA%3D%3D&utm_source=qr",
    "phone": "+918638870746",
    "phoneUnformatted": "+918638870746",
    "location": {
      "lat": 26.171179,
      "lng": 91.7784457
    },
    "totalScore": 4.9,
    "permanentlyClosed": false,
    "temporarilyClosed": false,
    "placeId": "ChIJxWc-CO1ZWjcRA4UA1n-CloI",
    "categories": [
      "Car rental agency",
      "Car leasing service",
      "Motorcycle rental agency"
    ],
    "reviewsCount": 294,
    "imagesCount": 1303,
    "openingHours": [
      {
        "day": "Monday",
        "hours": "6 AM to 11 PM"
      },
      {
        "day": "Tuesday",
        "hours": "6 AM to 11 PM"
      },
      {
        "day": "Wednesday",
        "hours": "6 AM to 11 PM"
      },
      {
        "day": "Thursday",
        "hours": "6 AM to 11 PM"
      },
      {
        "day": "Friday",
        "hours": "6 AM to 11 PM"
      },
      {
        "day": "Saturday",
        "hours": "6 AM to 11 PM"
      },
      {
        "day": "Sunday",
        "hours": "6 AM to 11 PM"
      }
    ],
    "imageUrl": "https://media.indianluxurycars.com/google/3716eba61781a9642d921aa9674aaf68f0cc24e8113d9e46ad0bf65652bf248f.jpg",
    "url": "https://www.google.com/maps/search/?api=1&query=RK%20Rentals%20%7C%20Self-Drive%20Car%20Rental%20in%20Guwahati%20%7C%20Bike%20Rental%20in%20Guwahati&query_place_id=ChIJxWc-CO1ZWjcRA4UA1n-CloI"
  },
  {
    "title": "S S Motors",
    "subTitle": "স স মোটরস",
    "categoryName": "Used car dealer",
    "address": "5P6V+MHF, AK Azad Rd, Sankarpur, Kala Pahar, Guwahati, Assam 781016, India",
    "neighborhood": "Sankarpur, Kala Pahar",
    "street": "5P6V+MHF, AK Azad Rd",
    "city": "Guwahati",
    "postalCode": "781016",
    "state": "Assam",
    "countryCode": "IN",
    "website": "http://www.ssmotors.com/",
    "phone": "+919706107467",
    "phoneUnformatted": "+919706107467",
    "location": {
      "lat": 26.1616846,
      "lng": 91.7439098
    },
    "totalScore": 4.2,
    "permanentlyClosed": false,
    "temporarilyClosed": false,
    "placeId": "ChIJNT0iX_RbWjcRvcdJTbSpLgc",
    "categories": [
      "Used car dealer"
    ],
    "reviewsCount": 20,
    "imagesCount": 3,
    "openingHours": [
      {
        "day": "Monday",
        "hours": "9 AM to 7 PM"
      },
      {
        "day": "Tuesday",
        "hours": "9 AM to 7 PM"
      },
      {
        "day": "Wednesday",
        "hours": "9 AM to 7 PM"
      },
      {
        "day": "Thursday",
        "hours": "9 AM to 7 PM"
      },
      {
        "day": "Friday",
        "hours": "9 AM to 7 PM"
      },
      {
        "day": "Saturday",
        "hours": "9 AM to 7 PM"
      },
      {
        "day": "Sunday",
        "hours": "9 AM to 7 PM"
      }
    ],
    "imageUrl": "https://media.indianluxurycars.com/google/5c7186147467a8efd2a2bdf204cd778955eb6cb444acdcef3473fff7a1340e56.jpg",
    "url": "https://www.google.com/maps/search/?api=1&query=S%20S%20Motors&query_place_id=ChIJNT0iX_RbWjcRvcdJTbSpLgc"
  },
  {
    "title": "SAWARI AS-01 CAR BIKE RENTAL SERVICES",
    "categoryName": "Car leasing service",
    "address": "PD Chaliha Rd, Guwahati Club, Guwahati, Assam 781003, India",
    "neighborhood": "Guwahati Club",
    "street": "PD Chaliha Rd",
    "city": "Guwahati",
    "postalCode": "781003",
    "state": "Assam",
    "countryCode": "IN",
    "website": "https://sawarias01.in/",
    "phone": "+916000844088",
    "phoneUnformatted": "+916000844088",
    "location": {
      "lat": 26.1837737,
      "lng": 91.7602031
    },
    "totalScore": 3.8,
    "permanentlyClosed": false,
    "temporarilyClosed": false,
    "placeId": "ChIJXyu9o7xZWjcR0yWBoJNAtaQ",
    "categories": [
      "Car leasing service"
    ],
    "reviewsCount": 125,
    "imagesCount": 76,
    "openingHours": [
      {
        "day": "Monday",
        "hours": "Open 24 hours"
      },
      {
        "day": "Tuesday",
        "hours": "Open 24 hours"
      },
      {
        "day": "Wednesday",
        "hours": "Open 24 hours"
      },
      {
        "day": "Thursday",
        "hours": "Open 24 hours"
      },
      {
        "day": "Friday",
        "hours": "Open 24 hours"
      },
      {
        "day": "Saturday",
        "hours": "Open 24 hours"
      },
      {
        "day": "Sunday",
        "hours": "Open 24 hours"
      }
    ],
    "imageUrl": "https://media.indianluxurycars.com/google/93b2087759e07da5de98e033d7d595e1e0a8d65519cec137c1404db0e51abae3.jpg",
    "url": "https://www.google.com/maps/search/?api=1&query=SAWARI%20AS-01%20CAR%20BIKE%20RENTAL%20SERVICES&query_place_id=ChIJXyu9o7xZWjcR0yWBoJNAtaQ"
  },
  {
    "title": "Taxination",
    "categoryName": "Car rental agency",
    "address": "House No. 56, Karbi Namghar Path, behind State Zoo, Japorigog, Guwahati, Assam 781005, India",
    "neighborhood": "Japorigog",
    "street": "House No. 56, Karbi Namghar Path, behind State Zoo",
    "city": "Guwahati",
    "postalCode": "781005",
    "state": "Assam",
    "countryCode": "IN",
    "website": "http://www.taxination.in/",
    "phone": "+919395961515",
    "phoneUnformatted": "+919395961515",
    "location": {
      "lat": 26.1613078,
      "lng": 91.7871794
    },
    "totalScore": 5,
    "permanentlyClosed": false,
    "temporarilyClosed": false,
    "placeId": "ChIJ-86DWgBZWjcRGVtz9Br3M60",
    "categories": [
      "Car rental agency"
    ],
    "reviewsCount": 17,
    "imagesCount": 10,
    "openingHours": [
      {
        "day": "Monday",
        "hours": "Open 24 hours"
      },
      {
        "day": "Tuesday",
        "hours": "Open 24 hours"
      },
      {
        "day": "Wednesday",
        "hours": "Open 24 hours"
      },
      {
        "day": "Thursday",
        "hours": "Open 24 hours"
      },
      {
        "day": "Friday",
        "hours": "Open 24 hours"
      },
      {
        "day": "Saturday",
        "hours": "Open 24 hours"
      },
      {
        "day": "Sunday",
        "hours": "Open 24 hours"
      }
    ],
    "imageUrl": "https://media.indianluxurycars.com/google/845cb05f0931697e892287b94a8c166202098c2ade0b639a4b618688255a4366.jpg",
    "url": "https://www.google.com/maps/search/?api=1&query=Taxination&query_place_id=ChIJ-86DWgBZWjcRGVtz9Br3M60"
  },
  {
    "title": "THE ROYAL AGENCY USED CARS DEALER",
    "categoryName": "Used car dealer",
    "address": "Hill Side, Silpukhuri, Navagraha Hills, Guwahati, Assam 781003, India",
    "neighborhood": "Silpukhuri, Navagraha Hills",
    "street": "Hill Side",
    "city": "Guwahati",
    "postalCode": "781003",
    "state": "Assam",
    "countryCode": "IN",
    "website": "https://www.olx.in/profile/275878117",
    "phone": "+917002742828",
    "phoneUnformatted": "+917002742828",
    "location": {
      "lat": 26.1912796,
      "lng": 91.7642231
    },
    "totalScore": 5,
    "permanentlyClosed": false,
    "temporarilyClosed": false,
    "placeId": "ChIJ0VPGd_JZWjcRmonhOhmMdTs",
    "categories": [
      "Used car dealer"
    ],
    "reviewsCount": 14,
    "imagesCount": 124,
    "openingHours": [
      {
        "day": "Monday",
        "hours": "10:30 AM to 6:30 PM"
      },
      {
        "day": "Tuesday",
        "hours": "10:30 AM to 6:30 PM"
      },
      {
        "day": "Wednesday",
        "hours": "10:30 AM to 6:30 PM"
      },
      {
        "day": "Thursday",
        "hours": "10:30 AM to 6:30 PM"
      },
      {
        "day": "Friday",
        "hours": "10:30 AM to 6:30 PM"
      },
      {
        "day": "Saturday",
        "hours": "10:30 AM to 6:30 PM"
      },
      {
        "day": "Sunday",
        "hours": "10:30 AM to 5 PM"
      }
    ],
    "imageUrl": "https://media.indianluxurycars.com/google/e8ed36a62c3219bc7ad99a908960c96dd874bef878b4e4738f35fccf6d32fe13.jpg",
    "url": "https://www.google.com/maps/search/?api=1&query=THE%20ROYAL%20AGENCY%20USED%20CARS%20DEALER&query_place_id=ChIJ0VPGd_JZWjcRmonhOhmMdTs"
  },
  {
    "title": "Travellers Club",
    "categoryName": "Car rental agency",
    "address": "Rajgarh Rd, Anil Nagar, Nabin Nagar, Guwahati, Assam 781024, India",
    "neighborhood": "Anil Nagar, Nabin Nagar",
    "street": "Rajgarh Rd",
    "city": "Guwahati",
    "postalCode": "781024",
    "state": "Assam",
    "countryCode": "IN",
    "website": "https://travellersclub.network/",
    "phone": "+916003777077",
    "phoneUnformatted": "+916003777077",
    "location": {
      "lat": 26.1673441,
      "lng": 91.7696395
    },
    "totalScore": 4.7,
    "permanentlyClosed": false,
    "temporarilyClosed": false,
    "placeId": "ChIJZRidmtNZWjcRgpRWxCbXdjc",
    "categories": [
      "Car rental agency",
      "Adventure sports center",
      "Airport shuttle service",
      "Bus tour agency",
      "Travel agency",
      "Event planner",
      "Hotel",
      "Homestay",
      "Tour operator"
    ],
    "reviewsCount": 46,
    "imagesCount": 57,
    "openingHours": [],
    "imageUrl": "https://media.indianluxurycars.com/google/aa43b245cd4b1a214ce5a66e9b963ebc739274493c19e049f74a13fa37a816b1.jpg",
    "url": "https://www.google.com/maps/search/?api=1&query=Travellers%20Club&query_place_id=ChIJZRidmtNZWjcRgpRWxCbXdjc"
  },
  {
    "title": "Wanderides",
    "categoryName": "Car rental agency",
    "address": "Mangal chandi mandir, House No. 1, Chatrakar, SK Bhuyan Rd, Uzan Bazar, Guwahati, Assam 781001, India",
    "neighborhood": "Barowari, Uzan Bazar",
    "street": "Mangal chandi mandir, House No. 1, Chatrakar, SK Bhuyan Rd",
    "city": "Guwahati",
    "postalCode": "781001",
    "state": "Assam",
    "countryCode": "IN",
    "website": "https://www.wanderides.com/",
    "phone": "+919957552828",
    "phoneUnformatted": "+919957552828",
    "location": {
      "lat": 26.1954399,
      "lng": 91.7575784
    },
    "totalScore": 4.7,
    "permanentlyClosed": false,
    "temporarilyClosed": false,
    "placeId": "ChIJN3jG-hxZWjcRnX8FPLiGbYs",
    "categories": [
      "Car rental agency",
      "Car leasing service"
    ],
    "reviewsCount": 257,
    "imagesCount": 287,
    "openingHours": [
      {
        "day": "Monday",
        "hours": "Open 24 hours"
      },
      {
        "day": "Tuesday",
        "hours": "Open 24 hours"
      },
      {
        "day": "Wednesday",
        "hours": "Open 24 hours"
      },
      {
        "day": "Thursday",
        "hours": "Open 24 hours"
      },
      {
        "day": "Friday",
        "hours": "Open 24 hours"
      },
      {
        "day": "Saturday",
        "hours": "Open 24 hours"
      },
      {
        "day": "Sunday",
        "hours": "Open 24 hours"
      }
    ],
    "imageUrl": "https://media.indianluxurycars.com/google/c9b0a117cf753261cc7e35945c690361df5e497641906aa2522a3a28fb373e9f.jpg",
    "url": "https://www.google.com/maps/search/?api=1&query=Wanderides&query_place_id=ChIJN3jG-hxZWjcRnX8FPLiGbYs"
  },
  {
    "title": "Wheelsonhills",
    "subTitle": "ব্হীল্সন্হিল্ল্স",
    "categoryName": "Car rental agency",
    "address": "House no 7, Baikuntha Path, South Sarania, Lachit Nagar, Guwahati, Assam 781007, India",
    "neighborhood": "South Sarania, Lachit Nagar",
    "street": "House no 7, Baikuntha Path",
    "city": "Guwahati",
    "postalCode": "781007",
    "state": "Assam",
    "countryCode": "IN",
    "website": "http://wheelsonhills.com/",
    "phone": "+918133884198",
    "phoneUnformatted": "+918133884198",
    "location": {
      "lat": 26.1742099,
      "lng": 91.7697103
    },
    "totalScore": 4.4,
    "permanentlyClosed": false,
    "temporarilyClosed": false,
    "placeId": "ChIJ51oIH3JdWjcREhfwYv46hi4",
    "categories": [
      "Car rental agency"
    ],
    "reviewsCount": 61,
    "imagesCount": 54,
    "openingHours": [
      {
        "day": "Monday",
        "hours": "8 AM to 8 PM"
      },
      {
        "day": "Tuesday",
        "hours": "8 AM to 8 PM"
      },
      {
        "day": "Wednesday",
        "hours": "8 AM to 8 PM"
      },
      {
        "day": "Thursday",
        "hours": "8 AM to 8 PM"
      },
      {
        "day": "Friday",
        "hours": "8 AM to 8 PM"
      },
      {
        "day": "Saturday",
        "hours": "8 AM to 8 PM"
      },
      {
        "day": "Sunday",
        "hours": "8 AM to 8 PM"
      }
    ],
    "imageUrl": "https://media.indianluxurycars.com/google/b4c7826bea6215d5fcb90be6be3fd8e8ff5b467607916491ec80be6b6f4ce0d5.jpg",
    "url": "https://www.google.com/maps/search/?api=1&query=Wheelsonhills&query_place_id=ChIJ51oIH3JdWjcREhfwYv46hi4"
  },
  {
    "title": "Wing way tour&travels",
    "categoryName": "Car rental agency",
    "address": "House no 6, Neelam Path, Hatigarh Chariali, Narikalbari, Guwahati, Assam 781024, India",
    "neighborhood": "Hatigarh Chariali, Narikalbari",
    "street": "House no 6, Neelam Path",
    "city": "Guwahati",
    "postalCode": "781024",
    "state": "Assam",
    "countryCode": "IN",
    "website": "http://wingwaytourtravels.com/",
    "phone": "+917002848742",
    "phoneUnformatted": "+917002848742",
    "location": {
      "lat": 26.1722589,
      "lng": 91.7868521
    },
    "totalScore": 5,
    "permanentlyClosed": false,
    "temporarilyClosed": false,
    "placeId": "ChIJh-kq4tFZWjcR0AqPxGS09qk",
    "categories": [
      "Car rental agency"
    ],
    "reviewsCount": 30,
    "imagesCount": 21,
    "openingHours": [
      {
        "day": "Monday",
        "hours": "9 AM to 5 PM"
      },
      {
        "day": "Tuesday",
        "hours": "9 AM to 5 PM"
      },
      {
        "day": "Wednesday",
        "hours": "9 AM to 5 PM"
      },
      {
        "day": "Thursday",
        "hours": "9 AM to 5 PM"
      },
      {
        "day": "Friday",
        "hours": "9 AM to 5 PM"
      },
      {
        "day": "Saturday",
        "hours": "9 AM to 5 PM"
      },
      {
        "day": "Sunday",
        "hours": "9 AM to 5 PM"
      }
    ],
    "imageUrl": "https://media.indianluxurycars.com/google/9c689af29a26e6348d43c33423d6c90909330a8472dd9d3bbb7c7df89814b33f.jpg",
    "url": "https://www.google.com/maps/search/?api=1&query=Wing%20way%20tour%26travels&query_place_id=ChIJh-kq4tFZWjcR0AqPxGS09qk"
  },
  {
    "title": "Zatra-North East Travel Services",
    "categoryName": "Car rental agency",
    "address": "Ganeshguri, Guwahati, Assam 781005, India",
    "neighborhood": "Ganeshguri",
    "city": "Guwahati",
    "postalCode": "781005",
    "state": "Assam",
    "countryCode": "IN",
    "location": {
      "lat": 26.1537654,
      "lng": 91.7824797
    },
    "totalScore": 5,
    "permanentlyClosed": false,
    "temporarilyClosed": false,
    "placeId": "ChIJ3aNX_NNZWjcRzwvfk9snjEY",
    "categories": [
      "Car rental agency",
      "Travel agency",
      "Scooter rental service"
    ],
    "reviewsCount": 25,
    "imagesCount": 22,
    "openingHours": [
      {
        "day": "Monday",
        "hours": "Open 24 hours"
      },
      {
        "day": "Tuesday",
        "hours": "Open 24 hours"
      },
      {
        "day": "Wednesday",
        "hours": "Open 24 hours"
      },
      {
        "day": "Thursday",
        "hours": "Open 24 hours"
      },
      {
        "day": "Friday",
        "hours": "Open 24 hours"
      },
      {
        "day": "Saturday",
        "hours": "Open 24 hours"
      },
      {
        "day": "Sunday",
        "hours": "Open 24 hours"
      }
    ],
    "imageUrl": "https://media.indianluxurycars.com/google/4346f81568be8fe3181d81ed3017d229ccecc9503340bc57c1a05d6b86b9e0c7.jpg",
    "url": "https://www.google.com/maps/search/?api=1&query=Zatra-North%20East%20Travel%20Services&query_place_id=ChIJ3aNX_NNZWjcRzwvfk9snjEY"
  },
  {
    "title": "Zip Zap Car rental",
    "categoryName": "Car leasing service",
    "address": "House no 2, Geetanagar Mother Teresa road, Zola Adventures Bylane, near Gate hospital, Guwahati, Assam 781020, India",
    "neighborhood": "Mathgharia",
    "street": "House no 2, Geetanagar Mother Teresa road, Zola Adventures Bylane, near Gate hospital",
    "city": "Guwahati",
    "postalCode": "781020",
    "state": "Assam",
    "countryCode": "IN",
    "website": "https://www.zipzapcarrentals.com/",
    "phone": "+916000981707",
    "phoneUnformatted": "+916000981707",
    "location": {
      "lat": 26.175698,
      "lng": 91.8036662
    },
    "totalScore": 4.6,
    "permanentlyClosed": false,
    "temporarilyClosed": false,
    "placeId": "ChIJa7gnXnZZWjcRkBrzxmwyRII",
    "categories": [
      "Car leasing service"
    ],
    "reviewsCount": 399,
    "imagesCount": 59,
    "openingHours": [
      {
        "day": "Monday",
        "hours": "Open 24 hours"
      },
      {
        "day": "Tuesday",
        "hours": "Open 24 hours"
      },
      {
        "day": "Wednesday",
        "hours": "Open 24 hours"
      },
      {
        "day": "Thursday",
        "hours": "Open 24 hours"
      },
      {
        "day": "Friday",
        "hours": "Open 24 hours"
      },
      {
        "day": "Saturday",
        "hours": "Open 24 hours"
      },
      {
        "day": "Sunday",
        "hours": "Open 24 hours"
      }
    ],
    "imageUrl": "https://media.indianluxurycars.com/google/fe18ee1ca5193708d478320f264554abafc14d7bd2b59e5ff21b0b8d039af4f6.jpg",
    "url": "https://www.google.com/maps/search/?api=1&query=Zip%20Zap%20Car%20rental&query_place_id=ChIJa7gnXnZZWjcRkBrzxmwyRII"
  },
  {
    "title": "Zoo Road Rentals",
    "categoryName": "Car leasing service",
    "address": "Zoo Rd, Tarun Nagar, Guwahati, Assam 781024, India",
    "neighborhood": "Tarun Nagar",
    "street": "Zoo Rd",
    "city": "Guwahati",
    "postalCode": "781024",
    "state": "Assam",
    "countryCode": "IN",
    "website": "https://www.instagram.com/zoo_road.rentals/",
    "phone": "+918811057967",
    "phoneUnformatted": "+918811057967",
    "location": {
      "lat": 26.1644462,
      "lng": 91.7756419
    },
    "totalScore": 5,
    "permanentlyClosed": false,
    "temporarilyClosed": false,
    "placeId": "ChIJ38gw5KxZWjcRXYCaWkcPRCs",
    "categories": [
      "Car leasing service"
    ],
    "reviewsCount": 24,
    "imagesCount": 27,
    "openingHours": [
      {
        "day": "Monday",
        "hours": "Open 24 hours"
      },
      {
        "day": "Tuesday",
        "hours": "Open 24 hours"
      },
      {
        "day": "Wednesday",
        "hours": "Open 24 hours"
      },
      {
        "day": "Thursday",
        "hours": "Open 24 hours"
      },
      {
        "day": "Friday",
        "hours": "Open 24 hours"
      },
      {
        "day": "Saturday",
        "hours": "Open 24 hours"
      },
      {
        "day": "Sunday",
        "hours": "Open 24 hours"
      }
    ],
    "imageUrl": "https://media.indianluxurycars.com/google/fe9f381a14bb8e24e1ed5e1deb1d863672aadf765471668752a37cceaa416e61.jpg",
    "url": "https://www.google.com/maps/search/?api=1&query=Zoo%20Road%20Rentals&query_place_id=ChIJ38gw5KxZWjcRXYCaWkcPRCs"
  }
]
