[
  {
    "title": "Arman Tour & Travels",
    "subTitle": "अरमान टूर & ट्रैवल्स",
    "categoryName": "Car rental agency",
    "address": "JC Mill Rd, near Yadav Dharam Kanta, Birla Nagar, Gwalior, Madhya Pradesh 474004, India",
    "neighborhood": "Birla Nagar",
    "street": "JC Mill Rd, near Yadav Dharam Kanta",
    "city": "Gwalior",
    "postalCode": "474004",
    "state": "Madhya Pradesh",
    "countryCode": "IN",
    "website": "https://armantourandtravels.in/",
    "phone": "+919993119156",
    "phoneUnformatted": "+919993119156",
    "location": {
      "lat": 26.234867,
      "lng": 78.1839919
    },
    "totalScore": 4.9,
    "permanentlyClosed": false,
    "temporarilyClosed": false,
    "placeId": "ChIJv-JdAj_HdjkRTwWy1fj_jwg",
    "categories": [
      "Car rental agency",
      "Taxi service",
      "Minibus taxi service",
      "Tour operator"
    ],
    "reviewsCount": 379,
    "imagesCount": 18,
    "openingHours": [],
    "imageUrl": "https://media.indianluxurycars.com/google/f90dacc92d38e76be22c2ceadc6ae6f126f2bfc18b644f797024e1f5166455fb.jpg",
    "url": "https://www.google.com/maps/search/?api=1&query=Arman%20Tour%20%26%20Travels&query_place_id=ChIJv-JdAj_HdjkRTwWy1fj_jwg"
  },
  {
    "title": "ASG Rent drive ( Self Drive Rental Vehicles car , bike , scooty & Taxi )",
    "subTitle": "एएसजी रेंट ड्राइव ( सेल्फ ड्राइव रेंटल व्हीकल्स कार , बाइक , स्कूटी & टैक्सी )",
    "categoryName": "Car rental agency",
    "address": "c, 29, behind milennium plaza, Govindpuri, Saraswati Nagar, Gwalior, Madhya Pradesh 474011, India",
    "neighborhood": "Govindpuri, Saraswati Nagar",
    "street": "c, 29, behind milennium plaza",
    "city": "Gwalior",
    "postalCode": "474011",
    "state": "Madhya Pradesh",
    "countryCode": "IN",
    "website": "https://asgrentdrive.com/",
    "phone": "+919244518380",
    "phoneUnformatted": "+919244518380",
    "location": {
      "lat": 26.2095102,
      "lng": 78.2004139
    },
    "totalScore": 4.9,
    "permanentlyClosed": false,
    "temporarilyClosed": false,
    "placeId": "ChIJHTm3RsMd_mMRxDFphPw2lMg",
    "categories": [
      "Car rental agency",
      "Motorcycle rental agency",
      "Scooter rental service",
      "Taxi service"
    ],
    "reviewsCount": 180,
    "imagesCount": 30,
    "openingHours": [
      {
        "day": "Monday",
        "hours": "Open 24 hours"
      },
      {
        "day": "Tuesday",
        "hours": "Open 24 hours"
      },
      {
        "day": "Wednesday",
        "hours": "Open 24 hours"
      },
      {
        "day": "Thursday",
        "hours": "Open 24 hours"
      },
      {
        "day": "Friday",
        "hours": "Open 24 hours"
      },
      {
        "day": "Saturday",
        "hours": "Open 24 hours"
      },
      {
        "day": "Sunday",
        "hours": "Open 24 hours"
      }
    ],
    "imageUrl": "https://media.indianluxurycars.com/google/c856eb7e5f446467b5b0eff3274c26ebda492adeadf519e342857fb8f49cafe8.jpg",
    "url": "https://www.google.com/maps/search/?api=1&query=ASG%20Rent%20drive%20(%20Self%20Drive%20Rental%20Vehicles%20car%20%2C%20bike%20%2C%20scooty%20%26%20Taxi%20)&query_place_id=ChIJHTm3RsMd_mMRxDFphPw2lMg"
  },
  {
    "title": "Bleisure Trip",
    "subTitle": "ब्लेइसुरे ट्रिप",
    "categoryName": "Car leasing service",
    "address": "3rd floor, The Central Mall, Sanatan Dharam Mandir Rd, near Achleshwar Temple, Roshni Ghar Mohalla, Lashkar, Gwalior, Madhya Pradesh 474001, India",
    "neighborhood": "Roshni Ghar Mohalla, Lashkar",
    "street": "3rd floor, The Central Mall, Sanatan Dharam Mandir Rd, near Achleshwar Temple",
    "city": "Gwalior",
    "postalCode": "474001",
    "state": "Madhya Pradesh",
    "countryCode": "IN",
    "website": "http://www.bleisuretripclub.com/",
    "phone": "+918602126445",
    "phoneUnformatted": "+918602126445",
    "location": {
      "lat": 26.1993615,
      "lng": 78.1643266
    },
    "totalScore": 4.9,
    "permanentlyClosed": false,
    "temporarilyClosed": false,
    "placeId": "ChIJkVG0ySHFdjkRNZPtVZ7maSY",
    "categories": [
      "Car leasing service",
      "Airline ticket agency",
      "Travel agency",
      "Cruise agency",
      "Taxi service",
      "Tour operator",
      "Train ticket agency",
      "Train ticket office",
      "Transportation service",
      "Visa consulting service"
    ],
    "reviewsCount": 109,
    "imagesCount": 144,
    "openingHours": [
      {
        "day": "Monday",
        "hours": "10 AM to 7 PM"
      },
      {
        "day": "Tuesday",
        "hours": "10 AM to 7 PM"
      },
      {
        "day": "Wednesday",
        "hours": "10 AM to 7 PM"
      },
      {
        "day": "Thursday",
        "hours": "10 AM to 7 PM"
      },
      {
        "day": "Friday",
        "hours": "10 AM to 7 PM"
      },
      {
        "day": "Saturday",
        "hours": "10 AM to 2 PM"
      },
      {
        "day": "Sunday",
        "hours": "Closed"
      }
    ],
    "imageUrl": "https://media.indianluxurycars.com/google/48463ceb8751f5b0922f43650d66ce3f11d44ec633ae7ed75409df94b3f33472.jpg",
    "url": "https://www.google.com/maps/search/?api=1&query=Bleisure%20Trip&query_place_id=ChIJkVG0ySHFdjkRNZPtVZ7maSY"
  },
  {
    "title": "Car choice",
    "subTitle": "कार चॉइस",
    "categoryName": "Used car dealer",
    "address": "G-8 Ganpati Plaza City Center, Tulsi Vihar Colony, Gwalior, Madhya Pradesh 474002, India",
    "neighborhood": "City Center, Tulsi Vihar Colony",
    "street": "G-8 Ganpati Plaza City Center",
    "city": "Gwalior",
    "postalCode": "474002",
    "state": "Madhya Pradesh",
    "countryCode": "IN",
    "phone": "+919425115915",
    "phoneUnformatted": "+919425115915",
    "location": {
      "lat": 26.205443,
      "lng": 78.1900652
    },
    "totalScore": 4.3,
    "permanentlyClosed": false,
    "temporarilyClosed": false,
    "placeId": "ChIJ0WCVLxvEdjkR_VgoqXVAbzI",
    "categories": [
      "Used car dealer"
    ],
    "reviewsCount": 6,
    "imagesCount": 30,
    "openingHours": [
      {
        "day": "Monday",
        "hours": "10 AM to 7 PM"
      },
      {
        "day": "Tuesday",
        "hours": "10 AM to 7 PM"
      },
      {
        "day": "Wednesday",
        "hours": "10 AM to 7 PM"
      },
      {
        "day": "Thursday",
        "hours": "10 AM to 7 PM"
      },
      {
        "day": "Friday",
        "hours": "10 AM to 7 PM"
      },
      {
        "day": "Saturday",
        "hours": "10 AM to 7 PM"
      },
      {
        "day": "Sunday",
        "hours": "Closed"
      }
    ],
    "imageUrl": "https://media.indianluxurycars.com/google/81a635e30700b3cc6b572117aa148526b681ffbef51eadfd8317bed9b596ca30.jpg",
    "url": "https://www.google.com/maps/search/?api=1&query=Car%20choice&query_place_id=ChIJ0WCVLxvEdjkR_VgoqXVAbzI"
  },
  {
    "title": "Car on Rent in Gwalior",
    "subTitle": "कार ऑन रेंट इन ग्वालियर",
    "categoryName": "Car leasing service",
    "address": "railway station, Ghosipura, Gwalior, Madhya Pradesh 474012, India",
    "neighborhood": "Ghosipura",
    "street": "railway station",
    "city": "Gwalior",
    "postalCode": "474012",
    "state": "Madhya Pradesh",
    "countryCode": "IN",
    "location": {
      "lat": 26.2118494,
      "lng": 78.1521676
    },
    "totalScore": 5,
    "permanentlyClosed": false,
    "temporarilyClosed": true,
    "placeId": "ChIJrT7eZWDHdjkRxAUy0SHjPkI",
    "categories": [
      "Car leasing service"
    ],
    "reviewsCount": 1,
    "imagesCount": 1,
    "openingHours": [],
    "imageUrl": "https://media.indianluxurycars.com/google/a3677ae4c8bce42fcd6a4c5ee23727df291144124aa54b385d4a83a8e6fefc48.jpg",
    "url": "https://www.google.com/maps/search/?api=1&query=Car%20on%20Rent%20in%20Gwalior&query_place_id=ChIJrT7eZWDHdjkRxAUy0SHjPkI"
  },
  {
    "title": "Chaturvedi Travels and Tours",
    "subTitle": "चतुर्वेदी यात्रा और पर्यटन",
    "categoryName": "Car rental agency",
    "address": "Shop No. 29, in front of Water Tank, City Center, Tulsi Vihar Colony, Gwalior, Madhya Pradesh 474002, India",
    "neighborhood": "City Center, Tulsi Vihar Colony",
    "street": "Shop No. 29, in front of Water Tank",
    "city": "Gwalior",
    "postalCode": "474002",
    "state": "Madhya Pradesh",
    "countryCode": "IN",
    "website": "https://www.chaturveditravels.com/",
    "phone": "+919826355115",
    "phoneUnformatted": "+919826355115",
    "location": {
      "lat": 26.2060472,
      "lng": 78.1905598
    },
    "totalScore": 4.5,
    "permanentlyClosed": false,
    "temporarilyClosed": false,
    "placeId": "ChIJqzQPNRvEdjkRMMZKJsJSNFM",
    "categories": [
      "Car rental agency",
      "Car leasing service",
      "Taxi service",
      "Minibus taxi service",
      "Sightseeing tour agency",
      "Tour agency",
      "Tour operator",
      "Tourist attraction",
      "Travel agency",
      "Van rental agency"
    ],
    "reviewsCount": 252,
    "imagesCount": 56,
    "openingHours": [],
    "imageUrl": "https://media.indianluxurycars.com/google/872abd569e24f3981a8a14267ecf86f7270414189cec4cee73bbab11ca935a51.jpg",
    "url": "https://www.google.com/maps/search/?api=1&query=Chaturvedi%20Travels%20and%20Tours&query_place_id=ChIJqzQPNRvEdjkRMMZKJsJSNFM"
  },
  {
    "title": "Drivenride",
    "subTitle": "ड्रिवेनराइड",
    "categoryName": "Car rental agency",
    "address": "12 devashish inclave, near chirayu hospital, City Center, Gwalior, Madhya Pradesh 474002, India",
    "neighborhood": "City Center, Tulsi Vihar Colony",
    "street": "12 devashish inclave, near chirayu hospital",
    "city": "Gwalior",
    "postalCode": "474002",
    "state": "Madhya Pradesh",
    "countryCode": "IN",
    "phone": "+917773088526",
    "phoneUnformatted": "+917773088526",
    "location": {
      "lat": 26.2077003,
      "lng": 78.1947444
    },
    "totalScore": 4.4,
    "permanentlyClosed": false,
    "temporarilyClosed": false,
    "placeId": "ChIJsQIhl-HFdjkRuIzwZjwdwU0",
    "categories": [
      "Car rental agency",
      "Car leasing service"
    ],
    "reviewsCount": 209,
    "imagesCount": 32,
    "openingHours": [
      {
        "day": "Monday",
        "hours": "9 AM to 7 PM"
      },
      {
        "day": "Tuesday",
        "hours": "9 AM to 7 PM"
      },
      {
        "day": "Wednesday",
        "hours": "9 AM to 7 PM"
      },
      {
        "day": "Thursday",
        "hours": "9 AM to 7 PM"
      },
      {
        "day": "Friday",
        "hours": "9 AM to 7 PM"
      },
      {
        "day": "Saturday",
        "hours": "9 AM to 7 PM"
      },
      {
        "day": "Sunday",
        "hours": "9 AM to 7 PM"
      }
    ],
    "imageUrl": "https://media.indianluxurycars.com/google/36025b139bbce19fce7fff478faa955fbe1b39b43d94363faebecef05a56a8eb.jpg",
    "url": "https://www.google.com/maps/search/?api=1&query=Drivenride&query_place_id=ChIJsQIhl-HFdjkRuIzwZjwdwU0"
  },
  {
    "title": "Galaxy Motors",
    "subTitle": "गैलेक्सी मोटर्स",
    "categoryName": "Car repair and maintenance service",
    "address": "AB Road, near Navgrah Mandir, Bahodapur, Anand Nagar, Gwalior, Madhya Pradesh 474012, India",
    "neighborhood": "Bahodapur, Anand Nagar",
    "street": "AB Road, near Navgrah Mandir",
    "city": "Gwalior",
    "postalCode": "474012",
    "state": "Madhya Pradesh",
    "countryCode": "IN",
    "phone": "+917000143932",
    "phoneUnformatted": "+917000143932",
    "location": {
      "lat": 26.2305709,
      "lng": 78.1489249
    },
    "totalScore": 4.9,
    "permanentlyClosed": false,
    "temporarilyClosed": false,
    "placeId": "ChIJXaXnHWfGdjkR0kgjNXtxgaI",
    "categories": [
      "Car repair and maintenance service"
    ],
    "reviewsCount": 17,
    "imagesCount": 74,
    "openingHours": [],
    "imageUrl": "https://media.indianluxurycars.com/google/91e21bcd10e9b294e9e5ab7c28f670f516352cac8786744997c63bda8a9ec4ac.jpg",
    "url": "https://www.google.com/maps/search/?api=1&query=Galaxy%20Motors&query_place_id=ChIJXaXnHWfGdjkR0kgjNXtxgaI"
  },
  {
    "title": "Globalduniya Gwalior | Travel Agency | International Flights | Vacation Package Expert",
    "subTitle": "ग्लोबलदुनिया ग्वालियर | ट्रैवल एजेंसी | इंटरनेशनल फ्लाइट्स | वेकेशन पैकेज एक्सपर्ट",
    "categoryName": "Car leasing service",
    "address": "J 72, Main Rd, City Center, Patel Nagar, Gwalior, Madhya Pradesh 474002, India",
    "neighborhood": "City Center, Patel Nagar",
    "street": "J 72, Main Rd",
    "city": "Gwalior",
    "postalCode": "474002",
    "state": "Madhya Pradesh",
    "countryCode": "IN",
    "website": "http://www.globalduniya.in/",
    "phone": "+918989920981",
    "phoneUnformatted": "+918989920981",
    "location": {
      "lat": 26.2092286,
      "lng": 78.1926875
    },
    "totalScore": 4.8,
    "permanentlyClosed": false,
    "temporarilyClosed": false,
    "placeId": "ChIJU5MaMi_ahVQR3cXjRc0cS0A",
    "categories": [
      "Car leasing service",
      "Airline ticket agency",
      "Travel agency",
      "Cruise agency",
      "Currency exchange service",
      "Passport agent",
      "Student career counseling office",
      "Tour operator",
      "Train ticket agency",
      "Visa and passport office"
    ],
    "reviewsCount": 156,
    "imagesCount": 423,
    "openingHours": [
      {
        "day": "Monday",
        "hours": "10:30 AM to 8:30 PM"
      },
      {
        "day": "Tuesday",
        "hours": "10:30 AM to 8:30 PM"
      },
      {
        "day": "Wednesday",
        "hours": "10:30 AM to 8:30 PM"
      },
      {
        "day": "Thursday",
        "hours": "10:30 AM to 8:30 PM"
      },
      {
        "day": "Friday",
        "hours": "10:30 AM to 8:30 PM"
      },
      {
        "day": "Saturday",
        "hours": "10:30 AM to 8:30 PM"
      },
      {
        "day": "Sunday",
        "hours": "12 to 7:30 PM"
      }
    ],
    "imageUrl": "https://media.indianluxurycars.com/google/4998a5820847aa43b73a1735103d02ac802eb209cd6f1127ecd9883bd94877a7.jpg",
    "url": "https://www.google.com/maps/search/?api=1&query=Globalduniya%20Gwalior%20%7C%20Travel%20Agency%20%7C%20International%20Flights%20%7C%20Vacation%20Package%20Expert&query_place_id=ChIJU5MaMi_ahVQR3cXjRc0cS0A"
  },
  {
    "title": "GTS - Taxi/Car/Cab Rental Hire Services in Gwalior",
    "subTitle": "ग्‍वालियर ट्रेवल सर्विसेज़",
    "categoryName": "Car rental agency",
    "address": "Sarobar Plaza, Lower ground, Phalka Bazar Rd, near kajal talkies, Phalka Bazar, Pardhi Mohalla, Lashkar, Gwalior, Madhya Pradesh 474001, India",
    "neighborhood": "Phalka Bazar, Pardhi Mohalla, Lashkar",
    "street": "Sarobar Plaza, Lower ground, Phalka Bazar Rd, near kajal talkies",
    "city": "Gwalior",
    "postalCode": "474001",
    "state": "Madhya Pradesh",
    "countryCode": "IN",
    "website": "https://www.gtstaxi.site/",
    "phone": "+919179748213",
    "phoneUnformatted": "+919179748213",
    "location": {
      "lat": 26.2039618,
      "lng": 78.1584473
    },
    "totalScore": 4.6,
    "permanentlyClosed": false,
    "temporarilyClosed": false,
    "placeId": "ChIJgUXTlADEdjkRuy5xoyDgybM",
    "categories": [
      "Car rental agency",
      "Car leasing service",
      "Taxi service",
      "Hotel",
      "Minibus taxi service",
      "Sightseeing tour agency",
      "Tour agency",
      "Tour operator",
      "Travel agency"
    ],
    "reviewsCount": 198,
    "imagesCount": 50,
    "openingHours": [],
    "imageUrl": "https://media.indianluxurycars.com/google/7baf240135e3a35101e6f73927763f50b32c1ba48fb2bd0584ce7fe8be42273e.jpg",
    "url": "https://www.google.com/maps/search/?api=1&query=GTS%20-%20Taxi%2FCar%2FCab%20Rental%20Hire%20Services%20in%20Gwalior&query_place_id=ChIJgUXTlADEdjkRuy5xoyDgybM"
  },
  {
    "title": "Gwalior car bazar",
    "subTitle": "ग्वालियर कार बाजार",
    "categoryName": "Car dealer",
    "address": "Shivpuri Link Rd, near link hospital, Gwalior, Madhya Pradesh 474001, India",
    "street": "Shivpuri Link Rd, near link hospital",
    "city": "Gwalior",
    "postalCode": "474001",
    "state": "Madhya Pradesh",
    "countryCode": "IN",
    "phone": "+919617445698",
    "phoneUnformatted": "+919617445698",
    "location": {
      "lat": 26.1600566,
      "lng": 78.1582442
    },
    "totalScore": 4.5,
    "permanentlyClosed": false,
    "temporarilyClosed": false,
    "placeId": "ChIJRyFOHmrFdjkR3e-mb3B8pLA",
    "categories": [
      "Car dealer"
    ],
    "reviewsCount": 12,
    "imagesCount": 33,
    "openingHours": [
      {
        "day": "Monday",
        "hours": "10 AM to 7 PM"
      },
      {
        "day": "Tuesday",
        "hours": "10 AM to 7 PM"
      },
      {
        "day": "Wednesday",
        "hours": "10 AM to 7 PM"
      },
      {
        "day": "Thursday",
        "hours": "10 AM to 7 PM"
      },
      {
        "day": "Friday",
        "hours": "10 AM to 7 PM"
      },
      {
        "day": "Saturday",
        "hours": "10 AM to 7 PM"
      },
      {
        "day": "Sunday",
        "hours": "10 AM to 7 PM"
      }
    ],
    "imageUrl": "https://media.indianluxurycars.com/google/a85cacc9e96545a549937374608caf222b8b3cbec898347765b76595c0e99653.jpg",
    "url": "https://www.google.com/maps/search/?api=1&query=Gwalior%20car%20bazar&query_place_id=ChIJRyFOHmrFdjkR3e-mb3B8pLA"
  },
  {
    "title": "Gwalior Car Rental | Oneway Taxi Service in Gwalior | Outstaion Cab Service in Gwalior",
    "subTitle": "ग्वालियर कार रेंटल | वनवे टैक्सी सर्विस इन ग्वालियर | आउटस्टन कैब सर्विस इन ग्वालियर",
    "categoryName": "Car rental agency",
    "address": "infront of central park hotel, M 15, City Center, Raksha Vihar, Lashkar, Gwalior, Madhya Pradesh 474002, India",
    "neighborhood": "City Center, Raksha Vihar, Lashkar",
    "street": "infront of central park hotel, M 15",
    "city": "Gwalior",
    "postalCode": "474002",
    "state": "Madhya Pradesh",
    "countryCode": "IN",
    "website": "https://wa.me/917869808888",
    "location": {
      "lat": 26.210707,
      "lng": 78.1874417
    },
    "totalScore": 5,
    "permanentlyClosed": false,
    "temporarilyClosed": false,
    "placeId": "ChIJxygGMJvFdjkRmVLmJTDTU7Y",
    "categories": [
      "Car rental agency",
      "Taxi service",
      "Minibus taxi service",
      "Tour operator",
      "Travel agency"
    ],
    "reviewsCount": 5,
    "imagesCount": 9,
    "openingHours": [],
    "imageUrl": "https://media.indianluxurycars.com/google/a00627cb46d8423def09c7f47b138933eb00c58a775481e74e50501b9af1d204.jpg",
    "url": "https://www.google.com/maps/search/?api=1&query=Gwalior%20Car%20Rental%20%7C%20Oneway%20Taxi%20Service%20in%20Gwalior%20%7C%20Outstaion%20Cab%20Service%20in%20Gwalior&query_place_id=ChIJxygGMJvFdjkRmVLmJTDTU7Y"
  },
  {
    "title": "Gwalior Taxi And Cab Service",
    "subTitle": "ग्वालियर टैक्सी एंड कैब सर्विस",
    "categoryName": "Car leasing service",
    "address": "10, Road, City Center, Patel Nagar, Gwalior, Madhya Pradesh 474011, India",
    "neighborhood": "City Center, Patel Nagar",
    "street": "10, Road",
    "city": "Gwalior",
    "postalCode": "474011",
    "state": "Madhya Pradesh",
    "countryCode": "IN",
    "phone": "+917024469969",
    "phoneUnformatted": "+917024469969",
    "location": {
      "lat": 26.211775,
      "lng": 78.1948649
    },
    "totalScore": 5,
    "permanentlyClosed": false,
    "temporarilyClosed": false,
    "placeId": "ChIJN1DybyfFdjkRP4GETvCsFPM",
    "categories": [
      "Car leasing service",
      "Taxi service",
      "Tour agency"
    ],
    "reviewsCount": 49,
    "imagesCount": 13,
    "openingHours": [],
    "imageUrl": "https://media.indianluxurycars.com/google/fe831edc4d45179b61d9328596915c670b909525d9601e2dd22c6877b6be5707.jpg",
    "url": "https://www.google.com/maps/search/?api=1&query=Gwalior%20Taxi%20And%20Cab%20Service&query_place_id=ChIJN1DybyfFdjkRP4GETvCsFPM"
  },
  {
    "title": "Gwalior Taxi Service - Tempo Traveller in Gwalior - One Way/Airport Taxi - Car Hire/Rental Gwalior - Travel Agency Gwalior",
    "subTitle": "ग्वालियर टैक्सी सर्विस - टेम्पो ट्रैवलर इन ग्वालियर - वन वे/एयरपोर्ट टैक्सी - कार हीरे/रेंटल ग्वालियर - ट्रैवल एजेंसी ग्वालियर",
    "categoryName": "Car leasing service",
    "address": "Shop No 4, Railway Station Market, Racecourse Rd, LNUPE Campus, Gwalior, Madhya Pradesh 474002, India",
    "neighborhood": "LNUPE Campus",
    "street": "Shop No 4, Railway Station Market, Racecourse Rd",
    "city": "Gwalior",
    "postalCode": "474002",
    "state": "Madhya Pradesh",
    "countryCode": "IN",
    "website": "https://gwaliortaxiservice.com/",
    "phone": "+919926058066",
    "phoneUnformatted": "+919926058066",
    "location": {
      "lat": 26.2154158,
      "lng": 78.1831081
    },
    "totalScore": 4.9,
    "permanentlyClosed": false,
    "temporarilyClosed": false,
    "placeId": "ChIJ_aQ7wSjHdjkRnHfr-kGDZKk",
    "categories": [
      "Car leasing service",
      "Airport shuttle service",
      "Travel agency",
      "Minibus taxi service",
      "Taxi service"
    ],
    "reviewsCount": 346,
    "imagesCount": 182,
    "openingHours": [
      {
        "day": "Monday",
        "hours": "Open 24 hours"
      },
      {
        "day": "Tuesday",
        "hours": "Open 24 hours"
      },
      {
        "day": "Wednesday",
        "hours": "Open 24 hours"
      },
      {
        "day": "Thursday",
        "hours": "Open 24 hours"
      },
      {
        "day": "Friday",
        "hours": "Open 24 hours"
      },
      {
        "day": "Saturday",
        "hours": "Open 24 hours"
      },
      {
        "day": "Sunday",
        "hours": "Open 24 hours"
      }
    ],
    "imageUrl": "https://media.indianluxurycars.com/google/48c82194e2be65ed0f21ebc8c67ec46f6f4aa2f957f02888387fbdbe000bf487.jpg",
    "url": "https://www.google.com/maps/search/?api=1&query=Gwalior%20Taxi%20Service%20-%20Tempo%20Traveller%20in%20Gwalior%20-%20One%20Way%2FAirport%20Taxi%20-%20Car%20Hire%2FRental%20Gwalior%20-%20Travel%20Agency%20Gwalior&query_place_id=ChIJ_aQ7wSjHdjkRnHfr-kGDZKk"
  },
  {
    "title": "Ics Tour and Travels | Tempo Traveller on rent in Gwalior | Tempo Traveller hire in Gwalior | Tempo Traveller in Gwalior",
    "subTitle": "आईसीएस टूर एंड ट्रैवल्स | टेम्पो ट्रैवलर ऑन रेंट इन ग्वालियर | टेम्पो ट्रैवलर हीरे इन ग्वालियर | टेम्पो ट्रैवलर इन ग्वालियर",
    "categoryName": "Car rental agency",
    "address": "A 36, Pitambara Colony, Birla Nagar, Gwalior, Madhya Pradesh 474004, India",
    "neighborhood": "Pitambara Colony, Birla Nagar",
    "street": "A 36",
    "city": "Gwalior",
    "postalCode": "474004",
    "state": "Madhya Pradesh",
    "countryCode": "IN",
    "website": "https://icstourandtravelsgwl.infinityfreeapp.com/",
    "phone": "+918120863981",
    "phoneUnformatted": "+918120863981",
    "location": {
      "lat": 26.2362575,
      "lng": 78.1888547
    },
    "totalScore": 4.9,
    "permanentlyClosed": false,
    "temporarilyClosed": false,
    "placeId": "ChIJ89qy_frHdjkR3QSeWKSyuhk",
    "categories": [
      "Car rental agency",
      "Car leasing service",
      "Travel agency",
      "Minibus taxi service",
      "Taxi service",
      "Tour agency",
      "Tour operator",
      "Van rental agency"
    ],
    "reviewsCount": 132,
    "imagesCount": 51,
    "openingHours": [
      {
        "day": "Monday",
        "hours": "Open 24 hours"
      },
      {
        "day": "Tuesday",
        "hours": "Open 24 hours"
      },
      {
        "day": "Wednesday",
        "hours": "Open 24 hours"
      },
      {
        "day": "Thursday",
        "hours": "Open 24 hours"
      },
      {
        "day": "Friday",
        "hours": "Open 24 hours"
      },
      {
        "day": "Saturday",
        "hours": "Open 24 hours"
      },
      {
        "day": "Sunday",
        "hours": "Open 24 hours"
      }
    ],
    "imageUrl": "https://media.indianluxurycars.com/google/31a4c8e996dfe044e9754d3a7b157baf04f7f61ad9592922bc47051301849e50.jpg",
    "url": "https://www.google.com/maps/search/?api=1&query=Ics%20Tour%20and%20Travels%20%7C%20Tempo%20Traveller%20on%20rent%20in%20Gwalior%20%7C%20Tempo%20Traveller%20hire%20in%20Gwalior%20%7C%20Tempo%20Traveller%20in%20Gwalior&query_place_id=ChIJ89qy_frHdjkR3QSeWKSyuhk"
  },
  {
    "title": "Kirti Cab Rental- best travel agent gwalior/ travel agency in gwalior/ travel agent gwalior",
    "subTitle": "कीर्ति कैब रेंटल",
    "categoryName": "Car rental agency",
    "address": "Shop No 5, City Centre, BDS Tower, City Center, Patel Nagar, Gwalior, Madhya Pradesh 474002, India",
    "neighborhood": "City Center, Patel Nagar",
    "street": "Shop No 5, City Centre, BDS Tower",
    "city": "Gwalior",
    "postalCode": "474002",
    "state": "Madhya Pradesh",
    "countryCode": "IN",
    "phone": "+919285058066",
    "phoneUnformatted": "+919285058066",
    "location": {
      "lat": 26.2089295,
      "lng": 78.1916584
    },
    "totalScore": 5,
    "permanentlyClosed": false,
    "temporarilyClosed": false,
    "placeId": "ChIJ7fUL7BvHdjkRgwWHfMp0O9M",
    "categories": [
      "Car rental agency",
      "Taxi service",
      "Minibus taxi service",
      "Travel agency"
    ],
    "reviewsCount": 292,
    "imagesCount": 46,
    "openingHours": [],
    "imageUrl": "https://media.indianluxurycars.com/google/c4808a138da771ae586855b50a1c10bf484f419b7ab2efbc0e0311ec278284ca.jpg",
    "url": "https://www.google.com/maps/search/?api=1&query=Kirti%20Cab%20Rental-%20best%20travel%20agent%20gwalior%2F%20travel%20agency%20in%20gwalior%2F%20travel%20agent%20gwalior&query_place_id=ChIJ7fUL7BvHdjkRgwWHfMp0O9M"
  },
  {
    "title": "Kirti Cab Service - Taxi Service Gwalior / Airport Car Rental Gwalior / Tempo Traveller Rent Gwalior / One Way Taxi",
    "subTitle": "कीर्ति कैब सर्विस - टैक्सी सर्विस ग्वालियर / एयरपोर्ट कार रेंटल ग्वालियर / टेम्पो ट्रैवलर रेंट ग्वालियर / वन वे टैक्सी",
    "categoryName": "Car leasing service",
    "address": "Front of Central Park Hotel, near Petrol Pump, City Center, Raksha Vihar, Lashkar, Gwalior, Madhya Pradesh 474002, India",
    "neighborhood": "City Center, Raksha Vihar, Lashkar",
    "street": "Front of Central Park Hotel, near Petrol Pump",
    "city": "Gwalior",
    "postalCode": "474002",
    "state": "Madhya Pradesh",
    "countryCode": "IN",
    "website": "http://www.kirtitaxiservice.com/",
    "phone": "+919630258066",
    "phoneUnformatted": "+919630258066",
    "location": {
      "lat": 26.2111929,
      "lng": 78.1871799
    },
    "totalScore": 5,
    "permanentlyClosed": false,
    "temporarilyClosed": false,
    "placeId": "ChIJOwiF2wkCek4RHULC-R1daDA",
    "categories": [
      "Car leasing service",
      "Taxi service",
      "Chauffeur service",
      "Minibus taxi service",
      "Tour agency",
      "Tour operator",
      "Transportation service",
      "Travel clinic"
    ],
    "reviewsCount": 805,
    "imagesCount": 131,
    "openingHours": [],
    "imageUrl": "https://media.indianluxurycars.com/google/3faadea994a830e9aad189d14aff975cd3bac3669d5e8f80518b896a183ebf85.jpg",
    "url": "https://www.google.com/maps/search/?api=1&query=Kirti%20Cab%20Service%20-%20Taxi%20Service%20Gwalior%20%2F%20Airport%20Car%20Rental%20Gwalior%20%2F%20Tempo%20Traveller%20Rent%20Gwalior%20%2F%20One%20Way%20Taxi&query_place_id=ChIJOwiF2wkCek4RHULC-R1daDA"
  },
  {
    "title": "Kishori ji Tour and Travels: Taxi Service in gwalior / Car Rental service /Top Tempo Travellers On Rent",
    "subTitle": "किशोरी जी टूर एंड ट्रेवल्स: टैक्सी सर्विस इन ग्वालियर / कार रेंटल सर्विस /टॉप टेम्पो ट्रैवलर्स ऑन रेंट",
    "categoryName": "Car rental agency",
    "address": "infront of taradevi kirana store, Aamkho Rd, behind Potdar Dental Hospital, Vijaynagar, Gwalior, Madhya Pradesh 474009, India",
    "neighborhood": "Vijaynagar",
    "street": "infront of taradevi kirana store, Aamkho Rd, behind Potdar Dental Hospital",
    "city": "Gwalior",
    "postalCode": "474009",
    "state": "Madhya Pradesh",
    "countryCode": "IN",
    "website": "https://kishoricarrental.com/",
    "phone": "+917987824598",
    "phoneUnformatted": "+917987824598",
    "location": {
      "lat": 26.189431,
      "lng": 78.1617094
    },
    "totalScore": 4.9,
    "permanentlyClosed": false,
    "temporarilyClosed": false,
    "placeId": "ChIJj7qor7PFdjkRypu9Ih42y2s",
    "categories": [
      "Car rental agency",
      "Airport shuttle service",
      "Bus tour agency",
      "Car leasing service",
      "Taxi service",
      "Minibus taxi service",
      "Tour operator",
      "Transportation service"
    ],
    "reviewsCount": 134,
    "imagesCount": 93,
    "openingHours": [],
    "imageUrl": "https://media.indianluxurycars.com/google/ac7ed43eafd69824bcd29c59cdfca5522a005c534244bc7645019b3a06bf29c4.jpg",
    "url": "https://www.google.com/maps/search/?api=1&query=Kishori%20ji%20Tour%20and%20Travels%3A%20Taxi%20Service%20in%20gwalior%20%2F%20Car%20Rental%20service%20%2FTop%20Tempo%20Travellers%20On%20Rent&query_place_id=ChIJj7qor7PFdjkRypu9Ih42y2s"
  },
  {
    "title": "Krishna Cab Service - Taxi Service in Gwalior - Car Rental Company - Best Taxi For One Way - Outstation - Airport On Rent",
    "subTitle": "कृष्ण कैब सर्विस",
    "categoryName": "Car rental agency",
    "address": "5, Main Rd, near Central Park Hotel, City Center, Raksha Vihar, Lashkar, Gwalior, Madhya Pradesh 474002, India",
    "neighborhood": "City Center, Raksha Vihar, Lashkar",
    "street": "5, Main Rd, near Central Park Hotel",
    "city": "Gwalior",
    "postalCode": "474002",
    "state": "Madhya Pradesh",
    "countryCode": "IN",
    "website": "https://krishnacabservices.in/",
    "phone": "+919630980645",
    "phoneUnformatted": "+919630980645",
    "location": {
      "lat": 26.2107954,
      "lng": 78.187356
    },
    "totalScore": 4.9,
    "permanentlyClosed": false,
    "temporarilyClosed": false,
    "placeId": "ChIJ0RDfyUbHdjkRcMBK-Jk3Q8w",
    "categories": [
      "Car rental agency",
      "Airport shuttle service",
      "Car leasing service",
      "Taxi service",
      "Minibus taxi service",
      "Taxicab Stand",
      "Travel agency"
    ],
    "reviewsCount": 2656,
    "imagesCount": 154,
    "openingHours": [],
    "imageUrl": "https://media.indianluxurycars.com/google/51f92a99dd5199ea532b28d011d23d8f2e3b4a48807ceabe524f565b9d41f672.jpg",
    "url": "https://www.google.com/maps/search/?api=1&query=Krishna%20Cab%20Service%20-%20Taxi%20Service%20in%20Gwalior%20-%20Car%20Rental%20Company%20-%20Best%20Taxi%20For%20One%20Way%20-%20Outstation%20-%20Airport%20On%20Rent&query_place_id=ChIJ0RDfyUbHdjkRcMBK-Jk3Q8w"
  },
  {
    "title": "Mahakal Tour & Travels Gwalior | taxi hire gwalior |",
    "subTitle": "महाकाल टूर & ट्रैवल्स ग्वालियर | टैक्सी हीरे ग्वालियर |",
    "categoryName": "Car rental agency",
    "address": "Purana bus stand, Kampoo Rd, Jawahar Colony, Lashkar, Gwalior, Madhya Pradesh 474001, India",
    "neighborhood": "Jawahar Colony, Lashkar",
    "street": "Purana bus stand, Kampoo Rd",
    "city": "Gwalior",
    "postalCode": "474001",
    "state": "Madhya Pradesh",
    "countryCode": "IN",
    "website": "https://wa.link/jhq7sc",
    "phone": "+916269643919",
    "phoneUnformatted": "+916269643919",
    "location": {
      "lat": 26.1936696,
      "lng": 78.153227
    },
    "totalScore": 4.8,
    "permanentlyClosed": false,
    "temporarilyClosed": false,
    "placeId": "ChIJC2zi6-_FdjkRfvK1SKXJu6U",
    "categories": [
      "Car rental agency",
      "Car leasing service",
      "Taxi service",
      "Tour agency",
      "Travel agency"
    ],
    "reviewsCount": 65,
    "imagesCount": 8,
    "openingHours": [],
    "imageUrl": "https://media.indianluxurycars.com/google/825f269bc1a301c816ff20a71dece57bfb988d18d2b597f64b26f62755e986b1.jpg",
    "url": "https://www.google.com/maps/search/?api=1&query=Mahakal%20Tour%20%26%20Travels%20Gwalior%20%7C%20taxi%20hire%20gwalior%20%7C&query_place_id=ChIJC2zi6-_FdjkRfvK1SKXJu6U"
  },
  {
    "title": "Maruti Suzuki True Value (Prem Motors, Gwalior, Shivpuri Link Road)",
    "subTitle": "मारुति सुजुकी ट्रू वैल्यू (प्रेम मोटर्स, ग्वालियर, शिवपुरी लिंक रोड)",
    "categoryName": "Used car dealer",
    "address": "Shivpuri Link Rd, near Neelshri Hotel, near Asharambapu Ashram, Kothi Gaon, Gwalior, Madhya Pradesh 474001, India",
    "neighborhood": "Kothi Gaon",
    "street": "Shivpuri Link Rd, near Neelshri Hotel, near Asharambapu Ashram",
    "city": "Gwalior",
    "postalCode": "474001",
    "state": "Madhya Pradesh",
    "countryCode": "IN",
    "website": "http://truevalueofshivpurilinkroad.com/?utm_source=gmb&utm_medium=google&utm_campaign=seo-local",
    "phone": "+918037530838",
    "phoneUnformatted": "+918037530838",
    "location": {
      "lat": 26.1634387,
      "lng": 78.1673262
    },
    "totalScore": 5,
    "permanentlyClosed": false,
    "temporarilyClosed": false,
    "placeId": "ChIJ_Wq8POPFdjkRnlMh6Hlfc4I",
    "categories": [
      "Used car dealer"
    ],
    "reviewsCount": 1467,
    "imagesCount": 46,
    "openingHours": [
      {
        "day": "Monday",
        "hours": "9:30 AM to 7 PM"
      },
      {
        "day": "Tuesday",
        "hours": "9:30 AM to 7 PM"
      },
      {
        "day": "Wednesday",
        "hours": "9:30 AM to 7 PM"
      },
      {
        "day": "Thursday",
        "hours": "9:30 AM to 7 PM"
      },
      {
        "day": "Friday",
        "hours": "9:30 AM to 7 PM"
      },
      {
        "day": "Saturday",
        "hours": "9:30 AM to 7 PM"
      },
      {
        "day": "Sunday",
        "hours": "9:30 AM to 7 PM"
      }
    ],
    "imageUrl": "https://media.indianluxurycars.com/google/38d1c4ef958d18089e632ec252e4548431417c7fbf4b11720a2e135e0cc35dcb.jpg",
    "url": "https://www.google.com/maps/search/?api=1&query=Maruti%20Suzuki%20True%20Value%20(Prem%20Motors%2C%20Gwalior%2C%20Shivpuri%20Link%20Road)&query_place_id=ChIJ_Wq8POPFdjkRnlMh6Hlfc4I"
  },
  {
    "title": "MODI AUTO DEAL",
    "subTitle": "मोदी ऑटो डील ग्वालियर",
    "categoryName": "Car dealer",
    "address": "54WG+4FW, Shri Ram Colony, Gwalior, Madhya Pradesh 474001, India",
    "neighborhood": "Shri Ram Colony",
    "street": "54WG+4FW",
    "city": "Gwalior",
    "postalCode": "474001",
    "state": "Madhya Pradesh",
    "countryCode": "IN",
    "phone": "+917509509216",
    "phoneUnformatted": "+917509509216",
    "location": {
      "lat": 26.1952627,
      "lng": 78.1261762
    },
    "totalScore": 5,
    "permanentlyClosed": false,
    "temporarilyClosed": false,
    "placeId": "ChIJP1fhGnrFdjkRhJdOYuvfDHU",
    "categories": [
      "Car dealer"
    ],
    "reviewsCount": 1,
    "imagesCount": 10,
    "openingHours": [
      {
        "day": "Monday",
        "hours": "9 AM to 7 PM"
      },
      {
        "day": "Tuesday",
        "hours": "9 AM to 7 PM"
      },
      {
        "day": "Wednesday",
        "hours": "9 AM to 5 PM"
      },
      {
        "day": "Thursday",
        "hours": "9 AM to 5 PM"
      },
      {
        "day": "Friday",
        "hours": "9 AM to 5 PM"
      },
      {
        "day": "Saturday",
        "hours": "9 AM to 5 PM"
      },
      {
        "day": "Sunday",
        "hours": "Closed"
      }
    ],
    "imageUrl": "https://media.indianluxurycars.com/google/a8065f6a0aba374e01e63e8c7f453104796300d635435781f4215e44808536c4.jpg",
    "url": "https://www.google.com/maps/search/?api=1&query=MODI%20AUTO%20DEAL&query_place_id=ChIJP1fhGnrFdjkRhJdOYuvfDHU"
  },
  {
    "title": "Om Car Rental - Luxury Car Booking - Tempo Traveller Service in Gwalior - One Way/Airport Taxi - Car Hire/Rental Gwalior",
    "subTitle": "ओम कार रेंटल - लक्जरी कार बुकिंग - टेम्पो ट्रैवलर सर्विस इन ग्वालियर - वन वे/एयरपोर्ट टैक्सी - कार हीरे/रेंटल ग्वालियर",
    "categoryName": "Car rental agency",
    "address": "New Chandra Nagar, Maharani Laxmi Bai Colony, Lashkar, Gwalior, Madhya Pradesh 474002, India",
    "neighborhood": "New Chandra Nagar, Maharani Laxmi Bai Colony, Lashkar",
    "city": "Gwalior",
    "postalCode": "474002",
    "state": "Madhya Pradesh",
    "countryCode": "IN",
    "website": "https://taxiservicegwalior.com/",
    "phone": "+918815880878",
    "phoneUnformatted": "+918815880878",
    "location": {
      "lat": 26.2133758,
      "lng": 78.1753361
    },
    "totalScore": 5,
    "permanentlyClosed": false,
    "temporarilyClosed": false,
    "placeId": "ChIJnRiukH7HdjkR2y7B0rcSXhI",
    "categories": [
      "Car rental agency",
      "Minibus taxi service",
      "Taxi service",
      "Tour operator",
      "Travel agency"
    ],
    "reviewsCount": 156,
    "imagesCount": 50,
    "openingHours": [
      {
        "day": "Monday",
        "hours": "Open 24 hours"
      },
      {
        "day": "Tuesday",
        "hours": "Open 24 hours"
      },
      {
        "day": "Wednesday",
        "hours": "Open 24 hours"
      },
      {
        "day": "Thursday",
        "hours": "Open 24 hours"
      },
      {
        "day": "Friday",
        "hours": "Open 24 hours"
      },
      {
        "day": "Saturday",
        "hours": "Open 24 hours"
      },
      {
        "day": "Sunday",
        "hours": "Open 24 hours"
      }
    ],
    "imageUrl": "https://media.indianluxurycars.com/google/f64b86a72743e3955346566e602d3af08ad43e77a0fbf7fde13e87830d9a7332.jpg",
    "url": "https://www.google.com/maps/search/?api=1&query=Om%20Car%20Rental%20-%20Luxury%20Car%20Booking%20-%20Tempo%20Traveller%20Service%20in%20Gwalior%20-%20One%20Way%2FAirport%20Taxi%20-%20Car%20Hire%2FRental%20Gwalior&query_place_id=ChIJnRiukH7HdjkR2y7B0rcSXhI"
  },
  {
    "title": "Orient Car Deal",
    "subTitle": "ओरिएंट कार डील",
    "categoryName": "Car dealer",
    "address": "6537+QGQ, Near Jayendraganj Tar Ghar, Jayendraganj, Lashkar, Gwalior, Madhya Pradesh 474009, India",
    "neighborhood": "Jayendraganj, Lashkar",
    "street": "6537+QGQ, Near Jayendraganj Tar Ghar",
    "city": "Gwalior",
    "postalCode": "474009",
    "state": "Madhya Pradesh",
    "countryCode": "IN",
    "phone": "+919827262959",
    "phoneUnformatted": "+919827262959",
    "location": {
      "lat": 26.2044647,
      "lng": 78.1638646
    },
    "totalScore": 4,
    "permanentlyClosed": false,
    "temporarilyClosed": false,
    "placeId": "ChIJCULFxi7EdjkRA3NK8g-mmQE",
    "categories": [
      "Car dealer"
    ],
    "reviewsCount": 2,
    "imagesCount": 8,
    "openingHours": [
      {
        "day": "Monday",
        "hours": "10 AM to 6 PM"
      },
      {
        "day": "Tuesday",
        "hours": "10 AM to 6 PM"
      },
      {
        "day": "Wednesday",
        "hours": "10 AM to 6 PM"
      },
      {
        "day": "Thursday",
        "hours": "10 AM to 6 PM"
      },
      {
        "day": "Friday",
        "hours": "10 AM to 6 PM"
      },
      {
        "day": "Saturday",
        "hours": "10 AM to 6 PM"
      },
      {
        "day": "Sunday",
        "hours": "10 AM to 6 PM"
      }
    ],
    "imageUrl": "https://media.indianluxurycars.com/google/47ee2177e72915602fd7bc5c7e6f454932f00fd554aa6ba800c41d27092e776e.jpg",
    "url": "https://www.google.com/maps/search/?api=1&query=Orient%20Car%20Deal&query_place_id=ChIJCULFxi7EdjkRA3NK8g-mmQE"
  },
  {
    "title": "Paras Car Accessories",
    "subTitle": "पारस कार एसेसरिज",
    "categoryName": "Car accessories store",
    "address": "Infront of Bank of Baroda, Jhansi Rd, near Bharat Petroleum, Naka Chandrvadni, Shiram Colony, Lashkar, Gwalior, Madhya Pradesh 474002, India",
    "neighborhood": "Naka Chandrvadni, Shiram Colony, Lashkar",
    "street": "Infront of Bank of Baroda, Jhansi Rd, near Bharat Petroleum",
    "city": "Gwalior",
    "postalCode": "474002",
    "state": "Madhya Pradesh",
    "countryCode": "IN",
    "phone": "+919407311629",
    "phoneUnformatted": "+919407311629",
    "location": {
      "lat": 26.1943332,
      "lng": 78.1729051
    },
    "totalScore": 5,
    "permanentlyClosed": false,
    "temporarilyClosed": false,
    "placeId": "ChIJwVRgaVnFdjkRoH3uVcQzmK8",
    "categories": [
      "Car accessories store"
    ],
    "reviewsCount": 26,
    "imagesCount": 12,
    "openingHours": [
      {
        "day": "Monday",
        "hours": "9 AM to 9 PM"
      },
      {
        "day": "Tuesday",
        "hours": "9 AM to 9 PM"
      },
      {
        "day": "Wednesday",
        "hours": "9 AM to 9 PM"
      },
      {
        "day": "Thursday",
        "hours": "9 AM to 9 PM"
      },
      {
        "day": "Friday",
        "hours": "9 AM to 9 PM"
      },
      {
        "day": "Saturday",
        "hours": "9 AM to 9 PM"
      },
      {
        "day": "Sunday",
        "hours": "9 AM to 9 PM"
      }
    ],
    "imageUrl": "https://media.indianluxurycars.com/google/1bad318ff838a73ec9482d8005f952c4d14d2a5948ba84aa30d57916e1e17438.jpg",
    "url": "https://www.google.com/maps/search/?api=1&query=Paras%20Car%20Accessories&query_place_id=ChIJwVRgaVnFdjkRoH3uVcQzmK8"
  },
  {
    "title": "Pathak Car Bazar - Best Resell Car Dealer | Second Hand Car Dealer | Used Car Dealer in Gwalior",
    "subTitle": "पाठक कार बाजार - बेस्ट रिसेल कार डीलर | सेकंड हैंड कार डीलर | यूज्ड कार डीलर इन ग्वालियर",
    "categoryName": "Used car dealer",
    "address": "near Tapovan Gate, Naka Chandrvadni, Paras Vihar Colony, Vijaynagar, Gwalior, Madhya Pradesh 474001, India",
    "neighborhood": "Naka Chandrvadni, Paras Vihar Colony, Vijaynagar",
    "street": "near Tapovan Gate",
    "city": "Gwalior",
    "postalCode": "474001",
    "state": "Madhya Pradesh",
    "countryCode": "IN",
    "phone": "+919827750046",
    "phoneUnformatted": "+919827750046",
    "location": {
      "lat": 26.1816775,
      "lng": 78.1728603
    },
    "totalScore": 4.5,
    "permanentlyClosed": false,
    "temporarilyClosed": false,
    "placeId": "ChIJqwYnMCbFdjkRka0oCtLTrfo",
    "categories": [
      "Used car dealer"
    ],
    "reviewsCount": 22,
    "imagesCount": 20,
    "openingHours": [
      {
        "day": "Monday",
        "hours": "10 AM to 7 PM"
      },
      {
        "day": "Tuesday",
        "hours": "10 AM to 7 PM"
      },
      {
        "day": "Wednesday",
        "hours": "10 AM to 7 PM"
      },
      {
        "day": "Thursday",
        "hours": "10 AM to 7 PM"
      },
      {
        "day": "Friday",
        "hours": "10 AM to 7 PM"
      },
      {
        "day": "Saturday",
        "hours": "10 AM to 7 PM"
      },
      {
        "day": "Sunday",
        "hours": "Closed"
      }
    ],
    "imageUrl": "https://media.indianluxurycars.com/google/7a71dd73073cee4983d097c03b015fb41a2b75886ae4e2b210d827f79c99eb99.jpg",
    "url": "https://www.google.com/maps/search/?api=1&query=Pathak%20Car%20Bazar%20-%20Best%20Resell%20Car%20Dealer%20%7C%20Second%20Hand%20Car%20Dealer%20%7C%20Used%20Car%20Dealer%20in%20Gwalior&query_place_id=ChIJqwYnMCbFdjkRka0oCtLTrfo"
  },
  {
    "title": "Pavan Taxi Service Gwalior - Taxi Service in Gwalior - Car Rental Company - Best Taxi For One Way - Outstation",
    "subTitle": "पवन टैक्सी सर्विस ग्वालियर - कैब सर्विस इन ग्वालियर - कार रेंटल कंपनी - बेस्ट टैक्सी फॉर वन वे - आउटस्टेशन",
    "categoryName": "Car rental agency",
    "address": "H6, City Centre, Chambal Colony, Govindpuri, Gwalior, Madhya Pradesh 474011, India",
    "neighborhood": "Chambal Colony, Govindpuri",
    "street": "H6, City Centre",
    "city": "Gwalior",
    "postalCode": "474011",
    "state": "Madhya Pradesh",
    "countryCode": "IN",
    "website": "https://pavantaxiservicegwalior.in/",
    "phone": "+919516676992",
    "phoneUnformatted": "+919516676992",
    "location": {
      "lat": 26.207887,
      "lng": 78.1988794
    },
    "totalScore": 5,
    "permanentlyClosed": false,
    "temporarilyClosed": false,
    "placeId": "ChIJt7RbYsnBdjkRZaEFajxQr8A",
    "categories": [
      "Car rental agency",
      "Car leasing service",
      "Taxi service",
      "Sightseeing tour agency",
      "Tour operator",
      "Travel agency"
    ],
    "reviewsCount": 81,
    "imagesCount": 48,
    "openingHours": [],
    "imageUrl": "https://media.indianluxurycars.com/google/5924b72701851a52ca64e57563b2117af20175754223c5e6db95f1a7aa68d9ae.jpg",
    "url": "https://www.google.com/maps/search/?api=1&query=Pavan%20Taxi%20Service%20Gwalior%20-%20Taxi%20Service%20in%20Gwalior%20-%20Car%20Rental%20Company%20-%20Best%20Taxi%20For%20One%20Way%20-%20Outstation&query_place_id=ChIJt7RbYsnBdjkRZaEFajxQr8A"
  },
  {
    "title": "Samadhiya tour and travels",
    "subTitle": "समाधिया टूर एंड ट्रैवल्स",
    "categoryName": "Car leasing service",
    "address": "206, BAIJNATH APARTMENT, BESIDE GOVINDPURI CENTER Gwalior, Madhya Pradesh 474006, Gwalior, Madhya Pradesh 474011, India",
    "neighborhood": "Govindpuri, Thatipur",
    "street": "206, BAIJNATH APARTMENT, BESIDE GOVINDPURI CENTER Gwalior, Madhya Pradesh 474006",
    "city": "Gwalior",
    "postalCode": "474011",
    "state": "Madhya Pradesh",
    "countryCode": "IN",
    "website": "http://samadhiyatourandtravels.com/",
    "phone": "+917566694222",
    "phoneUnformatted": "+917566694222",
    "location": {
      "lat": 26.206707,
      "lng": 78.204176
    },
    "totalScore": 4.8,
    "permanentlyClosed": false,
    "temporarilyClosed": false,
    "placeId": "ChIJ382lMunDdjkRvikyIFuRlPU",
    "categories": [
      "Car leasing service",
      "Travel agency"
    ],
    "reviewsCount": 19,
    "imagesCount": 12,
    "openingHours": [
      {
        "day": "Monday",
        "hours": "Open 24 hours"
      },
      {
        "day": "Tuesday",
        "hours": "Open 24 hours"
      },
      {
        "day": "Wednesday",
        "hours": "Open 24 hours"
      },
      {
        "day": "Thursday",
        "hours": "Open 24 hours"
      },
      {
        "day": "Friday",
        "hours": "Open 24 hours"
      },
      {
        "day": "Saturday",
        "hours": "Open 24 hours"
      },
      {
        "day": "Sunday",
        "hours": "Open 24 hours"
      }
    ],
    "imageUrl": "https://media.indianluxurycars.com/google/1bfbb9213a48e0b9885e08032064ace62cb8c84ae1504df67078118dc9e5f97c.jpg",
    "url": "https://www.google.com/maps/search/?api=1&query=Samadhiya%20tour%20and%20travels&query_place_id=ChIJ382lMunDdjkRvikyIFuRlPU"
  },
  {
    "title": "Sharma Cab Service Gwalior",
    "subTitle": "शर्मा कैब सर्विस ग्वालियर",
    "categoryName": "Car leasing service",
    "address": "Maa kesari cosmetic, Gali no. 1, Nehar Wali Mata Mandir Rd, opposite Kanaha Diary, Gwalior, Madhya Pradesh 474009, India",
    "neighborhood": "Vijaynagar",
    "street": "Maa kesari cosmetic, Gali no. 1, Nehar Wali Mata Mandir Rd, opposite Kanaha Diary",
    "city": "Gwalior",
    "postalCode": "474009",
    "state": "Madhya Pradesh",
    "countryCode": "IN",
    "phone": "+918109410063",
    "phoneUnformatted": "+918109410063",
    "location": {
      "lat": 26.1911481,
      "lng": 78.1690987
    },
    "totalScore": 4.9,
    "permanentlyClosed": false,
    "temporarilyClosed": false,
    "placeId": "ChIJC9WJe6zFdjkRMNefi4PBkF0",
    "categories": [
      "Car leasing service",
      "Taxi service",
      "Travel agency"
    ],
    "reviewsCount": 71,
    "imagesCount": 21,
    "openingHours": [],
    "imageUrl": "https://media.indianluxurycars.com/google/17af739aed78d1970dfe3a7d24c2c5df0a4995b94dbf88c1449b2082327861d1.jpg",
    "url": "https://www.google.com/maps/search/?api=1&query=Sharma%20Cab%20Service%20Gwalior&query_place_id=ChIJC9WJe6zFdjkRMNefi4PBkF0"
  },
  {
    "title": "Shivi Taxi Service - Taxi Servicein Gwalior/Cab/Car Rental/Oneway/pickup&Drop Taxi Service in Gwalior",
    "subTitle": "शिवि टैक्सी सर्विस - टैक्सी सर्विसें ग्वालियर/सीएबी/कार रेंटल/वनवे/पिकअप&ड्रॉप टैक्सी सर्विस इन ग्वालियर",
    "categoryName": "Car rental agency",
    "address": "City Centre, Infront of Bellevue Hotel, B-104, Patel Nagar, Gwalior, Madhya Pradesh 474011, India",
    "neighborhood": "City Center, Patel Nagar",
    "street": "City Centre, Infront of Bellevue Hotel, B-104",
    "city": "Gwalior",
    "postalCode": "474011",
    "state": "Madhya Pradesh",
    "countryCode": "IN",
    "website": "https://shivitaxiservice.site/",
    "location": {
      "lat": 26.2087493,
      "lng": 78.190088
    },
    "totalScore": 5,
    "permanentlyClosed": false,
    "temporarilyClosed": false,
    "placeId": "ChIJt1PQ0EeZvG0R2Qhi7o18pbA",
    "categories": [
      "Car rental agency",
      "Car leasing service",
      "Taxi service"
    ],
    "reviewsCount": 4,
    "imagesCount": 8,
    "openingHours": [],
    "imageUrl": "https://media.indianluxurycars.com/google/b1aa3591cef91878fc54247cd61b34c113cc0c52ced09bffa6d83d9bcdb0ce5b.jpg",
    "url": "https://www.google.com/maps/search/?api=1&query=Shivi%20Taxi%20Service%20-%20Taxi%20Servicein%20Gwalior%2FCab%2FCar%20Rental%2FOneway%2Fpickup%26Drop%20Taxi%20Service%20in%20Gwalior&query_place_id=ChIJt1PQ0EeZvG0R2Qhi7o18pbA"
  },
  {
    "title": "Shree Ganeshay tour & travel's",
    "subTitle": "श्री गणेशाय टूर & ट्रैवल'स",
    "categoryName": "Car rental agency",
    "address": "01, char shehar ka naka, Madhya Pradesh 474003, India",
    "neighborhood": "Char Shahar Ka Naka, Char Sahar Ka Naka, New Grasim Vihar Colony",
    "street": "01, char shehar ka naka",
    "city": "Gwalior",
    "postalCode": "474003",
    "state": "Madhya Pradesh",
    "countryCode": "IN",
    "phone": "+919890029447",
    "phoneUnformatted": "+919890029447",
    "location": {
      "lat": 26.2400314,
      "lng": 78.1785509
    },
    "totalScore": 4.5,
    "permanentlyClosed": false,
    "temporarilyClosed": false,
    "placeId": "ChIJeSZaADDHdjkRv5S5Z1IIg8c",
    "categories": [
      "Car rental agency"
    ],
    "reviewsCount": 2,
    "imagesCount": 6,
    "openingHours": [],
    "imageUrl": "https://media.indianluxurycars.com/google/f982f8d52f51146785a46f8b7b5f5c15bb09efad3d17631bac2e9360cd5a755e.jpg",
    "url": "https://www.google.com/maps/search/?api=1&query=Shree%20Ganeshay%20tour%20%26%20travel's&query_place_id=ChIJeSZaADDHdjkRv5S5Z1IIg8c"
  },
  {
    "title": "Shree Sai Tour & Travels - Taxi Service in Gwalior - Car Rental Company - Best Taxi For Outstation - Airport On Rent",
    "subTitle": "श्री साई टूर & ट्रैवल्स",
    "categoryName": "Car rental agency",
    "address": "Khatke Sahab ka, Bada Rd, Naya Bazaar, Kampoo, Gwalior, Madhya Pradesh 474009, India",
    "neighborhood": "Naya Bazaar, Kampoo",
    "street": "Khatke Sahab ka, Bada Rd",
    "city": "Gwalior",
    "postalCode": "474009",
    "state": "Madhya Pradesh",
    "countryCode": "IN",
    "phone": "+917909909079",
    "phoneUnformatted": "+917909909079",
    "location": {
      "lat": 26.19385,
      "lng": 78.1548341
    },
    "totalScore": 4.8,
    "permanentlyClosed": false,
    "temporarilyClosed": false,
    "placeId": "ChIJ61HilfHFdjkRAn7JkNYRByw",
    "categories": [
      "Car rental agency",
      "Car leasing service",
      "Taxi service",
      "Tour agency",
      "Travel agency"
    ],
    "reviewsCount": 103,
    "imagesCount": 20,
    "openingHours": [],
    "imageUrl": "https://media.indianluxurycars.com/google/4e939908c6ac2906de45a6a1e6b6ac226d1b58c50a111e7749dcea5cc67473c4.jpg",
    "url": "https://www.google.com/maps/search/?api=1&query=Shree%20Sai%20Tour%20%26%20Travels%20-%20Taxi%20Service%20in%20Gwalior%20-%20Car%20Rental%20Company%20-%20Best%20Taxi%20For%20Outstation%20-%20Airport%20On%20Rent&query_place_id=ChIJ61HilfHFdjkRAn7JkNYRByw"
  },
  {
    "title": "Shri Krishna Tours And Travels",
    "subTitle": "श्री कृष्ण टुर एंड ट्रेवल्स",
    "categoryName": "Car rental agency",
    "address": "Shop No 1,Ground Floor Vidyanchal Complex, City Center, Gwalior, Madhya Pradesh 474002, India",
    "neighborhood": "City Center, Tulsi Vihar Colony",
    "street": "Shop No 1,Ground Floor Vidyanchal Complex",
    "city": "Gwalior",
    "postalCode": "474002",
    "state": "Madhya Pradesh",
    "countryCode": "IN",
    "phone": "+917447005326",
    "phoneUnformatted": "+917447005326",
    "location": {
      "lat": 26.2060883,
      "lng": 78.1903113
    },
    "totalScore": 4.8,
    "permanentlyClosed": false,
    "temporarilyClosed": false,
    "placeId": "ChIJu2N0NhvEdjkRgMDoDzUVBA4",
    "categories": [
      "Car rental agency",
      "Taxi service",
      "Sightseeing tour agency",
      "Tour operator",
      "Travel agency"
    ],
    "reviewsCount": 131,
    "imagesCount": 34,
    "openingHours": [],
    "imageUrl": "https://media.indianluxurycars.com/google/ab143dbdc844ae49d254fe2c827c814b224a6dfd400070e5a6f57704f204f210.jpg",
    "url": "https://www.google.com/maps/search/?api=1&query=Shri%20Krishna%20Tours%20And%20Travels&query_place_id=ChIJu2N0NhvEdjkRgMDoDzUVBA4"
  },
  {
    "title": "Smile on Cab Service - Taxi Service Gwalior / Airport Cab / Outstation & One Way Cab",
    "subTitle": "इस्माइल ऑन कैब सर्विस - टैक्सी सर्विस ग्वालियर / एयरपोर्ट कैब / आउटस्टेशन & वन वे कैब",
    "categoryName": "Car rental agency",
    "address": "Shop No. 2, Fortune Plaza, City Center, Patel Nagar, Gwalior, Madhya Pradesh 474001, India",
    "neighborhood": "City Center, Patel Nagar",
    "street": "Shop No. 2, Fortune Plaza",
    "city": "Gwalior",
    "postalCode": "474001",
    "state": "Madhya Pradesh",
    "countryCode": "IN",
    "website": "https://smileontour.in/",
    "phone": "+918819059073",
    "phoneUnformatted": "+918819059073",
    "location": {
      "lat": 26.2093218,
      "lng": 78.1881385
    },
    "totalScore": 5,
    "permanentlyClosed": false,
    "temporarilyClosed": false,
    "placeId": "ChIJi1itJ47FdjkRWJs2GNwXq2w",
    "categories": [
      "Car rental agency",
      "Airport shuttle service",
      "Car leasing service",
      "Taxi service",
      "Minibus taxi service",
      "Tour agency",
      "Transportation service",
      "Travel agency"
    ],
    "reviewsCount": 44,
    "imagesCount": 47,
    "openingHours": [],
    "imageUrl": "https://media.indianluxurycars.com/google/2b6cc7e4676c5ecf71b68a6f224c5aa27845b87a1d49250a2375ead79573bda1.jpg",
    "url": "https://www.google.com/maps/search/?api=1&query=Smile%20on%20Cab%20Service%20-%20Taxi%20Service%20Gwalior%20%2F%20Airport%20Cab%20%2F%20Outstation%20%26%20One%20Way%20Cab&query_place_id=ChIJi1itJ47FdjkRWJs2GNwXq2w"
  }
]
