[
  {
    "title": "Akshaya Cars - Used Cars for sale in Hyderabad (Kapra Branch)",
    "categoryName": "Used car dealer",
    "address": "H.No.1-1-101/501/1/3, near Vijaya Public School, Goudapuri Colony, Mahamadiya Colony, Kapra, Hyderabad, Secunderabad, Telangana 500103, India",
    "neighborhood": "Goudapuri Colony, Mahamadiya Colony, Kapra",
    "street": "H.No.1-1-101/501/1/3, near Vijaya Public School",
    "city": "Hyderabad, Secunderabad",
    "postalCode": "500103",
    "state": "Telangana",
    "countryCode": "IN",
    "website": "https://akshayacars.in/",
    "phone": "+919052257288",
    "phoneUnformatted": "+919052257288",
    "location": {
      "lat": 17.486417,
      "lng": 78.5621747
    },
    "totalScore": 4.8,
    "permanentlyClosed": false,
    "temporarilyClosed": false,
    "placeId": "ChIJVTztCcOdyzsRmnL8zeRO_Sc",
    "categories": [
      "Used car dealer",
      "Car dealer"
    ],
    "reviewsCount": 1253,
    "imagesCount": 1188,
    "openingHours": [
      {
        "day": "Monday",
        "hours": "9 AM to 8 PM"
      },
      {
        "day": "Tuesday",
        "hours": "9 AM to 8 PM"
      },
      {
        "day": "Wednesday",
        "hours": "9 AM to 8 PM"
      },
      {
        "day": "Thursday",
        "hours": "9 AM to 8 PM"
      },
      {
        "day": "Friday",
        "hours": "9 AM to 8 PM"
      },
      {
        "day": "Saturday",
        "hours": "9 AM to 8 PM"
      },
      {
        "day": "Sunday",
        "hours": "9 AM to 8 PM"
      }
    ],
    "imageUrl": "https://lh3.googleusercontent.com/gps-cs-s/AG0ilSxRCCK80UDsLhnWfggW5gtppizDqFam73T9zn_1nyqdn-0q4VOZe8uPNLE-jFgEhGSDJnYjpg3zIWZ6YXBNdLVmPdkjEmZC6fg9BUxKOwxV32z33IwLAoqs4YvB2a-dEqZitIBF=w408-h306-k-no",
    "url": "https://www.google.com/maps/search/?api=1&query=Akshaya%20Cars%20-%20Used%20Cars%20for%20sale%20in%20Hyderabad%20(Kapra%20Branch)&query_place_id=ChIJVTztCcOdyzsRmnL8zeRO_Sc"
  },
  {
    "title": "Maruthi Alto - Luxury Car Rental Hyderabad - Long Drive Cars App",
    "categoryName": "Car leasing service",
    "address": "180, Sai Nagar Colony, ECIL, Cherlapalli, Hyderabad, Secunderabad, Telangana 500062, India",
    "neighborhood": "Sai Nagar Colony, ECIL, Cherlapalli",
    "street": "180",
    "city": "Hyderabad, Secunderabad",
    "postalCode": "500062",
    "state": "Telangana",
    "countryCode": "IN",
    "website": "https://www.longdrivecars.com/",
    "phone": "+919000478478",
    "phoneUnformatted": "+919000478478",
    "location": {
      "lat": 17.4792169,
      "lng": 78.5781505
    },
    "permanentlyClosed": false,
    "temporarilyClosed": false,
    "placeId": "ChIJBdZg8RKdyzsRtk-4jtMc4Bo",
    "categories": [
      "Car leasing service"
    ],
    "imagesCount": 1,
    "openingHours": [
      {
        "day": "Monday",
        "hours": "Open 24 hours"
      },
      {
        "day": "Tuesday",
        "hours": "Open 24 hours"
      },
      {
        "day": "Wednesday",
        "hours": "Open 24 hours"
      },
      {
        "day": "Thursday",
        "hours": "Open 24 hours"
      },
      {
        "day": "Friday",
        "hours": "Open 24 hours"
      },
      {
        "day": "Saturday",
        "hours": "Open 24 hours"
      },
      {
        "day": "Sunday",
        "hours": "Open 24 hours"
      }
    ],
    "imageUrl": "https://streetviewpixels-pa.googleapis.com/v1/thumbnail?panoid=YyuMdevWQwDKcjGAhfXMUA&cb_client=search.gws-prod.gps&w=408&h=240&yaw=304.93164&pitch=0&thumbfov=100",
    "url": "https://www.google.com/maps/search/?api=1&query=Maruthi%20Alto%20-%20Luxury%20Car%20Rental%20Hyderabad%20-%20Long%20Drive%20Cars%20App&query_place_id=ChIJBdZg8RKdyzsRtk-4jtMc4Bo"
  },
  {
    "title": "MG Motor Vibrant Showroom",
    "categoryName": "MG dealer",
    "address": "1-10-1-285-4, Kushaiguda, ECIL Cross Roads, Kapra, Hyderabad, Telangana 500062, India",
    "neighborhood": "Padmavathi Colony, ECIL, Laxmi Garden, Kapra",
    "street": "1-10-1-285-4, Kushaiguda, ECIL Cross Roads",
    "city": "Hyderabad, Secunderabad",
    "postalCode": "500062",
    "state": "Telangana",
    "countryCode": "IN",
    "website": "https://dealers.mgmotor.co.in/mg-motor-vibrant-showroom-car-dealer-kushaiguda-hyderabad-394033/Home",
    "phone": "+918047359988",
    "phoneUnformatted": "+918047359988",
    "location": {
      "lat": 17.4772077,
      "lng": 78.5738294
    },
    "totalScore": 4.8,
    "permanentlyClosed": false,
    "temporarilyClosed": false,
    "placeId": "ChIJp2KH9FmdyzsRB4EUkpg9llU",
    "categories": [
      "MG dealer",
      "Car dealer",
      "Motor vehicle dealer"
    ],
    "reviewsCount": 237,
    "imagesCount": 164,
    "openingHours": [
      {
        "day": "Monday",
        "hours": "9 AM to 6 PM"
      },
      {
        "day": "Tuesday",
        "hours": "9 AM to 6 PM"
      },
      {
        "day": "Wednesday",
        "hours": "9 AM to 6 PM"
      },
      {
        "day": "Thursday",
        "hours": "9 AM to 6 PM"
      },
      {
        "day": "Friday",
        "hours": "9 AM to 6 PM"
      },
      {
        "day": "Saturday",
        "hours": "9 AM to 6 PM"
      },
      {
        "day": "Sunday",
        "hours": "10 AM to 12 AM"
      }
    ],
    "imageUrl": "https://lh3.googleusercontent.com/gps-cs-s/AG0ilSye7rp2WDcodBgLWb_tU8AtMrdhcmJLjj0z99VX5AgIugPtHzjc8Ez51gLeN3092hn28DUnQ792iSNOD4wonej2IsPZ9N6lmQE3SAvBQN-q_DMDrdAfALYGaqMHlmFmp96cikM=w408-h306-k-no",
    "url": "https://www.google.com/maps/search/?api=1&query=MG%20Motor%20Vibrant%20Showroom&query_place_id=ChIJp2KH9FmdyzsRB4EUkpg9llU"
  },
  {
    "title": "Reddy Self Drive Cars",
    "categoryName": "Car rental agency",
    "address": "Krupa complex, Shiva Gowri Enclave, East, VKN 4th St, Chandragiri Colony, Safilguda, Moula Ali, Hyderabad, Secunderabad, Telangana 500056, India",
    "neighborhood": "Chandragiri Colony, Safilguda, Moula Ali",
    "street": "Krupa complex, Shiva Gowri Enclave, East, VKN 4th St",
    "city": "Hyderabad, Secunderabad",
    "postalCode": "500056",
    "state": "Telangana",
    "countryCode": "IN",
    "phone": "+918639335069",
    "phoneUnformatted": "+918639335069",
    "location": {
      "lat": 17.4632115,
      "lng": 78.5428364
    },
    "totalScore": 4.9,
    "permanentlyClosed": false,
    "temporarilyClosed": false,
    "placeId": "ChIJIQp-qAGbyzsRDljiXJYGShY",
    "categories": [
      "Car rental agency"
    ],
    "reviewsCount": 125,
    "imagesCount": 12,
    "openingHours": [
      {
        "day": "Monday",
        "hours": "Open 24 hours"
      },
      {
        "day": "Tuesday",
        "hours": "Open 24 hours"
      },
      {
        "day": "Wednesday",
        "hours": "Open 24 hours"
      },
      {
        "day": "Thursday",
        "hours": "Open 24 hours"
      },
      {
        "day": "Friday",
        "hours": "Open 24 hours"
      },
      {
        "day": "Saturday",
        "hours": "Open 24 hours"
      },
      {
        "day": "Sunday",
        "hours": "Open 24 hours"
      }
    ],
    "imageUrl": "https://lh3.googleusercontent.com/p/AF1QipNtohuW9_OoBR4zrV0yVgDKm-jlL1NdpWQoESK5=w408-h306-k-no",
    "url": "https://www.google.com/maps/search/?api=1&query=Reddy%20Self%20Drive%20Cars&query_place_id=ChIJIQp-qAGbyzsRDljiXJYGShY"
  },
  {
    "title": "Self Drive/Car Rental Services Hyderabad - Karthikeya Self Drive",
    "categoryName": "Car leasing service",
    "address": "Prakruthi residency, Sri Sai Enclave, Spring Fields Colony, Jeedimetla, Hyderabad, Secunderabad, Telangana 500067, India",
    "neighborhood": "Sri Sai Enclave, Spring Fields Colony, Jeedimetla",
    "street": "Prakruthi residency",
    "city": "Hyderabad, Secunderabad",
    "postalCode": "500067",
    "state": "Telangana",
    "countryCode": "IN",
    "website": "http://www.selfdrivecarhyderabad.co.in/",
    "phone": "+919676026052",
    "phoneUnformatted": "+919676026052",
    "location": {
      "lat": 17.5072426,
      "lng": 78.481871
    },
    "totalScore": 4.9,
    "permanentlyClosed": false,
    "temporarilyClosed": false,
    "placeId": "ChIJH39EVSWFyzsReQCkNKUJZ1M",
    "categories": [
      "Car leasing service"
    ],
    "reviewsCount": 28,
    "imagesCount": 3,
    "openingHours": [
      {
        "day": "Monday",
        "hours": "Open 24 hours"
      },
      {
        "day": "Tuesday",
        "hours": "Open 24 hours"
      },
      {
        "day": "Wednesday",
        "hours": "Open 24 hours"
      },
      {
        "day": "Thursday",
        "hours": "Open 24 hours"
      },
      {
        "day": "Friday",
        "hours": "Open 24 hours"
      },
      {
        "day": "Saturday",
        "hours": "Open 24 hours"
      },
      {
        "day": "Sunday",
        "hours": "Open 24 hours"
      }
    ],
    "imageUrl": "https://lh3.googleusercontent.com/p/AF1QipPW4SC7QWU6559rXhBAJ1xmjh02wRzI2OOhgWkf=w408-h906-k-no",
    "url": "https://www.google.com/maps/search/?api=1&query=Self%20Drive%2FCar%20Rental%20Services%20Hyderabad%20-%20Karthikeya%20Self%20Drive&query_place_id=ChIJH39EVSWFyzsReQCkNKUJZ1M"
  }
]
