[
  {
    "title": "A1 Wheels Self Drive Cars",
    "subTitle": "ए1 व्हील्स सेल्फ ड्राइव कार्स",
    "categoryName": "Car rental agency",
    "address": "near by Bangali Chouraha, Sanchar Nagar Ext, Sanchar Nagar Extension, Indore, Madhya Pradesh 452016, India",
    "neighborhood": "Sanchar Nagar Ext, Sanchar Nagar Extension",
    "street": "near by Bangali Chouraha",
    "city": "Indore",
    "postalCode": "452016",
    "state": "Madhya Pradesh",
    "countryCode": "IN",
    "phone": "+919109947404",
    "phoneUnformatted": "+919109947404",
    "location": {
      "lat": 22.725061,
      "lng": 75.915952
    },
    "totalScore": 4.7,
    "permanentlyClosed": false,
    "temporarilyClosed": false,
    "placeId": "ChIJ7Ql9lk3jYjkRCynIih9FP94",
    "categories": [
      "Car rental agency",
      "Car leasing service",
      "Travel agency"
    ],
    "reviewsCount": 103,
    "imagesCount": 31,
    "openingHours": [
      {
        "day": "Monday",
        "hours": "Open 24 hours"
      },
      {
        "day": "Tuesday",
        "hours": "Open 24 hours"
      },
      {
        "day": "Wednesday",
        "hours": "Open 24 hours"
      },
      {
        "day": "Thursday",
        "hours": "Open 24 hours"
      },
      {
        "day": "Friday",
        "hours": "Open 24 hours"
      },
      {
        "day": "Saturday",
        "hours": "Open 24 hours"
      },
      {
        "day": "Sunday",
        "hours": "Open 24 hours"
      }
    ],
    "imageUrl": "https://media.indianluxurycars.com/google/ee0762ff7f25ef0dee53ae37402e466b5d64f486937ab63e0c0c2a43041ccbd3.jpg",
    "url": "https://www.google.com/maps/search/?api=1&query=A1%20Wheels%20Self%20Drive%20Cars&query_place_id=ChIJ7Ql9lk3jYjkRCynIih9FP94"
  },
  {
    "title": "Ahilya Car Rental",
    "subTitle": "अहिल्या कार रेंटल",
    "categoryName": "Car rental agency",
    "address": "Suyash Vihar, Plot No.141/217, behind Hotel J W Marriott, Vijay Nagar, Scheme No 54, Indore, Madhya Pradesh 452010, India",
    "neighborhood": "Vijay Nagar, Scheme No 54",
    "street": "Suyash Vihar, Plot No.141/217, behind Hotel J W Marriott",
    "city": "Indore",
    "postalCode": "452010",
    "state": "Madhya Pradesh",
    "countryCode": "IN",
    "website": "http://ahilyacarrental.com/",
    "location": {
      "lat": 22.7518692,
      "lng": 75.8930119
    },
    "totalScore": 4.7,
    "permanentlyClosed": false,
    "temporarilyClosed": false,
    "placeId": "ChIJSXY3kakCYzkRajyB7DYOXYM",
    "categories": [
      "Car rental agency",
      "Car leasing service",
      "Taxi service",
      "Travel agency"
    ],
    "reviewsCount": 27,
    "imagesCount": 154,
    "openingHours": [
      {
        "day": "Monday",
        "hours": "Open 24 hours"
      },
      {
        "day": "Tuesday",
        "hours": "Open 24 hours"
      },
      {
        "day": "Wednesday",
        "hours": "Open 24 hours"
      },
      {
        "day": "Thursday",
        "hours": "Open 24 hours"
      },
      {
        "day": "Friday",
        "hours": "Open 24 hours"
      },
      {
        "day": "Saturday",
        "hours": "Open 24 hours"
      },
      {
        "day": "Sunday",
        "hours": "Open 24 hours"
      }
    ],
    "imageUrl": "https://media.indianluxurycars.com/google/0d027291303f8e30780a27fe26a0756b0f6c0409284405eb7821c7309a99f1f1.jpg",
    "url": "https://www.google.com/maps/search/?api=1&query=Ahilya%20Car%20Rental&query_place_id=ChIJSXY3kakCYzkRajyB7DYOXYM"
  },
  {
    "title": "Ajay Travels",
    "subTitle": "अजय ट्रैवल्स",
    "categoryName": "Car leasing service",
    "address": "113 FB, Scheme No. 94, Service Rd, Pipliyahana, Indore, Madhya Pradesh 452016, India",
    "neighborhood": "Pipliyahana",
    "street": "113 FB, Scheme No. 94, Service Rd",
    "city": "Indore",
    "postalCode": "452016",
    "state": "Madhya Pradesh",
    "countryCode": "IN",
    "website": "http://www.ajay-travels.com/",
    "phone": "+918889912121",
    "phoneUnformatted": "+918889912121",
    "location": {
      "lat": 22.7115332,
      "lng": 75.9065214
    },
    "totalScore": 4.7,
    "permanentlyClosed": false,
    "temporarilyClosed": false,
    "placeId": "ChIJhRvcrjL9YjkRAFbqC7gTMzE",
    "categories": [
      "Car leasing service",
      "Airline ticket agency",
      "Visa consulting service",
      "Event management company",
      "Hotel",
      "Train ticket agency",
      "Travel agency"
    ],
    "reviewsCount": 118,
    "imagesCount": 10,
    "openingHours": [],
    "imageUrl": "https://media.indianluxurycars.com/google/d8152aa7be766a4a40718033d735baa5616ce1920ec2392c8d0bfae03638c1d9.jpg",
    "url": "https://www.google.com/maps/search/?api=1&query=Ajay%20Travels&query_place_id=ChIJhRvcrjL9YjkRAFbqC7gTMzE"
  },
  {
    "title": "AKSHAY CAR RENTAL ( ACR )",
    "subTitle": "अक्षय कार रेंटल ( एसीआर )",
    "categoryName": "Car leasing service",
    "address": "5/A, Brajeshwari Extension, Greater Brajeshwari, Indore, Madhya Pradesh 452016, India",
    "neighborhood": "Brajeshwari Extension, Greater Brajeshwari",
    "street": "5/A",
    "city": "Indore",
    "postalCode": "452016",
    "state": "Madhya Pradesh",
    "countryCode": "IN",
    "website": "https:///url?q=http://www.akshaycarrental.com/&opi=79508299&sa=U&ved=0ahUKEwjL5JDwqLuRAxXoGDQIHQrqKtkQ61gIOigR&usg=AOvVaw0wSGvYGrzZefkVYsYJJlbG",
    "phone": "+918818815000",
    "phoneUnformatted": "+918818815000",
    "location": {
      "lat": 22.7037476,
      "lng": 75.9090019
    },
    "totalScore": 5,
    "permanentlyClosed": false,
    "temporarilyClosed": false,
    "placeId": "ChIJ3buoeMfjYjkRIbHi5P8qtD8",
    "categories": [
      "Car leasing service"
    ],
    "reviewsCount": 48,
    "imagesCount": 30,
    "openingHours": [
      {
        "day": "Monday",
        "hours": "8 AM to 10 PM"
      },
      {
        "day": "Tuesday",
        "hours": "8 AM to 10 PM"
      },
      {
        "day": "Wednesday",
        "hours": "8 AM to 10 PM"
      },
      {
        "day": "Thursday",
        "hours": "8 AM to 10 PM"
      },
      {
        "day": "Friday",
        "hours": "8 AM to 10 PM"
      },
      {
        "day": "Saturday",
        "hours": "8 AM to 10 PM"
      },
      {
        "day": "Sunday",
        "hours": "8 AM to 10 PM"
      }
    ],
    "imageUrl": "https://media.indianluxurycars.com/google/20061609c2d66c12dae4d1c7c67440fe73d90b0650cbe924de55f5bf31aa2d89.jpg",
    "url": "https://www.google.com/maps/search/?api=1&query=AKSHAY%20CAR%20RENTAL%20(%20ACR%20)&query_place_id=ChIJ3buoeMfjYjkRIbHi5P8qtD8"
  },
  {
    "title": "Amazing Car Rental",
    "subTitle": "अमेजिंग कार रेंटल",
    "categoryName": "Car rental agency",
    "address": "hp petrol pump, Mangal city, 6/bhagyashri colony, Vijay Nagar, Indore, Madhya Pradesh 452010, India",
    "neighborhood": "Vijay Nagar, Scheme No 54",
    "street": "hp petrol pump, Mangal city, 6/bhagyashri colony",
    "city": "Indore",
    "postalCode": "452010",
    "state": "Madhya Pradesh",
    "countryCode": "IN",
    "website": "https://taxi09.com/",
    "phone": "+918770882242",
    "phoneUnformatted": "+918770882242",
    "location": {
      "lat": 22.7525351,
      "lng": 75.8965096
    },
    "totalScore": 5,
    "permanentlyClosed": false,
    "temporarilyClosed": false,
    "placeId": "ChIJs2ZvbnkDYzkRUSFOMLa-Ka4",
    "categories": [
      "Car rental agency"
    ],
    "reviewsCount": 6,
    "imagesCount": 63,
    "openingHours": [
      {
        "day": "Monday",
        "hours": "Open 24 hours"
      },
      {
        "day": "Tuesday",
        "hours": "Open 24 hours"
      },
      {
        "day": "Wednesday",
        "hours": "Open 24 hours"
      },
      {
        "day": "Thursday",
        "hours": "Open 24 hours"
      },
      {
        "day": "Friday",
        "hours": "Open 24 hours"
      },
      {
        "day": "Saturday",
        "hours": "Open 24 hours"
      },
      {
        "day": "Sunday",
        "hours": "Open 24 hours"
      }
    ],
    "imageUrl": "https://media.indianluxurycars.com/google/a9b65a723a88a3377dca1cae23ee69edcceaf2b8a11647330338705abbdd00cd.jpg",
    "url": "https://www.google.com/maps/search/?api=1&query=Amazing%20Car%20Rental&query_place_id=ChIJs2ZvbnkDYzkRUSFOMLa-Ka4"
  },
  {
    "title": "Anand Nissan",
    "subTitle": "आनंद निसान",
    "categoryName": "Nissan dealer",
    "address": "B9, Vibrant Business Tower A B Road, Manorama Ganj, near Geeta Bhawan, Square, Indore, Madhya Pradesh 452001, India",
    "neighborhood": "Square",
    "street": "B9, Vibrant Business Tower A B Road, Manorama Ganj, near Geeta Bhawan",
    "city": "Indore",
    "postalCode": "452001",
    "state": "Madhya Pradesh",
    "countryCode": "IN",
    "website": "https://dealers.nissan.in/anand-nissan-anand-nissan-indore-nissan-dealer-manorama-ganj-indore-80231/Home",
    "phone": "+918879974485",
    "phoneUnformatted": "+918879974485",
    "location": {
      "lat": 22.720521,
      "lng": 75.8852267
    },
    "totalScore": 4.1,
    "permanentlyClosed": false,
    "temporarilyClosed": false,
    "placeId": "ChIJo-JPsTv9YjkRb0pSDFHv9J4",
    "categories": [
      "Nissan dealer",
      "Car dealer"
    ],
    "reviewsCount": 867,
    "imagesCount": 49,
    "openingHours": [
      {
        "day": "Monday",
        "hours": "10 AM to 7 PM"
      },
      {
        "day": "Tuesday",
        "hours": "10 AM to 7 PM"
      },
      {
        "day": "Wednesday",
        "hours": "10 AM to 7 PM"
      },
      {
        "day": "Thursday",
        "hours": "10 AM to 7 PM"
      },
      {
        "day": "Friday",
        "hours": "10 AM to 7 PM"
      },
      {
        "day": "Saturday",
        "hours": "10 AM to 7 PM"
      },
      {
        "day": "Sunday",
        "hours": "10 AM to 7 PM"
      }
    ],
    "imageUrl": "https://media.indianluxurycars.com/google/8dfa37850e0434bd6808103529758ac86ebdd5e27c645737616c82b641677e37.jpg",
    "url": "https://www.google.com/maps/search/?api=1&query=Anand%20Nissan&query_place_id=ChIJo-JPsTv9YjkRb0pSDFHv9J4"
  },
  {
    "title": "ApexCars by ApexEmporium AutoTrade Pvt Ltd",
    "subTitle": "अपेक्सकर्स बाय अपेक्सेमपोरियम ऑटोट्रेड पीवीटी एलटीडी",
    "categoryName": "Used car dealer",
    "address": "3/5, near HDFC Bank Dhakkan Wala Kua, Manorama Ganj, South Tukoganj, Indore, Madhya Pradesh 452001, India",
    "neighborhood": "Manorama Ganj, South Tukoganj",
    "street": "3/5, near HDFC Bank Dhakkan Wala Kua",
    "city": "Indore",
    "postalCode": "452001",
    "state": "Madhya Pradesh",
    "countryCode": "IN",
    "phone": "+919406646786",
    "phoneUnformatted": "+919406646786",
    "location": {
      "lat": 22.7175503,
      "lng": 75.8779263
    },
    "totalScore": 4.9,
    "permanentlyClosed": false,
    "temporarilyClosed": false,
    "placeId": "ChIJm3WU_cj9YjkRa_crFLq5VoA",
    "categories": [
      "Used car dealer"
    ],
    "reviewsCount": 15,
    "imagesCount": 7,
    "openingHours": [
      {
        "day": "Monday",
        "hours": "11 AM to 5 PM"
      },
      {
        "day": "Tuesday",
        "hours": "11 AM to 5 PM"
      },
      {
        "day": "Wednesday",
        "hours": "11 AM to 5 PM"
      },
      {
        "day": "Thursday",
        "hours": "Closed"
      },
      {
        "day": "Friday",
        "hours": "11 AM to 5 PM"
      },
      {
        "day": "Saturday",
        "hours": "11 AM to 5 PM"
      },
      {
        "day": "Sunday",
        "hours": "11 AM to 5 PM"
      }
    ],
    "imageUrl": "https://media.indianluxurycars.com/google/e06a116556f10e5ec35cded2794b813e6393727602a53914f65c96bb2a3c5370.jpg",
    "url": "https://www.google.com/maps/search/?api=1&query=ApexCars%20by%20ApexEmporium%20AutoTrade%20Pvt%20Ltd&query_place_id=ChIJm3WU_cj9YjkRa_crFLq5VoA"
  },
  {
    "title": "ARJ Select",
    "subTitle": "अर्ज सलेक्ट",
    "categoryName": "Used car dealer",
    "address": "G-1, Shekhar central, 4-5, AB Rd, Palasia Square, Manorama Ganj, Indore, Madhya Pradesh 452001, India",
    "neighborhood": "Palasia Square, Manorama Ganj",
    "street": "G-1, Shekhar central, 4-5, AB Rd",
    "city": "Indore",
    "postalCode": "452001",
    "state": "Madhya Pradesh",
    "countryCode": "IN",
    "website": "https://arjselect.com/",
    "phone": "+918889898023",
    "phoneUnformatted": "+918889898023",
    "location": {
      "lat": 22.722727,
      "lng": 75.887071
    },
    "totalScore": 5,
    "permanentlyClosed": false,
    "temporarilyClosed": false,
    "placeId": "ChIJz6OGPvD9YjkRXG54KyLKWjI",
    "categories": [
      "Used car dealer"
    ],
    "reviewsCount": 12,
    "imagesCount": 14,
    "openingHours": [
      {
        "day": "Monday",
        "hours": "10:30 AM to 7:30 PM"
      },
      {
        "day": "Tuesday",
        "hours": "10:30 AM to 7:30 PM"
      },
      {
        "day": "Wednesday",
        "hours": "10:30 AM to 7:30 PM"
      },
      {
        "day": "Thursday",
        "hours": "10:30 AM to 7:30 PM"
      },
      {
        "day": "Friday",
        "hours": "10:30 AM to 7:30 PM"
      },
      {
        "day": "Saturday",
        "hours": "10:30 AM to 7:30 PM"
      },
      {
        "day": "Sunday",
        "hours": "11 AM to 6 PM"
      }
    ],
    "imageUrl": "https://media.indianluxurycars.com/google/a22a3bccddd5a7db20d65aa55b23b4a7f8d49db4fc1b3a816163d4dba3bc5a92.jpg",
    "url": "https://www.google.com/maps/search/?api=1&query=ARJ%20Select&query_place_id=ChIJz6OGPvD9YjkRXG54KyLKWjI"
  },
  {
    "title": "Arpit self drive cars |car hire with driver | Crysta hire in Indore | cab service in indore | Car rental with driver Taxi",
    "subTitle": "अर्पित सेल्फ ड्राइव कार्स |कार हीरे विथ ड्राइवर | क्रिस्टा हीरे इन इंदौर | कैब सर्विस इन इंदौर | कार रेंटल विथ ड्राइवर टैक्सी",
    "categoryName": "Car rental agency",
    "address": "hanuman mandir Shradha, robot square 27, opp. chintaman, Shree Nagar, Indore, Madhya Pradesh 452010, India",
    "neighborhood": "Maguda Nagar, Shree Nagar",
    "street": "hanuman mandir Shradha, robot square 27, opp. chintaman",
    "city": "Indore",
    "postalCode": "452010",
    "state": "Madhya Pradesh",
    "countryCode": "IN",
    "phone": "+917697601047",
    "phoneUnformatted": "+917697601047",
    "location": {
      "lat": 22.7519223,
      "lng": 75.8893688
    },
    "totalScore": 4.9,
    "permanentlyClosed": false,
    "temporarilyClosed": false,
    "placeId": "ChIJ6Qa5foTjYjkRfnuGcJd4z2E",
    "categories": [
      "Car rental agency",
      "Car leasing service"
    ],
    "reviewsCount": 66,
    "imagesCount": 106,
    "openingHours": [
      {
        "day": "Monday",
        "hours": "Open 24 hours"
      },
      {
        "day": "Tuesday",
        "hours": "Open 24 hours"
      },
      {
        "day": "Wednesday",
        "hours": "Open 24 hours"
      },
      {
        "day": "Thursday",
        "hours": "Open 24 hours"
      },
      {
        "day": "Friday",
        "hours": "Open 24 hours"
      },
      {
        "day": "Saturday",
        "hours": "Open 24 hours"
      },
      {
        "day": "Sunday",
        "hours": "Open 24 hours"
      }
    ],
    "imageUrl": "https://media.indianluxurycars.com/google/be31c5b424e8e23671822dfdda394195bffb419a5f7fc0a334d8ce46fb4d57d2.jpg",
    "url": "https://www.google.com/maps/search/?api=1&query=Arpit%20self%20drive%20cars%20%7Ccar%20hire%20with%20driver%20%7C%20Crysta%20hire%20in%20Indore%20%7C%20cab%20service%20in%20indore%20%7C%20Car%20rental%20with%20driver%20Taxi&query_place_id=ChIJ6Qa5foTjYjkRfnuGcJd4z2E"
  },
  {
    "title": "Assar Vehicle",
    "subTitle": "एस्सार व्हीकल",
    "categoryName": "Car rental agency",
    "address": "Jail Rd, Indore GPO, Indore, Madhya Pradesh 452007, India",
    "neighborhood": "Indore GPO",
    "street": "Jail Rd",
    "city": "Indore",
    "postalCode": "452007",
    "state": "Madhya Pradesh",
    "countryCode": "IN",
    "website": "https://www.assarvehicle.com/",
    "phone": "+919109999666",
    "phoneUnformatted": "+919109999666",
    "location": {
      "lat": 22.7252427,
      "lng": 75.8622855
    },
    "totalScore": 3.9,
    "permanentlyClosed": false,
    "temporarilyClosed": false,
    "placeId": "ChIJxXudeVP9YjkRm9NihLnT8BQ",
    "categories": [
      "Car rental agency"
    ],
    "reviewsCount": 80,
    "imagesCount": 184,
    "openingHours": [
      {
        "day": "Monday",
        "hours": "10 AM to 7 PM"
      },
      {
        "day": "Tuesday",
        "hours": "10 AM to 7 PM"
      },
      {
        "day": "Wednesday",
        "hours": "Closed"
      },
      {
        "day": "Thursday",
        "hours": "10 AM to 7 PM"
      },
      {
        "day": "Friday",
        "hours": "10 AM to 7 PM"
      },
      {
        "day": "Saturday",
        "hours": "10 AM to 7 PM"
      },
      {
        "day": "Sunday",
        "hours": "10 AM to 2 PM"
      }
    ],
    "imageUrl": "https://media.indianluxurycars.com/google/c32c55120a6243218a1fa47cdbc79687c857dd85a0f6118461e1a7c8e4141a7a.jpg",
    "url": "https://www.google.com/maps/search/?api=1&query=Assar%20Vehicle&query_place_id=ChIJxXudeVP9YjkRm9NihLnT8BQ"
  },
  {
    "title": "Auto Empire Car dealership",
    "subTitle": "ऑटो एंपायर यूज्ड कार्स",
    "categoryName": "Used car dealer",
    "address": "Plot No. 17, Choithram Road, near Gurudwara, Mangal Nagar, Indore, Madhya Pradesh 452014, India",
    "neighborhood": "Mangal Nagar",
    "street": "Plot No. 17, Choithram Road, near Gurudwara",
    "city": "Indore",
    "postalCode": "452014",
    "state": "Madhya Pradesh",
    "countryCode": "IN",
    "website": "https://www.instagram.com/auto_empier09?igsh=OG1tYnUxOHpta3Vk",
    "phone": "+919926889947",
    "phoneUnformatted": "+919926889947",
    "location": {
      "lat": 22.6862282,
      "lng": 75.8554698
    },
    "totalScore": 5,
    "permanentlyClosed": false,
    "temporarilyClosed": false,
    "placeId": "ChIJ6zHy4u79YjkRrz2c2CjYSxE",
    "categories": [
      "Used car dealer",
      "Car dealer"
    ],
    "reviewsCount": 2,
    "imagesCount": 6,
    "openingHours": [
      {
        "day": "Monday",
        "hours": "10:30 AM to 8:30 PM"
      },
      {
        "day": "Tuesday",
        "hours": "10:30 AM to 8:30 PM"
      },
      {
        "day": "Wednesday",
        "hours": "10:30 AM to 8:30 PM"
      },
      {
        "day": "Thursday",
        "hours": "10:30 AM to 8:30 PM"
      },
      {
        "day": "Friday",
        "hours": "10:30 AM to 8:30 PM"
      },
      {
        "day": "Saturday",
        "hours": "10:30 AM to 8:30 PM"
      },
      {
        "day": "Sunday",
        "hours": "10:30 AM to 8:30 PM"
      }
    ],
    "imageUrl": "https://media.indianluxurycars.com/google/bbf50465e8b739c2e2ee71e25948c75775830b110904cb620bd16a8ab77a1c02.jpg",
    "url": "https://www.google.com/maps/search/?api=1&query=Auto%20Empire%20Car%20dealership&query_place_id=ChIJ6zHy4u79YjkRrz2c2CjYSxE"
  },
  {
    "title": "AutoBidder | Pre-Owned Cars | Certified second hand buy used car - sell car at best rates",
    "subTitle": "ऑटोबिडर | प्री-ओन्ड कार्स | सर्टिफाइड सेकंड हैंड बी यूज्ड कार - सेल कार अत बेस्ट रेट्स",
    "categoryName": "Used car dealer",
    "address": "Palasia, Devdarshan Building, Mumbai - Agra National Highway, South Tukoganj, Indore, Madhya Pradesh 452001, India",
    "neighborhood": "South Tukoganj",
    "street": "Palasia, Devdarshan Building, Mumbai - Agra National Highway",
    "city": "Indore",
    "postalCode": "452001",
    "state": "Madhya Pradesh",
    "countryCode": "IN",
    "website": "http://autobidder.in/",
    "phone": "+919770921040",
    "phoneUnformatted": "+919770921040",
    "location": {
      "lat": 22.721905,
      "lng": 75.88525
    },
    "totalScore": 4.1,
    "permanentlyClosed": false,
    "temporarilyClosed": false,
    "placeId": "ChIJcTYzpzn9YjkRLiS3bTcZIF4",
    "categories": [
      "Used car dealer",
      "Motor vehicle dealer"
    ],
    "reviewsCount": 13,
    "imagesCount": 109,
    "openingHours": [
      {
        "day": "Monday",
        "hours": "10 AM to 8 PM"
      },
      {
        "day": "Tuesday",
        "hours": "10 AM to 8 PM"
      },
      {
        "day": "Wednesday",
        "hours": "10 AM to 8 PM"
      },
      {
        "day": "Thursday",
        "hours": "10 AM to 8 PM"
      },
      {
        "day": "Friday",
        "hours": "10 AM to 8 PM"
      },
      {
        "day": "Saturday",
        "hours": "10 AM to 8 PM"
      },
      {
        "day": "Sunday",
        "hours": "10 AM to 8 PM"
      }
    ],
    "imageUrl": "https://media.indianluxurycars.com/google/69b26468a1d28efef19117f6e4bcbf5829b395cc6a3b353e690ab9d6283fead3.jpg",
    "url": "https://www.google.com/maps/search/?api=1&query=AutoBidder%20%7C%20Pre-Owned%20Cars%20%7C%20Certified%20second%20hand%20buy%20used%20car%20-%20sell%20car%20at%20best%20rates&query_place_id=ChIJcTYzpzn9YjkRLiS3bTcZIF4"
  },
  {
    "title": "AUTOFORM BRANDSTORE -AVS MOTORS ( Car Accessories & Car Decoration )",
    "subTitle": "ऑटोफॉर्म ब्रैंडस्टोर -एवीएस मोटर्स ( कार एसेसरिज & कार डैकोरेशन )",
    "categoryName": "Car accessories store",
    "address": "271, Scheme no.44 , mechanic nagar main road 271, Mechanic nagar, Patel Gali, Transport Nagar, Indore, Madhya Pradesh 452014, India",
    "neighborhood": "Transport Nagar",
    "street": "271, Scheme no.44 , mechanic nagar main road 271, Mechanic nagar, Patel Gali",
    "city": "Indore",
    "postalCode": "452014",
    "state": "Madhya Pradesh",
    "countryCode": "IN",
    "website": "http://www.autoformindia.com/",
    "phone": "+919806749974",
    "phoneUnformatted": "+919806749974",
    "location": {
      "lat": 22.6945862,
      "lng": 75.8625472
    },
    "totalScore": 4.9,
    "permanentlyClosed": false,
    "temporarilyClosed": false,
    "placeId": "ChIJ5wIDG6b9YjkRXCSkvTfhTvo",
    "categories": [
      "Car accessories store"
    ],
    "reviewsCount": 110,
    "imagesCount": 320,
    "openingHours": [
      {
        "day": "Monday",
        "hours": "10:30 AM to 8:30 PM"
      },
      {
        "day": "Tuesday",
        "hours": "10:30 AM to 8:30 PM"
      },
      {
        "day": "Wednesday",
        "hours": "10:30 AM to 8:30 PM"
      },
      {
        "day": "Thursday",
        "hours": "10:30 AM to 8:30 PM"
      },
      {
        "day": "Friday",
        "hours": "10:30 AM to 8:30 PM"
      },
      {
        "day": "Saturday",
        "hours": "10:30 AM to 8 PM"
      },
      {
        "day": "Sunday",
        "hours": "10:30 AM to 3:30 PM"
      }
    ],
    "imageUrl": "https://media.indianluxurycars.com/google/e6d26290b0746b83f2c49afd48ce85eb7c21981232aaa7e6f8a498ba03d31f2b.jpg",
    "url": "https://www.google.com/maps/search/?api=1&query=AUTOFORM%20BRANDSTORE%20-AVS%20MOTORS%20(%20Car%20Accessories%20%26%20Car%20Decoration%20)&query_place_id=ChIJ5wIDG6b9YjkRXCSkvTfhTvo"
  },
  {
    "title": "C2 - CAR CARE DESTINATION",
    "subTitle": "सी2 - कार केयर डेस्टिनेशन",
    "categoryName": "Car leasing service",
    "address": "new cloth market, Keshar Bagh Rd, Siddharth Nagar, Indore, Madhya Pradesh 452012, India",
    "neighborhood": "Siddharth Nagar",
    "street": "new cloth market, Keshar Bagh Rd",
    "city": "Indore",
    "postalCode": "452012",
    "state": "Madhya Pradesh",
    "countryCode": "IN",
    "website": "http://www.carcaredestination.co.in/",
    "phone": "+917880279902",
    "phoneUnformatted": "+917880279902",
    "location": {
      "lat": 22.6831676,
      "lng": 75.8428751
    },
    "totalScore": 4.9,
    "permanentlyClosed": false,
    "temporarilyClosed": false,
    "placeId": "ChIJB9UFy6L9YjkRfRZ5I_mmIrY",
    "categories": [
      "Car leasing service",
      "Auto bodywork mechanic",
      "Auto glass shop",
      "Auto painting",
      "Auto repair shop",
      "Car wash",
      "Ceramics wholesaler",
      "Metal polishing service",
      "Powder coating service",
      "Repair service"
    ],
    "reviewsCount": 125,
    "imagesCount": 166,
    "openingHours": [
      {
        "day": "Monday",
        "hours": "Open 24 hours"
      },
      {
        "day": "Tuesday",
        "hours": "Open 24 hours"
      },
      {
        "day": "Wednesday",
        "hours": "Open 24 hours"
      },
      {
        "day": "Thursday",
        "hours": "Open 24 hours"
      },
      {
        "day": "Friday",
        "hours": "Open 24 hours"
      },
      {
        "day": "Saturday",
        "hours": "Open 24 hours"
      },
      {
        "day": "Sunday",
        "hours": "Open 24 hours"
      }
    ],
    "imageUrl": "https://media.indianluxurycars.com/google/8bcb0e00da1c90860fc4e09b97f86968cdddb7618b823f646efd349a9f8bc470.jpg",
    "url": "https://www.google.com/maps/search/?api=1&query=C2%20-%20CAR%20CARE%20DESTINATION&query_place_id=ChIJB9UFy6L9YjkRfRZ5I_mmIrY"
  },
  {
    "title": "Cab Mee | Airport Taxi | Taxi In Indore | Out Station Taxi | Cab in Indore | Taxi Service In Indore",
    "subTitle": "कैब मी | एयरपोर्ट टैक्सी | टैक्सी इन इंदौर | आउट स्टेशन टैक्सी | कैब इन इंदौर | टैक्सी सर्विस इन इंदौर",
    "categoryName": "Car rental agency",
    "address": "32, Manik Bagh Rd, Ashoka Colony, Nandanvan Colony, Indore, Madhya Pradesh 452014, India",
    "neighborhood": "Ashoka Colony, Nandanvan Colony",
    "street": "32, Manik Bagh Rd",
    "city": "Indore",
    "postalCode": "452014",
    "state": "Madhya Pradesh",
    "countryCode": "IN",
    "website": "http://www.cabmee.com/",
    "phone": "+919826092809",
    "phoneUnformatted": "+919826092809",
    "location": {
      "lat": 22.6929494,
      "lng": 75.8519316
    },
    "totalScore": 4.9,
    "permanentlyClosed": false,
    "temporarilyClosed": false,
    "placeId": "ChIJEXDMFLr9YjkRnoN6v2L9JxY",
    "categories": [
      "Car rental agency",
      "Car leasing service"
    ],
    "reviewsCount": 110,
    "imagesCount": 43,
    "openingHours": [
      {
        "day": "Monday",
        "hours": "Open 24 hours"
      },
      {
        "day": "Tuesday",
        "hours": "Open 24 hours"
      },
      {
        "day": "Wednesday",
        "hours": "Open 24 hours"
      },
      {
        "day": "Thursday",
        "hours": "Open 24 hours"
      },
      {
        "day": "Friday",
        "hours": "Open 24 hours"
      },
      {
        "day": "Saturday",
        "hours": "Open 24 hours"
      },
      {
        "day": "Sunday",
        "hours": "Open 24 hours"
      }
    ],
    "imageUrl": "https://media.indianluxurycars.com/google/93aedb4e0471b6866f5a82d0376e8cabf84099e40f5f9ce83d9d41d9bf39a78b.jpg",
    "url": "https://www.google.com/maps/search/?api=1&query=Cab%20Mee%20%7C%20Airport%20Taxi%20%7C%20Taxi%20In%20Indore%20%7C%20Out%20Station%20Taxi%20%7C%20Cab%20in%20Indore%20%7C%20Taxi%20Service%20In%20Indore&query_place_id=ChIJEXDMFLr9YjkRnoN6v2L9JxY"
  },
  {
    "title": "CAR ON CALL - Car rental with driver | Innova Crysta rental in indore | Tempo traveller on rent in Indore | Outstation taxi",
    "subTitle": "कार ऑन कॉल - कार रेंटल विथ ड्राइवर | इनोवा क्रिस्टा रेंटल इन इंदौर | आउटस्टेशन टैक्सी",
    "categoryName": "Car rental agency",
    "address": "152, 1st floor, Mangal city, Mumbai - Agra National Highway, near Radisson blu hotel, Vijay Nagar, Scheme No 54, Indore, Madhya Pradesh 452010, India",
    "neighborhood": "Vijay Nagar, Scheme No 54",
    "street": "152, 1st floor, Mangal city, Mumbai - Agra National Highway, near Radisson blu hotel",
    "city": "Indore",
    "postalCode": "452010",
    "state": "Madhya Pradesh",
    "countryCode": "IN",
    "website": "http://www.instagram.com/caroncall",
    "phone": "+919926539973",
    "phoneUnformatted": "+919926539973",
    "location": {
      "lat": 22.7525351,
      "lng": 75.8965096
    },
    "totalScore": 4.7,
    "permanentlyClosed": false,
    "temporarilyClosed": false,
    "placeId": "ChIJ6UDe93IdYzkR1sz361tQmT4",
    "categories": [
      "Car rental agency",
      "Bus tour agency",
      "Travel agency"
    ],
    "reviewsCount": 603,
    "imagesCount": 2154,
    "openingHours": [
      {
        "day": "Monday",
        "hours": "Open 24 hours"
      },
      {
        "day": "Tuesday",
        "hours": "Open 24 hours"
      },
      {
        "day": "Wednesday",
        "hours": "Open 24 hours"
      },
      {
        "day": "Thursday",
        "hours": "Open 24 hours"
      },
      {
        "day": "Friday",
        "hours": "Open 24 hours"
      },
      {
        "day": "Saturday",
        "hours": "Open 24 hours"
      },
      {
        "day": "Sunday",
        "hours": "Open 24 hours"
      }
    ],
    "imageUrl": "https://media.indianluxurycars.com/google/ae53692a272abe7cd2d1ae4b34d788ddc26fc511c14495d0e88ed0275a22c914.jpg",
    "url": "https://www.google.com/maps/search/?api=1&query=CAR%20ON%20CALL%20-%20Car%20rental%20with%20driver%20%7C%20Innova%20Crysta%20rental%20in%20indore%20%7C%20Tempo%20traveller%20on%20rent%20in%20Indore%20%7C%20Outstation%20taxi&query_place_id=ChIJ6UDe93IdYzkR1sz361tQmT4"
  },
  {
    "title": "Car On Rent Self Drive",
    "subTitle": "कार ऑन रेंट सेल्फ ड्राइव",
    "categoryName": "Car rental agency",
    "address": "70, Bhagyalakshmi Nagar, Janakpuri Colony, Sukhliya, Indore, Madhya Pradesh 452010, India",
    "neighborhood": "Bhagyalakshmi Nagar, Janakpuri Colony, Sukhliya",
    "street": "70",
    "city": "Indore",
    "postalCode": "452010",
    "state": "Madhya Pradesh",
    "countryCode": "IN",
    "phone": "+916266162138",
    "phoneUnformatted": "+916266162138",
    "location": {
      "lat": 22.7652495,
      "lng": 75.8681767
    },
    "totalScore": 4.5,
    "permanentlyClosed": false,
    "temporarilyClosed": false,
    "placeId": "ChIJZSxgYcgDYzkRqZxr0nQViTQ",
    "categories": [
      "Car rental agency"
    ],
    "reviewsCount": 129,
    "imagesCount": 50,
    "openingHours": [
      {
        "day": "Monday",
        "hours": "Open 24 hours"
      },
      {
        "day": "Tuesday",
        "hours": "Open 24 hours"
      },
      {
        "day": "Wednesday",
        "hours": "Open 24 hours"
      },
      {
        "day": "Thursday",
        "hours": "Open 24 hours"
      },
      {
        "day": "Friday",
        "hours": "Open 24 hours"
      },
      {
        "day": "Saturday",
        "hours": "Open 24 hours"
      },
      {
        "day": "Sunday",
        "hours": "Open 24 hours"
      }
    ],
    "imageUrl": "https://media.indianluxurycars.com/google/887f1493870ba6c42e3ae5cb78a859b683c293e863293d88bac5d8984f54df50.jpg",
    "url": "https://www.google.com/maps/search/?api=1&query=Car%20On%20Rent%20Self%20Drive&query_place_id=ChIJZSxgYcgDYzkRqZxr0nQViTQ"
  },
  {
    "title": "CAR'S 21",
    "subTitle": "कार'स 21",
    "categoryName": "Used car dealer",
    "address": "14, Manik Bagh Rd, near Choitram compound, Choitram compound, Indore, Madhya Pradesh 452014, India",
    "neighborhood": "Choitram compound",
    "street": "14, Manik Bagh Rd, near Choitram compound",
    "city": "Indore",
    "postalCode": "452014",
    "state": "Madhya Pradesh",
    "countryCode": "IN",
    "phone": "+919669305550",
    "phoneUnformatted": "+919669305550",
    "location": {
      "lat": 22.6869705,
      "lng": 75.8551396
    },
    "totalScore": 3.7,
    "permanentlyClosed": false,
    "temporarilyClosed": false,
    "placeId": "ChIJydceHRL9YjkRIRBjLpf6xv4",
    "categories": [
      "Used car dealer"
    ],
    "reviewsCount": 10,
    "imagesCount": 1,
    "openingHours": [
      {
        "day": "Monday",
        "hours": "10:30 AM to 8:30 PM"
      },
      {
        "day": "Tuesday",
        "hours": "10:30 AM to 8:30 PM"
      },
      {
        "day": "Wednesday",
        "hours": "10:30 AM to 8:30 PM"
      },
      {
        "day": "Thursday",
        "hours": "10:30 AM to 8:30 PM"
      },
      {
        "day": "Friday",
        "hours": "10:30 AM to 8:30 PM"
      },
      {
        "day": "Saturday",
        "hours": "10:30 AM to 8:30 PM"
      },
      {
        "day": "Sunday",
        "hours": "10:30 AM to 8:30 PM"
      }
    ],
    "imageUrl": "https://media.indianluxurycars.com/google/39b2c824378aa2e8c06aa75433a17a56af7944807525a17da65996e21e7ecfca.jpg",
    "url": "https://www.google.com/maps/search/?api=1&query=CAR'S%2021&query_place_id=ChIJydceHRL9YjkRIRBjLpf6xv4"
  },
  {
    "title": "CarPucho",
    "subTitle": "कार्पचो",
    "categoryName": "Car rental agency",
    "address": "108, 1st, Princes Business Skypark, AB Rd, Scheme No 54, Indore, Madhya Pradesh 452010, India",
    "neighborhood": "Scheme No 54",
    "street": "108, 1st, Princes Business Skypark, AB Rd",
    "city": "Indore",
    "postalCode": "452010",
    "state": "Madhya Pradesh",
    "countryCode": "IN",
    "phone": "+917224911335",
    "phoneUnformatted": "+917224911335",
    "location": {
      "lat": 22.7458507,
      "lng": 75.8930609
    },
    "totalScore": 4.8,
    "permanentlyClosed": false,
    "temporarilyClosed": true,
    "placeId": "ChIJ4Ugl8Kf1BwkRZoxScWODQho",
    "categories": [
      "Car rental agency"
    ],
    "reviewsCount": 5,
    "imagesCount": 10,
    "openingHours": [],
    "imageUrl": "https://media.indianluxurycars.com/google/49c99ef6f37b477c438f826afda1bc8c45d9b6d48e8a929ad6e4a6d9a9845882.jpg",
    "url": "https://www.google.com/maps/search/?api=1&query=CarPucho&query_place_id=ChIJ4Ugl8Kf1BwkRZoxScWODQho"
  },
  {
    "title": "Certified PreOwned Cars",
    "subTitle": "सर्टिफाइड प्रिओन्ड कार्स",
    "categoryName": "Used car dealer",
    "address": "306, 9930 Spaces, near Rajiv Gandhi Square, Sarvanand Nagar, Mangal Nagar, Indore, Madhya Pradesh 452001, India",
    "neighborhood": "Sarvanand Nagar, Mangal Nagar",
    "street": "306, 9930 Spaces, near Rajiv Gandhi Square",
    "city": "Indore",
    "postalCode": "452001",
    "state": "Madhya Pradesh",
    "countryCode": "IN",
    "phone": "+919826512111",
    "phoneUnformatted": "+919826512111",
    "location": {
      "lat": 22.6829008,
      "lng": 75.8572989
    },
    "totalScore": 4.1,
    "permanentlyClosed": false,
    "temporarilyClosed": true,
    "placeId": "ChIJT6VRIgP9YjkR5nMuHvtOKZA",
    "categories": [
      "Used car dealer",
      "Car dealer",
      "Hyundai dealer",
      "Motor vehicle dealer",
      "Truck dealer",
      "Used auto parts store",
      "Used motorcycle dealer",
      "Used tire shop",
      "Used truck dealer",
      "Volvo dealer"
    ],
    "reviewsCount": 9,
    "imagesCount": 25,
    "openingHours": [],
    "imageUrl": "https://media.indianluxurycars.com/google/baf0e26acb055ad45f2a7d5e6b5bdc5852f07ea1b30f4c689db73273f67f4ac0.jpg",
    "url": "https://www.google.com/maps/search/?api=1&query=Certified%20PreOwned%20Cars&query_place_id=ChIJT6VRIgP9YjkR5nMuHvtOKZA"
  },
  {
    "title": "City Way Drive",
    "subTitle": "सिटी वे ड्राइव",
    "categoryName": "Car rental agency",
    "address": "gate number 3, Nehru Stadium, Residency Area, Indore, Madhya Pradesh 452001, India",
    "neighborhood": "Nehru Stadium, Residency Area",
    "street": "gate number 3",
    "city": "Indore",
    "postalCode": "452001",
    "state": "Madhya Pradesh",
    "countryCode": "IN",
    "website": "https://city-way-drive.localo.site/",
    "phone": "+919926327379",
    "phoneUnformatted": "+919926327379",
    "location": {
      "lat": 22.7090337,
      "lng": 75.8803779
    },
    "totalScore": 5,
    "permanentlyClosed": false,
    "temporarilyClosed": false,
    "placeId": "ChIJlVgdn639YjkRwfE2XXOH83c",
    "categories": [
      "Car rental agency",
      "Car leasing service"
    ],
    "reviewsCount": 10,
    "imagesCount": 2,
    "openingHours": [
      {
        "day": "Monday",
        "hours": "Open 24 hours"
      },
      {
        "day": "Tuesday",
        "hours": "Open 24 hours"
      },
      {
        "day": "Wednesday",
        "hours": "Open 24 hours"
      },
      {
        "day": "Thursday",
        "hours": "Open 24 hours"
      },
      {
        "day": "Friday",
        "hours": "Open 24 hours"
      },
      {
        "day": "Saturday",
        "hours": "Open 24 hours"
      },
      {
        "day": "Sunday",
        "hours": "Open 24 hours"
      }
    ],
    "imageUrl": "https://media.indianluxurycars.com/google/7fee13219477ab9a4ef06d9d35f9a5c83d1b4be628a988900758e86245449b10.jpg",
    "url": "https://www.google.com/maps/search/?api=1&query=City%20Way%20Drive&query_place_id=ChIJlVgdn639YjkRwfE2XXOH83c"
  },
  {
    "title": "Classic Car",
    "subTitle": "क्लासिक कार",
    "categoryName": "Car dealer",
    "address": "PW94+VG9, Bengali Colony, Indore, Madhya Pradesh 452016, India",
    "neighborhood": "Bengali Colony",
    "street": "PW94+VG9",
    "city": "Indore",
    "postalCode": "452016",
    "state": "Madhya Pradesh",
    "countryCode": "IN",
    "phone": "+919827022411",
    "phoneUnformatted": "+919827022411",
    "location": {
      "lat": 22.719652,
      "lng": 75.906366
    },
    "totalScore": 3,
    "permanentlyClosed": false,
    "temporarilyClosed": false,
    "placeId": "ChIJp5ullR_9YjkR9D5p1R5dZEc",
    "categories": [
      "Car dealer",
      "Used car dealer"
    ],
    "reviewsCount": 3,
    "imagesCount": 4,
    "openingHours": [
      {
        "day": "Monday",
        "hours": "10 AM to 8 PM"
      },
      {
        "day": "Tuesday",
        "hours": "10 AM to 8 PM"
      },
      {
        "day": "Wednesday",
        "hours": "10 AM to 8 PM"
      },
      {
        "day": "Thursday",
        "hours": "Closed"
      },
      {
        "day": "Friday",
        "hours": "10 AM to 8 PM"
      },
      {
        "day": "Saturday",
        "hours": "10 AM to 8 PM"
      },
      {
        "day": "Sunday",
        "hours": "10 AM to 8 PM"
      }
    ],
    "imageUrl": "https://media.indianluxurycars.com/google/8d1fff8b29eff45af93ca17ab8ab808c27e61f1653d8e6203c279439d9dc481b.jpg",
    "url": "https://www.google.com/maps/search/?api=1&query=Classic%20Car&query_place_id=ChIJp5ullR_9YjkR9D5p1R5dZEc"
  },
  {
    "title": "Daas krapa tour&trewals",
    "subTitle": "दास कृपा तौर&ट्रेवल्स",
    "categoryName": "Car rental agency",
    "address": "256, Nanda Nagar, Vrindavan Colony, Indore, Madhya Pradesh 452015, India",
    "neighborhood": "Nanda Nagar, Vrindavan Colony",
    "street": "256",
    "city": "Indore",
    "postalCode": "452015",
    "state": "Madhya Pradesh",
    "countryCode": "IN",
    "phone": "+918889210551",
    "phoneUnformatted": "+918889210551",
    "location": {
      "lat": 22.739853,
      "lng": 75.8482364
    },
    "totalScore": 5,
    "permanentlyClosed": false,
    "temporarilyClosed": true,
    "placeId": "ChIJ3e1RmKT9YjkRvQOy6n59hFA",
    "categories": [
      "Car rental agency",
      "Travel agency"
    ],
    "reviewsCount": 2,
    "imagesCount": 38,
    "openingHours": [],
    "imageUrl": "https://media.indianluxurycars.com/google/b484a7182a9080e68904376c6be33296cf8c2cd9db6a38eb0e639b4329711de5.jpg",
    "url": "https://www.google.com/maps/search/?api=1&query=Daas%20krapa%20tour%26trewals&query_place_id=ChIJ3e1RmKT9YjkRvQOy6n59hFA"
  },
  {
    "title": "Dharvika Travels | Taxi service In Indore | Car rental indore | Innova crysta rental in indore",
    "subTitle": "धर्विका ट्रैवल्स | टैक्सी सर्विस इन इंदौर | कार रेंटल इंदौर | इनोवा क्रिस्टा रेंटल इन इंदौर",
    "categoryName": "Car rental agency",
    "address": "Office 508A, Vibrant tower, AB Rd, behind Anand Nissan, Manorama Ganj, Indore, Madhya Pradesh 452001, India",
    "neighborhood": "Manorama Ganj",
    "street": "Office 508A, Vibrant tower, AB Rd, behind Anand Nissan",
    "city": "Indore",
    "postalCode": "452001",
    "state": "Madhya Pradesh",
    "countryCode": "IN",
    "website": "https://dharvikatravels.in/",
    "phone": "+917777888081",
    "phoneUnformatted": "+917777888081",
    "location": {
      "lat": 22.7199493,
      "lng": 75.8850275
    },
    "totalScore": 4.8,
    "permanentlyClosed": false,
    "temporarilyClosed": false,
    "placeId": "ChIJtSN4NiH9YjkRHRHJMx0kb8o",
    "categories": [
      "Car rental agency",
      "Airport shuttle service",
      "Car leasing service",
      "Chauffeur service",
      "Taxi service",
      "Tour operator",
      "Transportation service"
    ],
    "reviewsCount": 146,
    "imagesCount": 1278,
    "openingHours": [
      {
        "day": "Monday",
        "hours": "Open 24 hours"
      },
      {
        "day": "Tuesday",
        "hours": "Open 24 hours"
      },
      {
        "day": "Wednesday",
        "hours": "Open 24 hours"
      },
      {
        "day": "Thursday",
        "hours": "Open 24 hours"
      },
      {
        "day": "Friday",
        "hours": "Open 24 hours"
      },
      {
        "day": "Saturday",
        "hours": "Open 24 hours"
      },
      {
        "day": "Sunday",
        "hours": "Open 24 hours"
      }
    ],
    "imageUrl": "https://media.indianluxurycars.com/google/31b79bdff5da1e7bdbf92f7fd02f37ad48f1098e4068f733c015f131025b28d7.jpg",
    "url": "https://www.google.com/maps/search/?api=1&query=Dharvika%20Travels%20%7C%20Taxi%20service%20In%20Indore%20%7C%20Car%20rental%20indore%20%7C%20Innova%20crysta%20rental%20in%20indore&query_place_id=ChIJtSN4NiH9YjkRHRHJMx0kb8o"
  },
  {
    "title": "Divy car wash",
    "subTitle": "दिव्य कार वाश",
    "categoryName": "Car wash",
    "address": "57, Adarsh Moulik Nagar, Sukhliya, Indore, Madhya Pradesh 452010, India",
    "neighborhood": "Adarsh Moulik Nagar, Sukhliya",
    "street": "57",
    "city": "Indore",
    "postalCode": "452010",
    "state": "Madhya Pradesh",
    "countryCode": "IN",
    "phone": "+917247232302",
    "phoneUnformatted": "+917247232302",
    "location": {
      "lat": 22.758705,
      "lng": 75.876826
    },
    "totalScore": 4.9,
    "permanentlyClosed": false,
    "temporarilyClosed": false,
    "placeId": "ChIJ_WWPEL4DYzkRdcmAzyzw0XM",
    "categories": [
      "Car wash"
    ],
    "reviewsCount": 108,
    "imagesCount": 32,
    "openingHours": [
      {
        "day": "Monday",
        "hours": "10 AM to 2 PM"
      },
      {
        "day": "Tuesday",
        "hours": "10 AM to 9 PM"
      },
      {
        "day": "Wednesday",
        "hours": "10 AM to 9 PM"
      },
      {
        "day": "Thursday",
        "hours": "10 AM to 9 PM"
      },
      {
        "day": "Friday",
        "hours": "10 AM to 9 PM"
      },
      {
        "day": "Saturday",
        "hours": "10 AM to 9 PM"
      },
      {
        "day": "Sunday",
        "hours": "10 AM to 9 PM"
      }
    ],
    "imageUrl": "https://media.indianluxurycars.com/google/0b2adfc667042ce141f3af7770348ebc6a3365f5e3338ebe27eb4b60bbd77f23.jpg",
    "url": "https://www.google.com/maps/search/?api=1&query=Divy%20car%20wash&query_place_id=ChIJ_WWPEL4DYzkRdcmAzyzw0XM"
  },
  {
    "title": "Elite cars",
    "subTitle": "एलीट कार्स",
    "categoryName": "Used car dealer",
    "address": "Khatiwala Tank, Indore, Madhya Pradesh 452014, India",
    "neighborhood": "Khatiwala Tank",
    "city": "Indore",
    "postalCode": "452014",
    "state": "Madhya Pradesh",
    "countryCode": "IN",
    "phone": "+917898170227",
    "phoneUnformatted": "+917898170227",
    "location": {
      "lat": 22.7005995,
      "lng": 75.8603881
    },
    "permanentlyClosed": false,
    "temporarilyClosed": false,
    "placeId": "ChIJ6QUG0H79YjkReYHngTPfn0Y",
    "categories": [
      "Used car dealer",
      "Car dealer"
    ],
    "imagesCount": 1,
    "openingHours": [
      {
        "day": "Monday",
        "hours": "11 AM to 7 PM"
      },
      {
        "day": "Tuesday",
        "hours": "11 AM to 7 PM"
      },
      {
        "day": "Wednesday",
        "hours": "11 AM to 7 PM"
      },
      {
        "day": "Thursday",
        "hours": "11 AM to 7 PM"
      },
      {
        "day": "Friday",
        "hours": "11 AM to 7 PM"
      },
      {
        "day": "Saturday",
        "hours": "11 AM to 7 PM"
      },
      {
        "day": "Sunday",
        "hours": "Closed"
      }
    ],
    "imageUrl": "https://media.indianluxurycars.com/google/38b684847b5000a2eb80082a46f7393332ceb69f3890552be5521df3dae0ca6b.jpg",
    "url": "https://www.google.com/maps/search/?api=1&query=Elite%20cars&query_place_id=ChIJ6QUG0H79YjkReYHngTPfn0Y"
  },
  {
    "title": "Fortune Motors",
    "subTitle": "फॉर्च्यून मोटर्स",
    "categoryName": "Car dealer",
    "address": "prestige tower, 3, Navlakha, Indore, Madhya Pradesh 452001, India",
    "neighborhood": "Navlakha",
    "street": "prestige tower, 3",
    "city": "Indore",
    "postalCode": "452001",
    "state": "Madhya Pradesh",
    "countryCode": "IN",
    "phone": "+919827036306",
    "phoneUnformatted": "+919827036306",
    "location": {
      "lat": 22.7032676,
      "lng": 75.8758091
    },
    "totalScore": 3.2,
    "permanentlyClosed": false,
    "temporarilyClosed": false,
    "placeId": "ChIJZTZHvh_9YjkRrGJyTWnVY0c",
    "categories": [
      "Car dealer",
      "Auto broker",
      "Car factory",
      "Used car dealer"
    ],
    "reviewsCount": 11,
    "imagesCount": 14,
    "openingHours": [
      {
        "day": "Monday",
        "hours": "11 AM to 6 PM"
      },
      {
        "day": "Tuesday",
        "hours": "11 AM to 6 PM"
      },
      {
        "day": "Wednesday",
        "hours": "11 AM to 6 PM"
      },
      {
        "day": "Thursday",
        "hours": "11 AM to 6 PM"
      },
      {
        "day": "Friday",
        "hours": "11 AM to 6 PM"
      },
      {
        "day": "Saturday",
        "hours": "10 AM to 6 PM"
      },
      {
        "day": "Sunday",
        "hours": "11 AM to 6 PM"
      }
    ],
    "imageUrl": "https://media.indianluxurycars.com/google/892bca3418241498c5f5cc21fcace52fefa85aa055706c1f5ff1a5a561b87ccd.jpg",
    "url": "https://www.google.com/maps/search/?api=1&query=Fortune%20Motors&query_place_id=ChIJZTZHvh_9YjkRrGJyTWnVY0c"
  },
  {
    "title": "G9 Cars",
    "subTitle": "जी9 कार्स",
    "categoryName": "Used car dealer",
    "address": "25, Palsikar Colony, Bridge Service Road, near SBI Bank, Juni Indore, Indore, Madhya Pradesh 452007, India",
    "neighborhood": "Juni Indore",
    "street": "25, Palsikar Colony, Bridge Service Road, near SBI Bank",
    "city": "Indore",
    "postalCode": "452007",
    "state": "Madhya Pradesh",
    "countryCode": "IN",
    "website": "http://g9cars.com/",
    "phone": "+919827700555",
    "phoneUnformatted": "+919827700555",
    "location": {
      "lat": 22.7069156,
      "lng": 75.859417
    },
    "totalScore": 4.2,
    "permanentlyClosed": false,
    "temporarilyClosed": false,
    "placeId": "ChIJDwuwAAH9YjkRhjqfhkL3Bos",
    "categories": [
      "Used car dealer",
      "Car dealer"
    ],
    "reviewsCount": 51,
    "imagesCount": 62,
    "openingHours": [
      {
        "day": "Monday",
        "hours": "10:30 AM to 9 PM"
      },
      {
        "day": "Tuesday",
        "hours": "10:30 AM to 9 PM"
      },
      {
        "day": "Wednesday",
        "hours": "10:30 AM to 9 PM"
      },
      {
        "day": "Thursday",
        "hours": "10:30 AM to 9 PM"
      },
      {
        "day": "Friday",
        "hours": "10:30 AM to 9 PM"
      },
      {
        "day": "Saturday",
        "hours": "10:30 AM to 9 PM"
      },
      {
        "day": "Sunday",
        "hours": "11:06 AM to 8:06 PM"
      }
    ],
    "imageUrl": "https://media.indianluxurycars.com/google/eb180ad5a558da8ac87156e0a999ffd02ab6d2934dbbac6c0b2dc314aa219ce2.jpg",
    "url": "https://www.google.com/maps/search/?api=1&query=G9%20Cars&query_place_id=ChIJDwuwAAH9YjkRhjqfhkL3Bos"
  },
  {
    "title": "Garima Tour and Travels",
    "subTitle": "गरिमा टूर एंड ट्रैवल्स",
    "categoryName": "Car rental agency",
    "address": "30, behind Murliwala sweets, DDU Nagar, Sukhliya, Indore, Madhya Pradesh 452010, India",
    "neighborhood": "DDU Nagar, Sukhliya",
    "street": "30, behind Murliwala sweets",
    "city": "Indore",
    "postalCode": "452010",
    "state": "Madhya Pradesh",
    "countryCode": "IN",
    "website": "https://www.garimatourtravels.online/",
    "location": {
      "lat": 22.7558474,
      "lng": 75.8765533
    },
    "totalScore": 5,
    "permanentlyClosed": false,
    "temporarilyClosed": false,
    "placeId": "ChIJwV0jZMUDYzkRQ25BnMkftyo",
    "categories": [
      "Car rental agency",
      "Bus tour agency",
      "Car leasing service",
      "Travel agency"
    ],
    "reviewsCount": 7,
    "imagesCount": 11,
    "openingHours": [
      {
        "day": "Monday",
        "hours": "Open 24 hours"
      },
      {
        "day": "Tuesday",
        "hours": "Open 24 hours"
      },
      {
        "day": "Wednesday",
        "hours": "Open 24 hours"
      },
      {
        "day": "Thursday",
        "hours": "Open 24 hours"
      },
      {
        "day": "Friday",
        "hours": "Open 24 hours"
      },
      {
        "day": "Saturday",
        "hours": "Open 24 hours"
      },
      {
        "day": "Sunday",
        "hours": "Open 24 hours"
      }
    ],
    "imageUrl": "https://media.indianluxurycars.com/google/76e1a8ab79a9e857fbb3792122c100ce07f6df843e925303b5df1e1cdeaa0995.jpg",
    "url": "https://www.google.com/maps/search/?api=1&query=Garima%20Tour%20and%20Travels&query_place_id=ChIJwV0jZMUDYzkRQ25BnMkftyo"
  },
  {
    "title": "Goud Travels Self Drive Car Indore",
    "subTitle": "गौड़ ट्रैवल्स सेल्फ ड्राइव कार इंदौर",
    "categoryName": "Car rental agency",
    "address": "223-A, near Juni Indore police station, Palsikar Colony, Indore, Madhya Pradesh 452007, India",
    "neighborhood": "Palsikar Colony",
    "street": "223-A, near Juni Indore police station",
    "city": "Indore",
    "postalCode": "452007",
    "state": "Madhya Pradesh",
    "countryCode": "IN",
    "phone": "+917724062006",
    "phoneUnformatted": "+917724062006",
    "location": {
      "lat": 22.7061545,
      "lng": 75.8562143
    },
    "totalScore": 3,
    "permanentlyClosed": false,
    "temporarilyClosed": false,
    "placeId": "ChIJWbEZi7f9YjkRyawrkYorNNQ",
    "categories": [
      "Car rental agency"
    ],
    "reviewsCount": 6,
    "imagesCount": 14,
    "openingHours": [
      {
        "day": "Monday",
        "hours": "Open 24 hours"
      },
      {
        "day": "Tuesday",
        "hours": "Open 24 hours"
      },
      {
        "day": "Wednesday",
        "hours": "Open 24 hours"
      },
      {
        "day": "Thursday",
        "hours": "Open 24 hours"
      },
      {
        "day": "Friday",
        "hours": "Open 24 hours"
      },
      {
        "day": "Saturday",
        "hours": "Open 24 hours"
      },
      {
        "day": "Sunday",
        "hours": "Open 24 hours"
      }
    ],
    "imageUrl": "https://media.indianluxurycars.com/google/b7d7b8a200167a57bd3344819e00895f92abc370f8202af402dd944969bf79cf.jpg",
    "url": "https://www.google.com/maps/search/?api=1&query=Goud%20Travels%20Self%20Drive%20Car%20Indore&query_place_id=ChIJWbEZi7f9YjkRyawrkYorNNQ"
  },
  {
    "title": "Guru Kripa Tour And Travels",
    "subTitle": "गुरु कृपा टूर एंड ट्रैवल्स",
    "categoryName": "Car rental agency",
    "address": "H.I.G Duplex, Ayushman Vihar, Dhan Jyoti, A.V-36, MOG Lines, Indore, Madhya Pradesh 452002, India",
    "neighborhood": "MOG Lines, Scheme 71",
    "street": "H.I.G Duplex, Ayushman Vihar, Dhan Jyoti, A.V-36",
    "city": "Indore",
    "postalCode": "452002",
    "state": "Madhya Pradesh",
    "countryCode": "IN",
    "location": {
      "lat": 22.7079948,
      "lng": 75.8395961
    },
    "totalScore": 5,
    "permanentlyClosed": false,
    "temporarilyClosed": false,
    "placeId": "ChIJTf-aahT9YjkRH4xQ459Eucs",
    "categories": [
      "Car rental agency",
      "Bus tour agency"
    ],
    "reviewsCount": 5,
    "imagesCount": 36,
    "openingHours": [
      {
        "day": "Monday",
        "hours": "Open 24 hours"
      },
      {
        "day": "Tuesday",
        "hours": "Open 24 hours"
      },
      {
        "day": "Wednesday",
        "hours": "Open 24 hours"
      },
      {
        "day": "Thursday",
        "hours": "Open 24 hours"
      },
      {
        "day": "Friday",
        "hours": "Open 24 hours"
      },
      {
        "day": "Saturday",
        "hours": "Open 24 hours"
      },
      {
        "day": "Sunday",
        "hours": "Open 24 hours"
      }
    ],
    "imageUrl": "https://media.indianluxurycars.com/google/43e5f3c8ebe0285626bc88f31fb29b6a3e4469b2a08d9d71137100cc97b88eed.jpg",
    "url": "https://www.google.com/maps/search/?api=1&query=Guru%20Kripa%20Tour%20And%20Travels&query_place_id=ChIJTf-aahT9YjkRH4xQ459Eucs"
  },
  {
    "title": "Harsh Automobiles Pvt Ltd",
    "subTitle": "हर्ष ऑटोमोबिल्स पीवीटी एलटीडी",
    "categoryName": "Used car dealer",
    "address": "No- 54, AB Rd, Badi Bhamori, Indore, Madhya Pradesh 452010, India",
    "neighborhood": "Badi Bhamori",
    "street": "No- 54, AB Rd",
    "city": "Indore",
    "postalCode": "452010",
    "state": "Madhya Pradesh",
    "countryCode": "IN",
    "location": {
      "lat": 22.7497607,
      "lng": 75.8954551
    },
    "totalScore": 4.7,
    "permanentlyClosed": false,
    "temporarilyClosed": false,
    "placeId": "ChIJQc1PJU79YjkR2Y7j3f2QEuo",
    "categories": [
      "Used car dealer"
    ],
    "reviewsCount": 14,
    "imagesCount": 1,
    "openingHours": [
      {
        "day": "Monday",
        "hours": "10 AM to 7:30 PM"
      },
      {
        "day": "Tuesday",
        "hours": "10 AM to 7:30 PM"
      },
      {
        "day": "Wednesday",
        "hours": "10 AM to 7:30 PM"
      },
      {
        "day": "Thursday",
        "hours": "10 AM to 7:30 PM"
      },
      {
        "day": "Friday",
        "hours": "10 AM to 7:30 PM"
      },
      {
        "day": "Saturday",
        "hours": "10 AM to 7:30 PM"
      },
      {
        "day": "Sunday",
        "hours": "10 AM to 6 PM"
      }
    ],
    "imageUrl": "https://media.indianluxurycars.com/google/b0b1dc4ea463efd3703d9f55b5742c7f3c1f46d55e6c59eeb5c919198bb43e96.jpg",
    "url": "https://www.google.com/maps/search/?api=1&query=Harsh%20Automobiles%20Pvt%20Ltd&query_place_id=ChIJQc1PJU79YjkR2Y7j3f2QEuo"
  },
  {
    "title": "Harsh Car Rental",
    "subTitle": "हर्ष कार रेंटल",
    "categoryName": "Car rental agency",
    "address": "96, Ambedkar Nagar Rd, Mig Colony, Ambedkar Nagar, Indore, Madhya Pradesh 452011, India",
    "neighborhood": "Mig Colony, Ambedkar Nagar",
    "street": "96, Ambedkar Nagar Rd",
    "city": "Indore",
    "postalCode": "452011",
    "state": "Madhya Pradesh",
    "countryCode": "IN",
    "location": {
      "lat": 22.7353138,
      "lng": 75.8863
    },
    "totalScore": 3.9,
    "permanentlyClosed": false,
    "temporarilyClosed": false,
    "placeId": "ChIJMcHB65j9YjkRK4GjBQLdMw8",
    "categories": [
      "Car rental agency"
    ],
    "reviewsCount": 18,
    "imagesCount": 17,
    "openingHours": [
      {
        "day": "Monday",
        "hours": "9 AM to 11 PM"
      },
      {
        "day": "Tuesday",
        "hours": "9 AM to 11 PM"
      },
      {
        "day": "Wednesday",
        "hours": "9 AM to 11 PM"
      },
      {
        "day": "Thursday",
        "hours": "9 AM to 11 PM"
      },
      {
        "day": "Friday",
        "hours": "9 AM to 11:30 PM"
      },
      {
        "day": "Saturday",
        "hours": "9 AM to 11 PM"
      },
      {
        "day": "Sunday",
        "hours": "Closed"
      }
    ],
    "imageUrl": "https://media.indianluxurycars.com/google/cd7aa236068e7570ec936cd9c5136e13877bbbf03cc112f457d63998c5ab34e1.jpg",
    "url": "https://www.google.com/maps/search/?api=1&query=Harsh%20Car%20Rental&query_place_id=ChIJMcHB65j9YjkRK4GjBQLdMw8"
  },
  {
    "title": "Hello Car Self Drive",
    "subTitle": "हेलो कार सेल्फ ड्राइव",
    "categoryName": "Car leasing service",
    "address": "160/2, Ahilya Puri, Indrapuri Colony, Colony, Indore, Madhya Pradesh 452001, India",
    "neighborhood": "Ahilya Puri, Indrapuri Colony, Colony",
    "street": "160/2",
    "city": "Indore",
    "postalCode": "452001",
    "state": "Madhya Pradesh",
    "countryCode": "IN",
    "phone": "+919893555636",
    "phoneUnformatted": "+919893555636",
    "location": {
      "lat": 22.6896185,
      "lng": 75.8646951
    },
    "totalScore": 4.5,
    "permanentlyClosed": false,
    "temporarilyClosed": false,
    "placeId": "ChIJ592JaF_9YjkReGNSkw-6JP8",
    "categories": [
      "Car leasing service"
    ],
    "reviewsCount": 262,
    "imagesCount": 68,
    "openingHours": [
      {
        "day": "Monday",
        "hours": "Open 24 hours"
      },
      {
        "day": "Tuesday",
        "hours": "Open 24 hours"
      },
      {
        "day": "Wednesday",
        "hours": "Open 24 hours"
      },
      {
        "day": "Thursday",
        "hours": "Open 24 hours"
      },
      {
        "day": "Friday",
        "hours": "Open 24 hours"
      },
      {
        "day": "Saturday",
        "hours": "Open 24 hours"
      },
      {
        "day": "Sunday",
        "hours": "Open 24 hours"
      }
    ],
    "imageUrl": "https://media.indianluxurycars.com/google/f55c0c13122f5708deb1bb0b1a77a45d42d0cb2af258826042739266686c6898.jpg",
    "url": "https://www.google.com/maps/search/?api=1&query=Hello%20Car%20Self%20Drive&query_place_id=ChIJ592JaF_9YjkReGNSkw-6JP8"
  },
  {
    "title": "Impact Travels",
    "subTitle": "इंपैक्ट ट्रैवल्स",
    "categoryName": "Car rental agency",
    "address": "4th Floor, Kuber House, 162 Kanchan Bagh, Ratlam Kothi, Indore, Madhya Pradesh 452001, India",
    "neighborhood": "Ratlam Kothi",
    "street": "4th Floor, Kuber House, 162 Kanchan Bagh",
    "city": "Indore",
    "postalCode": "452001",
    "state": "Madhya Pradesh",
    "countryCode": "IN",
    "website": "https://www.impacttravels.co.in/",
    "phone": "+919826750500",
    "phoneUnformatted": "+919826750500",
    "location": {
      "lat": 22.718326,
      "lng": 75.8829812
    },
    "totalScore": 5,
    "permanentlyClosed": false,
    "temporarilyClosed": false,
    "placeId": "ChIJIWRjlVPcLkIRRBigxhvU0is",
    "categories": [
      "Car rental agency"
    ],
    "reviewsCount": 10,
    "imagesCount": 8,
    "openingHours": [
      {
        "day": "Monday",
        "hours": "11 AM to 8 PM"
      },
      {
        "day": "Tuesday",
        "hours": "11 AM to 8 PM"
      },
      {
        "day": "Wednesday",
        "hours": "11 AM to 8 PM"
      },
      {
        "day": "Thursday",
        "hours": "11 AM to 8 PM"
      },
      {
        "day": "Friday",
        "hours": "11 AM to 8 PM"
      },
      {
        "day": "Saturday",
        "hours": "11 AM to 8 PM"
      },
      {
        "day": "Sunday",
        "hours": "Closed"
      }
    ],
    "imageUrl": "https://media.indianluxurycars.com/google/f9bc58887009cdfd1cb6ad9f2db8aff0ae9e4239fde1f6db567353738d0a0b0a.jpg",
    "url": "https://www.google.com/maps/search/?api=1&query=Impact%20Travels&query_place_id=ChIJIWRjlVPcLkIRRBigxhvU0is"
  },
  {
    "title": "Indore Cab Service®",
    "subTitle": "इंदौर कैब सर्विस(र)",
    "categoryName": "Car rental agency",
    "address": "64, Geeta Nagar, Dhar Rd, Indore, Madhya Pradesh 452002, India",
    "neighborhood": "Geeta Nagar",
    "street": "64, Geeta Nagar, Dhar Rd",
    "city": "Indore",
    "postalCode": "452002",
    "state": "Madhya Pradesh",
    "countryCode": "IN",
    "website": "https://www.indorecabservice.com/",
    "phone": "+916262026262",
    "phoneUnformatted": "+916262026262",
    "location": {
      "lat": 22.7068904,
      "lng": 75.8224961
    },
    "totalScore": 4.9,
    "permanentlyClosed": false,
    "temporarilyClosed": false,
    "placeId": "ChIJTaLH3Vj9YjkR4siBYUHnT4E",
    "categories": [
      "Car rental agency",
      "Airport shuttle service",
      "Car leasing service",
      "Taxi service",
      "Minibus taxi service",
      "Tour agency",
      "Tour operator",
      "Transportation service"
    ],
    "reviewsCount": 969,
    "imagesCount": 123,
    "openingHours": [],
    "imageUrl": "https://media.indianluxurycars.com/google/5d349bad1ab472eb44fe42b6568c23c55089a50a09984e82e9539487c68503b1.jpg",
    "url": "https://www.google.com/maps/search/?api=1&query=Indore%20Cab%20Service%C2%AE&query_place_id=ChIJTaLH3Vj9YjkR4siBYUHnT4E"
  },
  {
    "title": "Indore Car Hire",
    "subTitle": "इंदौर कार हीरे",
    "categoryName": "Car leasing service",
    "address": "Office no.105, First Floor, Shagun Tower, AB Rd, above Apna Sweets, PU 4, Near Vijay Nagar Square, Vijay Nagar, Ratna Lok Colony, Indore, Madhya Pradesh 452010, India",
    "neighborhood": "PU 4, Near Vijay Nagar Square, Vijay Nagar, Ratna Lok Colony",
    "street": "Office no.105, First Floor, Shagun Tower, AB Rd, above Apna Sweets",
    "city": "Indore",
    "postalCode": "452010",
    "state": "Madhya Pradesh",
    "countryCode": "IN",
    "website": "https://indorecarhire.co.in/",
    "phone": "+918770762453",
    "phoneUnformatted": "+918770762453",
    "location": {
      "lat": 22.7490233,
      "lng": 75.8953915
    },
    "totalScore": 4.9,
    "permanentlyClosed": false,
    "temporarilyClosed": false,
    "placeId": "ChIJ0S0j39vjYjkR8bN8v_-XPb4",
    "categories": [
      "Car leasing service",
      "Taxi service"
    ],
    "reviewsCount": 730,
    "imagesCount": 20,
    "openingHours": [],
    "imageUrl": "https://media.indianluxurycars.com/google/fad915bb5d86c01b06ca1cb8b617d4e1f64b2210b3d347899d0dec34b4b6f54b.jpg",
    "url": "https://www.google.com/maps/search/?api=1&query=Indore%20Car%20Hire&query_place_id=ChIJ0S0j39vjYjkR8bN8v_-XPb4"
  },
  {
    "title": "Indore Car Rental Tour and Travels",
    "subTitle": "इंदौर कार रेंटल टूर एंड ट्रैवल्स",
    "categoryName": "Car rental agency",
    "address": "119 Pc, near Motherhood hospital, Mechanic Nagar, Prakash Chandra Sethi Nagar, Indore, Madhya Pradesh 452011, India",
    "neighborhood": "Mechanic Nagar, Prakash Chandra Sethi Nagar",
    "street": "119 Pc, near Motherhood hospital",
    "city": "Indore",
    "postalCode": "452011",
    "state": "Madhya Pradesh",
    "countryCode": "IN",
    "website": "https://preview--indore-ride-co.lovable.app/",
    "phone": "+918827008466",
    "phoneUnformatted": "+918827008466",
    "location": {
      "lat": 22.7436183,
      "lng": 75.8908236
    },
    "totalScore": 4.8,
    "permanentlyClosed": false,
    "temporarilyClosed": false,
    "placeId": "ChIJwTdOWtPjYjkRAyhGNknRtLU",
    "categories": [
      "Car rental agency",
      "Car leasing service",
      "Taxi service",
      "Minibus taxi service",
      "Tour agency",
      "Tour operator",
      "Travel agency"
    ],
    "reviewsCount": 95,
    "imagesCount": 37,
    "openingHours": [],
    "imageUrl": "https://media.indianluxurycars.com/google/58427f283f9bf4a6b63d160d07e9b12523d137c7ded3b29282a7eeb601145296.jpg",
    "url": "https://www.google.com/maps/search/?api=1&query=Indore%20Car%20Rental%20Tour%20and%20Travels&query_place_id=ChIJwTdOWtPjYjkRAyhGNknRtLU"
  },
  {
    "title": "Indore car taxi",
    "subTitle": "इंदौर कार टैक्सी",
    "categoryName": "Car rental agency",
    "address": "Sector A, Sukhliya, Indore, Madhya Pradesh 452010, India",
    "neighborhood": "Sector A, Sukhliya",
    "city": "Indore",
    "postalCode": "452010",
    "state": "Madhya Pradesh",
    "countryCode": "IN",
    "website": "http://www.indorecartaxi.com/",
    "phone": "+919522506070",
    "phoneUnformatted": "+919522506070",
    "location": {
      "lat": 22.7564246,
      "lng": 75.8758702
    },
    "totalScore": 5,
    "permanentlyClosed": false,
    "temporarilyClosed": false,
    "placeId": "ChIJc0LtrNMDYzkRRhI-ZyjKOgU",
    "categories": [
      "Car rental agency",
      "Car leasing service",
      "Taxi service"
    ],
    "reviewsCount": 274,
    "imagesCount": 25,
    "openingHours": [],
    "imageUrl": "https://media.indianluxurycars.com/google/b8c34bfc25439db4602cad0664e56db17705e48553cd01a23fefde14d65f1e34.jpg",
    "url": "https://www.google.com/maps/search/?api=1&query=Indore%20car%20taxi&query_place_id=ChIJc0LtrNMDYzkRRhI-ZyjKOgU"
  },
  {
    "title": "Indore Deals On Wheels | Self drive car rentals in Indore | Local/Outstation Taxi Service",
    "subTitle": "इंदौर डील्स ऑन व्हील्स | सेल्फ ड्राइव कार रेंटल्स इन इंदौर | लोकल/आउटस्टेशन टैक्सी सर्विस",
    "categoryName": "Car rental agency",
    "address": "Khandelwal Nagar, IDA Scheme 98, Samvad Nagar, Indore, Madhya Pradesh 452001, India",
    "neighborhood": "Khandelwal Nagar, IDA Scheme 98, Samvad Nagar",
    "city": "Indore",
    "postalCode": "452001",
    "state": "Madhya Pradesh",
    "countryCode": "IN",
    "website": "https://instagram.com/indoredealsonwheels?igshid=NTc4MTIwNjQ2YQ==",
    "phone": "+919285003000",
    "phoneUnformatted": "+919285003000",
    "location": {
      "lat": 22.6979576,
      "lng": 75.8793982
    },
    "totalScore": 4.9,
    "permanentlyClosed": false,
    "temporarilyClosed": false,
    "placeId": "ChIJszLNdIH9YjkRpawl-6v-Vds",
    "categories": [
      "Car rental agency",
      "Car leasing service",
      "Taxi service"
    ],
    "reviewsCount": 470,
    "imagesCount": 439,
    "openingHours": [
      {
        "day": "Monday",
        "hours": "Open 24 hours"
      },
      {
        "day": "Tuesday",
        "hours": "Open 24 hours"
      },
      {
        "day": "Wednesday",
        "hours": "Open 24 hours"
      },
      {
        "day": "Thursday",
        "hours": "Open 24 hours"
      },
      {
        "day": "Friday",
        "hours": "Open 24 hours"
      },
      {
        "day": "Saturday",
        "hours": "Open 24 hours"
      },
      {
        "day": "Sunday",
        "hours": "Open 24 hours"
      }
    ],
    "imageUrl": "https://media.indianluxurycars.com/google/882a4f0b543907144cec8142e6b5e0cf9023f9053de828efe17a2b7f917bcbd1.jpg",
    "url": "https://www.google.com/maps/search/?api=1&query=Indore%20Deals%20On%20Wheels%20%7C%20Self%20drive%20car%20rentals%20in%20Indore%20%7C%20Local%2FOutstation%20Taxi%20Service&query_place_id=ChIJszLNdIH9YjkRpawl-6v-Vds"
  },
  {
    "title": "Indore Global and Cars",
    "subTitle": "इंदौर ग्लोबल एंड कार्स",
    "categoryName": "Used car dealer",
    "address": "8, Main Road, Sneh Vihar Colony, Transport Nagar, Indore, Madhya Pradesh 452014, India",
    "neighborhood": "Sneh Vihar Colony, Transport Nagar",
    "street": "8, Main Road",
    "city": "Indore",
    "postalCode": "452014",
    "state": "Madhya Pradesh",
    "countryCode": "IN",
    "phone": "+919039122999",
    "phoneUnformatted": "+919039122999",
    "location": {
      "lat": 22.6936322,
      "lng": 75.8582774
    },
    "totalScore": 5,
    "permanentlyClosed": false,
    "temporarilyClosed": false,
    "placeId": "ChIJfbXyRIj9YjkRMiesqEV6Hi4",
    "categories": [
      "Used car dealer"
    ],
    "reviewsCount": 59,
    "imagesCount": 21,
    "openingHours": [
      {
        "day": "Monday",
        "hours": "10:30 AM to 9 PM"
      },
      {
        "day": "Tuesday",
        "hours": "10:30 AM to 9 PM"
      },
      {
        "day": "Wednesday",
        "hours": "10:30 AM to 9 PM"
      },
      {
        "day": "Thursday",
        "hours": "10:30 AM to 9 PM"
      },
      {
        "day": "Friday",
        "hours": "10:30 AM to 9 PM"
      },
      {
        "day": "Saturday",
        "hours": "10:30 AM to 9 PM"
      },
      {
        "day": "Sunday",
        "hours": "10:30 AM to 9 PM"
      }
    ],
    "imageUrl": "https://media.indianluxurycars.com/google/cc97285b5c55797bbb6cff736d657d73ad311b42d6da411fffe6aa32202df436.jpg",
    "url": "https://www.google.com/maps/search/?api=1&query=Indore%20Global%20and%20Cars&query_place_id=ChIJfbXyRIj9YjkRMiesqEV6Hi4"
  },
  {
    "title": "INDORE SELF DRIVE & CAB SERVICE",
    "subTitle": "इंदौर सेल्फ ड्राइव & कैब सर्विस",
    "categoryName": "Car rental agency",
    "address": "314, Dhar Rd, Sirpur, Indore, Madhya Pradesh 452002, India",
    "neighborhood": "Sirpur",
    "street": "314, Dhar Rd",
    "city": "Indore",
    "postalCode": "452002",
    "state": "Madhya Pradesh",
    "countryCode": "IN",
    "website": "http://indorecitycabservice.com/",
    "phone": "+917223092192",
    "phoneUnformatted": "+917223092192",
    "location": {
      "lat": 22.7069672,
      "lng": 75.8230067
    },
    "totalScore": 4.9,
    "permanentlyClosed": false,
    "temporarilyClosed": false,
    "placeId": "ChIJ4cwm5on9YjkRCkWUC5XuPBU",
    "categories": [
      "Car rental agency"
    ],
    "reviewsCount": 101,
    "imagesCount": 44,
    "openingHours": [
      {
        "day": "Monday",
        "hours": "Open 24 hours"
      },
      {
        "day": "Tuesday",
        "hours": "Open 24 hours"
      },
      {
        "day": "Wednesday",
        "hours": "Open 24 hours"
      },
      {
        "day": "Thursday",
        "hours": "Open 24 hours"
      },
      {
        "day": "Friday",
        "hours": "Open 24 hours"
      },
      {
        "day": "Saturday",
        "hours": "Open 24 hours"
      },
      {
        "day": "Sunday",
        "hours": "Open 24 hours"
      }
    ],
    "imageUrl": "https://media.indianluxurycars.com/google/a7fc41461a14133999f9746d585f09e637b179db9155be19c6c694f8cd09e4ba.jpg",
    "url": "https://www.google.com/maps/search/?api=1&query=INDORE%20SELF%20DRIVE%20%26%20CAB%20SERVICE&query_place_id=ChIJ4cwm5on9YjkRCkWUC5XuPBU"
  },
  {
    "title": "Indore Taxi",
    "subTitle": "इंदौर टैक्सी",
    "categoryName": "Car rental agency",
    "address": "LG 3, ROYAL GLORY GF, 29-30, Sayaji Square, Opposite Sayaji Hotel, Scheme No 54, Indore, Madhya Pradesh 452010, India",
    "neighborhood": "Opposite Sayaji Hotel, Scheme No 54",
    "street": "LG 3, ROYAL GLORY GF, 29-30, Sayaji Square",
    "city": "Indore",
    "postalCode": "452010",
    "state": "Madhya Pradesh",
    "countryCode": "IN",
    "website": "https://www.indore.taxi/",
    "phone": "+919993534100",
    "phoneUnformatted": "+919993534100",
    "location": {
      "lat": 22.7522129,
      "lng": 75.8906067
    },
    "totalScore": 5,
    "permanentlyClosed": false,
    "temporarilyClosed": false,
    "placeId": "ChIJpxDnTXEDYzkROoGT4krkO_U",
    "categories": [
      "Car rental agency",
      "Car leasing service",
      "Minibus taxi service",
      "Taxi service",
      "Transportation service",
      "Travel agency"
    ],
    "reviewsCount": 2,
    "imagesCount": 31,
    "openingHours": [
      {
        "day": "Monday",
        "hours": "Open 24 hours"
      },
      {
        "day": "Tuesday",
        "hours": "Open 24 hours"
      },
      {
        "day": "Wednesday",
        "hours": "Open 24 hours"
      },
      {
        "day": "Thursday",
        "hours": "Open 24 hours"
      },
      {
        "day": "Friday",
        "hours": "Open 24 hours"
      },
      {
        "day": "Saturday",
        "hours": "Open 24 hours"
      },
      {
        "day": "Sunday",
        "hours": "Open 24 hours"
      }
    ],
    "imageUrl": "https://media.indianluxurycars.com/google/fb53c8cea74d8639d851c22775b2357ecb3ecade7b69940d6b8c4aaf831b68c5.jpg",
    "url": "https://www.google.com/maps/search/?api=1&query=Indore%20Taxi&query_place_id=ChIJpxDnTXEDYzkROoGT4krkO_U"
  },
  {
    "title": "Indore Wheels (Used Car Dealer)",
    "subTitle": "इंदौर पहियों",
    "categoryName": "Used car dealer",
    "address": "373, Vishnupuri Nx Colony, Vishnu Puri Colony, Indore, Madhya Pradesh 452014, India",
    "neighborhood": "Vishnupuri Nx Colony, Vishnu Puri Colony",
    "street": "373",
    "city": "Indore",
    "postalCode": "452014",
    "state": "Madhya Pradesh",
    "countryCode": "IN",
    "phone": "+919926020714",
    "phoneUnformatted": "+919926020714",
    "location": {
      "lat": 22.6902009,
      "lng": 75.8596614
    },
    "totalScore": 4.9,
    "permanentlyClosed": false,
    "temporarilyClosed": false,
    "placeId": "ChIJQcumJfr8YjkRt8Ia8SVVyPo",
    "categories": [
      "Used car dealer",
      "Car finance and loan company",
      "Consultant",
      "Driver's license office"
    ],
    "reviewsCount": 79,
    "imagesCount": 61,
    "openingHours": [
      {
        "day": "Monday",
        "hours": "10 AM to 8 PM"
      },
      {
        "day": "Tuesday",
        "hours": "10 AM to 8 PM"
      },
      {
        "day": "Wednesday",
        "hours": "10 AM to 8 PM"
      },
      {
        "day": "Thursday",
        "hours": "10 AM to 8 PM"
      },
      {
        "day": "Friday",
        "hours": "10 AM to 8 PM"
      },
      {
        "day": "Saturday",
        "hours": "10 AM to 8 PM"
      },
      {
        "day": "Sunday",
        "hours": "10 AM to 8 PM"
      }
    ],
    "imageUrl": "https://media.indianluxurycars.com/google/e6b60da0d3f68665fb165531392fd47549c005c092f206e89d5a05e8c7326ca2.jpg",
    "url": "https://www.google.com/maps/search/?api=1&query=Indore%20Wheels%20(Used%20Car%20Dealer)&query_place_id=ChIJQcumJfr8YjkRt8Ia8SVVyPo"
  },
  {
    "title": "Inspire Cars | Car Hire In Indore | Car Rental Service",
    "subTitle": "इन्स्पिरे कार्स | कार हीरे इन इंदौर | कार रेंटल सर्विस",
    "categoryName": "Car rental agency",
    "address": "121, Netaji Subhash Marg Chiman bagh, Chimanbagh square, Road, Jail Road, Madhya Pradesh 452006, India",
    "neighborhood": "Jail Road",
    "street": "121, Netaji Subhash Marg Chiman bagh, Chimanbagh square, Road",
    "city": "Indore",
    "postalCode": "452006",
    "state": "Madhya Pradesh",
    "countryCode": "IN",
    "website": "https://inspirecars.justdial.com/offer-29VQRE9NGKD123-12357rDG1",
    "phone": "+919340241188",
    "phoneUnformatted": "+919340241188",
    "location": {
      "lat": 22.7224883,
      "lng": 75.8513624
    },
    "totalScore": 4.4,
    "permanentlyClosed": false,
    "temporarilyClosed": false,
    "placeId": "ChIJj27RpGT9YjkRLTN9vBrTcKk",
    "categories": [
      "Car rental agency",
      "Car leasing service",
      "Travel agency"
    ],
    "reviewsCount": 19,
    "imagesCount": 11,
    "openingHours": [
      {
        "day": "Monday",
        "hours": "Open 24 hours"
      },
      {
        "day": "Tuesday",
        "hours": "Open 24 hours"
      },
      {
        "day": "Wednesday",
        "hours": "Open 24 hours"
      },
      {
        "day": "Thursday",
        "hours": "Open 24 hours"
      },
      {
        "day": "Friday",
        "hours": "Open 24 hours"
      },
      {
        "day": "Saturday",
        "hours": "Open 24 hours"
      },
      {
        "day": "Sunday",
        "hours": "Open 24 hours"
      }
    ],
    "imageUrl": "https://media.indianluxurycars.com/google/4b75ecd6dc0d7dcf0934ce2e6018b3661cc4ff29fb80abd1e6a2fd735eae5227.jpg",
    "url": "https://www.google.com/maps/search/?api=1&query=Inspire%20Cars%20%7C%20Car%20Hire%20In%20Indore%20%7C%20Car%20Rental%20Service&query_place_id=ChIJj27RpGT9YjkRLTN9vBrTcKk"
  },
  {
    "title": "Jay maa chamunda travels",
    "subTitle": "Maa chamunda car rental sarvice ujjain Indore Madhya Pradesh",
    "categoryName": "Car rental agency",
    "address": "Risi Nagar, Tilak Path, Indore, Madhya Pradesh 452007, India",
    "neighborhood": "Risi Nagar, Tilak Path",
    "city": "Indore",
    "postalCode": "452007",
    "state": "Madhya Pradesh",
    "countryCode": "IN",
    "location": {
      "lat": 22.7195687,
      "lng": 75.8577258
    },
    "totalScore": 5,
    "permanentlyClosed": false,
    "temporarilyClosed": false,
    "placeId": "ChIJY2RLJLr9YjkRYkNADcfN4-Q",
    "categories": [
      "Car rental agency",
      "Car leasing service",
      "Travel agency"
    ],
    "reviewsCount": 24,
    "imagesCount": 108,
    "openingHours": [
      {
        "day": "Monday",
        "hours": "Open 24 hours"
      },
      {
        "day": "Tuesday",
        "hours": "Open 24 hours"
      },
      {
        "day": "Wednesday",
        "hours": "Open 24 hours"
      },
      {
        "day": "Thursday",
        "hours": "Open 24 hours"
      },
      {
        "day": "Friday",
        "hours": "Open 24 hours"
      },
      {
        "day": "Saturday",
        "hours": "Open 24 hours"
      },
      {
        "day": "Sunday",
        "hours": "Open 24 hours"
      }
    ],
    "imageUrl": "https://media.indianluxurycars.com/google/46636e57613eb4e1d8fa27a1a445c3546bd6c4c43bc8e33d0a0e302fcf89eaa8.jpg",
    "url": "https://www.google.com/maps/search/?api=1&query=Jay%20maa%20chamunda%20travels&query_place_id=ChIJY2RLJLr9YjkRYkNADcfN4-Q"
  },
  {
    "title": "Jay Ranjeet - Tours & Travels",
    "subTitle": "जय रंजीत - टूर्स & ट्रैवल्स",
    "categoryName": "Car rental agency",
    "address": "960-A, Sector D, Sudama Nagar, Indore, Madhya Pradesh 452009, India",
    "neighborhood": "Sector D, Sudama Nagar",
    "street": "960-A",
    "city": "Indore",
    "postalCode": "452009",
    "state": "Madhya Pradesh",
    "countryCode": "IN",
    "location": {
      "lat": 22.6944068,
      "lng": 75.8300449
    },
    "totalScore": 5,
    "permanentlyClosed": false,
    "temporarilyClosed": false,
    "placeId": "ChIJ8Q4XNvP9YjkRreLGAjswV8s",
    "categories": [
      "Car rental agency",
      "Tour agency",
      "Chauffeur service"
    ],
    "reviewsCount": 8,
    "imagesCount": 1,
    "openingHours": [
      {
        "day": "Monday",
        "hours": "10 AM to 10 PM"
      },
      {
        "day": "Tuesday",
        "hours": "10 AM to 10 PM"
      },
      {
        "day": "Wednesday",
        "hours": "10 AM to 10 PM"
      },
      {
        "day": "Thursday",
        "hours": "10 AM to 10 PM"
      },
      {
        "day": "Friday",
        "hours": "10 AM to 10 PM"
      },
      {
        "day": "Saturday",
        "hours": "10 AM to 10 PM"
      },
      {
        "day": "Sunday",
        "hours": "10 AM to 10 PM"
      }
    ],
    "imageUrl": "https://media.indianluxurycars.com/google/442e5903ea6be246a8fa24223d055b598371750ba567f468764e500aadd1a127.jpg",
    "url": "https://www.google.com/maps/search/?api=1&query=Jay%20Ranjeet%20-%20Tours%20%26%20Travels&query_place_id=ChIJ8Q4XNvP9YjkRreLGAjswV8s"
  },
  {
    "title": "Jay Shree Shyam Tour And Travels",
    "subTitle": "जय श्री श्याम टूर एंड ट्रैवल्स",
    "categoryName": "Car rental agency",
    "address": "129, behind Mount Carmel School, Radhika Society, Shyam Nagar, Sukhliya, Indore, Madhya Pradesh 452010, India",
    "neighborhood": "Radhika Society, Shyam Nagar, Sukhliya",
    "street": "129, behind Mount Carmel School",
    "city": "Indore",
    "postalCode": "452010",
    "state": "Madhya Pradesh",
    "countryCode": "IN",
    "website": "https://id.vyaparify.com/jai-shree-shyamtourandtravels",
    "phone": "+918827112222",
    "phoneUnformatted": "+918827112222",
    "location": {
      "lat": 22.7562926,
      "lng": 75.8661819
    },
    "totalScore": 4.8,
    "permanentlyClosed": false,
    "temporarilyClosed": false,
    "placeId": "ChIJJ1cmbx4DYzkRS-aOOv6yGmA",
    "categories": [
      "Car rental agency",
      "Car leasing service",
      "Travel agency",
      "Car sharing location",
      "Tour agency"
    ],
    "reviewsCount": 190,
    "imagesCount": 112,
    "openingHours": [
      {
        "day": "Monday",
        "hours": "Open 24 hours"
      },
      {
        "day": "Tuesday",
        "hours": "Open 24 hours"
      },
      {
        "day": "Wednesday",
        "hours": "Open 24 hours"
      },
      {
        "day": "Thursday",
        "hours": "Open 24 hours"
      },
      {
        "day": "Friday",
        "hours": "Open 24 hours"
      },
      {
        "day": "Saturday",
        "hours": "9 AM to 9 PM"
      },
      {
        "day": "Sunday",
        "hours": "Open 24 hours"
      }
    ],
    "imageUrl": "https://media.indianluxurycars.com/google/cee148926c0580ff0c5cb4f0dc9c49759aba2f05ce73d953cfe9d8fd2fedd0f7.jpg",
    "url": "https://www.google.com/maps/search/?api=1&query=Jay%20Shree%20Shyam%20Tour%20And%20Travels&query_place_id=ChIJJ1cmbx4DYzkRS-aOOv6yGmA"
  },
  {
    "title": "Landmark Honda - Indore",
    "subTitle": "लैंडमार्क होंडा - इंदौर",
    "categoryName": "Car dealer",
    "address": "10, AB Rd, near Medisquare Hospital, Vishnu Puri Colony, Indore, Madhya Pradesh 452014, India",
    "neighborhood": "Vishnu Puri Colony",
    "street": "10, AB Rd, near Medisquare Hospital",
    "city": "Indore",
    "postalCode": "452014",
    "state": "Madhya Pradesh",
    "countryCode": "IN",
    "website": "https://dealer.hondacarindia.com/landmark-honda-indore-landmark-motors-car-dealer-a-b-road-indore-67253/Home",
    "phone": "+918657588928",
    "phoneUnformatted": "+918657588928",
    "location": {
      "lat": 22.690895,
      "lng": 75.8654645
    },
    "totalScore": 4.6,
    "permanentlyClosed": false,
    "temporarilyClosed": false,
    "placeId": "ChIJyxI01kf9YjkRPN7bZFugX_0",
    "categories": [
      "Car dealer",
      "Auto dent removal service",
      "Auto repair shop",
      "Car accessories store",
      "Honda dealer"
    ],
    "reviewsCount": 852,
    "imagesCount": 246,
    "openingHours": [
      {
        "day": "Monday",
        "hours": "9:30 AM to 7:30 PM"
      },
      {
        "day": "Tuesday",
        "hours": "9:30 AM to 7:30 PM"
      },
      {
        "day": "Wednesday",
        "hours": "9:30 AM to 7:30 PM"
      },
      {
        "day": "Thursday",
        "hours": "9:30 AM to 7:30 PM"
      },
      {
        "day": "Friday",
        "hours": "9:30 AM to 7:30 PM"
      },
      {
        "day": "Saturday",
        "hours": "9:30 AM to 7:30 PM"
      },
      {
        "day": "Sunday",
        "hours": "9:30 AM to 7:30 PM"
      }
    ],
    "imageUrl": "https://media.indianluxurycars.com/google/4ac429806ad085537c85e6157417ebe87cf9b2156bd0aa931fde591ab29c5aa6.jpg",
    "url": "https://www.google.com/maps/search/?api=1&query=Landmark%20Honda%20-%20Indore&query_place_id=ChIJyxI01kf9YjkRPN7bZFugX_0"
  },
  {
    "title": "Luxury Car Deals",
    "subTitle": "लक्जरी कार डील्स",
    "categoryName": "Used car dealer",
    "address": "Plot No. 4, Scheme No. 53 Apollo Premiere Service Road, Vijay Nagar Square, Indore, Madhya Pradesh 452010, India",
    "neighborhood": "Ratna Lok Colony",
    "street": "Plot No. 4, Scheme No. 53 Apollo Premiere Service Road, Vijay Nagar Square",
    "city": "Indore",
    "postalCode": "452010",
    "state": "Madhya Pradesh",
    "countryCode": "IN",
    "phone": "+919826039124",
    "phoneUnformatted": "+919826039124",
    "location": {
      "lat": 22.7497708,
      "lng": 75.8994687
    },
    "totalScore": 4.4,
    "permanentlyClosed": false,
    "temporarilyClosed": false,
    "placeId": "ChIJFahnA2T9YjkRW9BlSWKzTLA",
    "categories": [
      "Used car dealer"
    ],
    "reviewsCount": 14,
    "imagesCount": 75,
    "openingHours": [
      {
        "day": "Monday",
        "hours": "Open 24 hours"
      },
      {
        "day": "Tuesday",
        "hours": "Open 24 hours"
      },
      {
        "day": "Wednesday",
        "hours": "Open 24 hours"
      },
      {
        "day": "Thursday",
        "hours": "Open 24 hours"
      },
      {
        "day": "Friday",
        "hours": "Open 24 hours"
      },
      {
        "day": "Saturday",
        "hours": "Open 24 hours"
      },
      {
        "day": "Sunday",
        "hours": "Open 24 hours"
      }
    ],
    "imageUrl": "https://media.indianluxurycars.com/google/c593a7f49b3561d338bf242cda04a84eaecdd38f96c94d160af19ddd6680f712.jpg",
    "url": "https://www.google.com/maps/search/?api=1&query=Luxury%20Car%20Deals&query_place_id=ChIJFahnA2T9YjkRW9BlSWKzTLA"
  },
  {
    "title": "Luxury car on rent|Luxury taxi service indore|Premium car rental in indore|car hire in indore |Selfdrive car rental in indore",
    "subTitle": "लक्जरी कार ऑन रेंट|लग्जरी टैक्सी सर्विस इंदौर|प्रीमीयम कार रेंटल इन इंदौर|कार हीरे इन इंदौर |सेल्फड्राइव कार रेंटल इन इंदौर",
    "categoryName": "Car leasing service",
    "address": "swami Vivekananda, 79, telephone nagar square, Bicholi Mardana, Indore, Madhya Pradesh 452018, India",
    "neighborhood": "Bicholi Mardana",
    "street": "swami Vivekananda, 79, telephone nagar square",
    "city": "Indore",
    "postalCode": "452018",
    "state": "Madhya Pradesh",
    "countryCode": "IN",
    "phone": "+917987053590",
    "phoneUnformatted": "+917987053590",
    "location": {
      "lat": 22.7206918,
      "lng": 75.9035613
    },
    "totalScore": 4.9,
    "permanentlyClosed": false,
    "temporarilyClosed": false,
    "placeId": "ChIJzwKJmGrjYjkRcK6wqHReuaU",
    "categories": [
      "Car leasing service"
    ],
    "reviewsCount": 9,
    "imagesCount": 168,
    "openingHours": [
      {
        "day": "Monday",
        "hours": "Open 24 hours"
      },
      {
        "day": "Tuesday",
        "hours": "Open 24 hours"
      },
      {
        "day": "Wednesday",
        "hours": "Open 24 hours"
      },
      {
        "day": "Thursday",
        "hours": "Open 24 hours"
      },
      {
        "day": "Friday",
        "hours": "Open 24 hours"
      },
      {
        "day": "Saturday",
        "hours": "Open 24 hours"
      },
      {
        "day": "Sunday",
        "hours": "Open 24 hours"
      }
    ],
    "imageUrl": "https://media.indianluxurycars.com/google/d56883579c1627fe15a084be4fafcb0d6e12f4cc34448eda05ada44cc742b077.png",
    "url": "https://www.google.com/maps/search/?api=1&query=Luxury%20car%20on%20rent%7CLuxury%20taxi%20service%20indore%7CPremium%20car%20rental%20in%20indore%7Ccar%20hire%20in%20indore%20%7CSelfdrive%20car%20rental%20in%20indore&query_place_id=ChIJzwKJmGrjYjkRcK6wqHReuaU"
  },
  {
    "title": "M B Autodeal",
    "subTitle": "एं बि ऑटोडील",
    "categoryName": "Used car dealer",
    "address": "37, Pipliya Rao Ring Rd, near HP PETROL PUMP, Sarvanand Nagar, Pipliya Rao, Indore, Madhya Pradesh 452001, India",
    "neighborhood": "Sarvanand Nagar, Pipliya Rao",
    "street": "37, Pipliya Rao Ring Rd, near HP PETROL PUMP",
    "city": "Indore",
    "postalCode": "452001",
    "state": "Madhya Pradesh",
    "countryCode": "IN",
    "phone": "+919826414000",
    "phoneUnformatted": "+919826414000",
    "location": {
      "lat": 22.6820337,
      "lng": 75.8592963
    },
    "totalScore": 4.8,
    "permanentlyClosed": false,
    "temporarilyClosed": false,
    "placeId": "ChIJe_p5HOL9YjkRdu7EeLemRNk",
    "categories": [
      "Used car dealer"
    ],
    "reviewsCount": 51,
    "imagesCount": 82,
    "openingHours": [
      {
        "day": "Monday",
        "hours": "10 AM to 8 PM"
      },
      {
        "day": "Tuesday",
        "hours": "10 AM to 8 PM"
      },
      {
        "day": "Wednesday",
        "hours": "10 AM to 8 PM"
      },
      {
        "day": "Thursday",
        "hours": "10 AM to 8 PM"
      },
      {
        "day": "Friday",
        "hours": "10 AM to 8 PM"
      },
      {
        "day": "Saturday",
        "hours": "10 AM to 8 PM"
      },
      {
        "day": "Sunday",
        "hours": "10 AM to 8 PM"
      }
    ],
    "imageUrl": "https://media.indianluxurycars.com/google/22e2d313d10e8084f4c8e6917789c218b7a2742a84a5f4a0a34d4575fb3556ee.jpg",
    "url": "https://www.google.com/maps/search/?api=1&query=M%20B%20Autodeal&query_place_id=ChIJe_p5HOL9YjkRdu7EeLemRNk"
  },
  {
    "title": "Maa luxury cars world",
    "subTitle": "माँ लक्जरी कार्स वर्ल्ड",
    "categoryName": "Car dealer",
    "address": "Chandra palace, Saket Nagar, Indore, Madhya Pradesh 452018, India",
    "neighborhood": "Shree Nagar Ext, Saket Nagar",
    "street": "Chandra palace",
    "city": "Indore",
    "postalCode": "452018",
    "state": "Madhya Pradesh",
    "countryCode": "IN",
    "website": "https://maa-luxury-cars.ueniweb.com/?utm_campaign=gmb",
    "phone": "+919171115723",
    "phoneUnformatted": "+919171115723",
    "location": {
      "lat": 22.7293732,
      "lng": 75.8973067
    },
    "totalScore": 4.5,
    "permanentlyClosed": false,
    "temporarilyClosed": false,
    "placeId": "ChIJ38csTxn9YjkRRhX43ec_TW4",
    "categories": [
      "Car dealer"
    ],
    "reviewsCount": 16,
    "imagesCount": 48,
    "openingHours": [
      {
        "day": "Monday",
        "hours": "Open 24 hours"
      },
      {
        "day": "Tuesday",
        "hours": "Open 24 hours"
      },
      {
        "day": "Wednesday",
        "hours": "Open 24 hours"
      },
      {
        "day": "Thursday",
        "hours": "Open 24 hours"
      },
      {
        "day": "Friday",
        "hours": "Open 24 hours"
      },
      {
        "day": "Saturday",
        "hours": "Open 24 hours"
      },
      {
        "day": "Sunday",
        "hours": "Open 24 hours"
      }
    ],
    "imageUrl": "https://media.indianluxurycars.com/google/7586ab95459b5e2f33439a2eb8a0a53f860ef8b004ae5997ad99f966553e7fae.jpg",
    "url": "https://www.google.com/maps/search/?api=1&query=Maa%20luxury%20cars%20world&query_place_id=ChIJ38csTxn9YjkRRhX43ec_TW4"
  },
  {
    "title": "Mahi Car Rental Services",
    "subTitle": "माही कार रेंटल सर्विसेस",
    "categoryName": "Car rental agency",
    "address": "Tulsi Complex, Alma HQ Rd, Pardesipura, Indore, Madhya Pradesh 452003, India",
    "neighborhood": "Pardesipura",
    "street": "Tulsi Complex, Alma HQ Rd",
    "city": "Indore",
    "postalCode": "452003",
    "state": "Madhya Pradesh",
    "countryCode": "IN",
    "website": "https://www.facebook.com/Mahicarrentalservices/",
    "phone": "+918770200147",
    "phoneUnformatted": "+918770200147",
    "location": {
      "lat": 22.7465909,
      "lng": 75.8721176
    },
    "totalScore": 5,
    "permanentlyClosed": false,
    "temporarilyClosed": false,
    "placeId": "ChIJ9dxAh-L9YjkR0d9KRqZR0zw",
    "categories": [
      "Car rental agency"
    ],
    "reviewsCount": 5,
    "imagesCount": 18,
    "openingHours": [
      {
        "day": "Monday",
        "hours": "Open 24 hours"
      },
      {
        "day": "Tuesday",
        "hours": "Open 24 hours"
      },
      {
        "day": "Wednesday",
        "hours": "Open 24 hours"
      },
      {
        "day": "Thursday",
        "hours": "Open 24 hours"
      },
      {
        "day": "Friday",
        "hours": "Open 24 hours"
      },
      {
        "day": "Saturday",
        "hours": "Open 24 hours"
      },
      {
        "day": "Sunday",
        "hours": "Open 24 hours"
      }
    ],
    "imageUrl": "https://media.indianluxurycars.com/google/8ee86d24929428c27e55a7443a983970e28c28edb21694dbb6c631491f8902fa.jpg",
    "url": "https://www.google.com/maps/search/?api=1&query=Mahi%20Car%20Rental%20Services&query_place_id=ChIJ9dxAh-L9YjkR0d9KRqZR0zw"
  },
  {
    "title": "Mangalmurti Travels INDORE",
    "subTitle": "मंगलमूर्ति ट्रैवल्स इंदौर",
    "categoryName": "Car rental agency",
    "address": "SCHEME NO 54, Vijay Nagar, Indore, Madhya Pradesh 452010, India",
    "neighborhood": "Vijay Nagar",
    "street": "SCHEME NO 54",
    "city": "Indore",
    "postalCode": "452010",
    "state": "Madhya Pradesh",
    "countryCode": "IN",
    "phone": "+919926334070",
    "phoneUnformatted": "+919926334070",
    "location": {
      "lat": 22.7532848,
      "lng": 75.8936962
    },
    "totalScore": 4.8,
    "permanentlyClosed": false,
    "temporarilyClosed": false,
    "placeId": "ChIJbe-pb-4DYzkRx9PAejyuSYk",
    "categories": [
      "Car rental agency",
      "Taxi service"
    ],
    "reviewsCount": 87,
    "imagesCount": 66,
    "openingHours": [
      {
        "day": "Monday",
        "hours": "Open 24 hours"
      },
      {
        "day": "Tuesday",
        "hours": "Open 24 hours"
      },
      {
        "day": "Wednesday",
        "hours": "Open 24 hours"
      },
      {
        "day": "Thursday",
        "hours": "Open 24 hours"
      },
      {
        "day": "Friday",
        "hours": "Open 24 hours"
      },
      {
        "day": "Saturday",
        "hours": "Open 24 hours"
      },
      {
        "day": "Sunday",
        "hours": "Open 24 hours"
      }
    ],
    "imageUrl": "https://media.indianluxurycars.com/google/bc53376383ba66c6069b8e840f7a2d04e5622aedaeed55969b2e4cc9650b786f.jpg",
    "url": "https://www.google.com/maps/search/?api=1&query=Mangalmurti%20Travels%20INDORE&query_place_id=ChIJbe-pb-4DYzkRx9PAejyuSYk"
  },
  {
    "title": "MBA TOURWALA",
    "subTitle": "एमबीए टूरवाला",
    "categoryName": "Car leasing service",
    "address": "12, Govind Nagar Colony, Nanda Nagar, Banganga, Indore, Madhya Pradesh 452015, India",
    "neighborhood": "Nanda Nagar, Banganga",
    "street": "12, Govind Nagar Colony",
    "city": "Indore",
    "postalCode": "452015",
    "state": "Madhya Pradesh",
    "countryCode": "IN",
    "website": "https://www.mbatourwala.com/",
    "phone": "+919131960020",
    "phoneUnformatted": "+919131960020",
    "location": {
      "lat": 22.7427873,
      "lng": 75.8482943
    },
    "totalScore": 5,
    "permanentlyClosed": false,
    "temporarilyClosed": false,
    "placeId": "ChIJAQAAAIH9YjkR5wDxhBKHeMk",
    "categories": [
      "Car leasing service",
      "Car rental agency",
      "Event management company",
      "Taxi service",
      "Tour agency"
    ],
    "reviewsCount": 56,
    "imagesCount": 31,
    "openingHours": [
      {
        "day": "Monday",
        "hours": "7 AM to 12 AM"
      },
      {
        "day": "Tuesday",
        "hours": "7 AM to 12 AM"
      },
      {
        "day": "Wednesday",
        "hours": "7 AM to 12 AM"
      },
      {
        "day": "Thursday",
        "hours": "7 AM to 12 AM"
      },
      {
        "day": "Friday",
        "hours": "7 AM to 12 AM"
      },
      {
        "day": "Saturday",
        "hours": "7 AM to 12 AM"
      },
      {
        "day": "Sunday",
        "hours": "7 AM to 12 AM"
      }
    ],
    "imageUrl": "https://media.indianluxurycars.com/google/53c8ba8d694d88d2ef1516b5043a61ef0a2a083be7997824ddedaff158e180ca.jpg",
    "url": "https://www.google.com/maps/search/?api=1&query=MBA%20TOURWALA&query_place_id=ChIJAQAAAIH9YjkR5wDxhBKHeMk"
  },
  {
    "title": "MG Motor Aeromark Car Showroom",
    "subTitle": "एमजी मोटर इंडिया (इंदौर)",
    "categoryName": "MG dealer",
    "address": "1/2, AB Rd, Shree Nagar Main Colony, Anoop Nagar, Indore, Madhya Pradesh 452018, India",
    "neighborhood": "Shree Nagar Main Colony, Anoop Nagar",
    "street": "1/2, AB Rd",
    "city": "Indore",
    "postalCode": "452018",
    "state": "Madhya Pradesh",
    "countryCode": "IN",
    "website": "https://dealers.mgmotor.co.in/mg-motor-aeromark-car-showroom-car-dealer-ab-road-indore-371985/Home",
    "phone": "+919285165555",
    "phoneUnformatted": "+919285165555",
    "location": {
      "lat": 22.7305736,
      "lng": 75.8895496
    },
    "totalScore": 4.6,
    "permanentlyClosed": false,
    "temporarilyClosed": false,
    "placeId": "ChIJocdVvmkDYzkRcqmzFIlDeZw",
    "categories": [
      "MG dealer",
      "Car dealer",
      "Motor vehicle dealer"
    ],
    "reviewsCount": 766,
    "imagesCount": 238,
    "openingHours": [
      {
        "day": "Monday",
        "hours": "10 AM to 8 PM"
      },
      {
        "day": "Tuesday",
        "hours": "10 AM to 8 PM"
      },
      {
        "day": "Wednesday",
        "hours": "10 AM to 8 PM"
      },
      {
        "day": "Thursday",
        "hours": "10 AM to 8 PM"
      },
      {
        "day": "Friday",
        "hours": "10 AM to 8 PM"
      },
      {
        "day": "Saturday",
        "hours": "10 AM to 8 PM"
      },
      {
        "day": "Sunday",
        "hours": "10 AM to 12 AM"
      }
    ],
    "imageUrl": "https://media.indianluxurycars.com/google/8fe47cc30e2bf3dff60e9fde8053c212d14147272b85c276a333c88dbe0e0157.jpg",
    "url": "https://www.google.com/maps/search/?api=1&query=MG%20Motor%20Aeromark%20Car%20Showroom&query_place_id=ChIJocdVvmkDYzkRcqmzFIlDeZw"
  },
  {
    "title": "Nahar Travels | Taxi on rent | Traveller on rent",
    "subTitle": "नहर ट्रैवल्स | टैक्सी ऑन रेंट | ट्रैवलर ऑन रेंट",
    "categoryName": "Car rental agency",
    "address": "Kalyan Vishranti Graha, 9-B, Jhabua Tower Rd, near Indore Railway Station, Flim Colony, Line, Chhoti Gwaltoli, Indore, Madhya Pradesh 452001, India",
    "neighborhood": "Flim Colony, Line, Chhoti Gwaltoli",
    "street": "Kalyan Vishranti Graha, 9-B, Jhabua Tower Rd, near Indore Railway Station",
    "city": "Indore",
    "postalCode": "452001",
    "state": "Madhya Pradesh",
    "countryCode": "IN",
    "website": "https://www.nahartravels.in/",
    "phone": "+919109393330",
    "phoneUnformatted": "+919109393330",
    "location": {
      "lat": 22.7177954,
      "lng": 75.8700553
    },
    "totalScore": 4.9,
    "permanentlyClosed": false,
    "temporarilyClosed": false,
    "placeId": "ChIJURphTxH9YjkRkN4Ah3lWGzM",
    "categories": [
      "Car rental agency",
      "Airport shuttle service",
      "Bus tour agency",
      "Car leasing service",
      "Sightseeing tour agency",
      "Taxi service",
      "Tour operator",
      "Van rental agency"
    ],
    "reviewsCount": 339,
    "imagesCount": 207,
    "openingHours": [
      {
        "day": "Monday",
        "hours": "Open 24 hours"
      },
      {
        "day": "Tuesday",
        "hours": "Open 24 hours"
      },
      {
        "day": "Wednesday",
        "hours": "Open 24 hours"
      },
      {
        "day": "Thursday",
        "hours": "Open 24 hours"
      },
      {
        "day": "Friday",
        "hours": "Open 24 hours"
      },
      {
        "day": "Saturday",
        "hours": "Open 24 hours"
      },
      {
        "day": "Sunday",
        "hours": "Open 24 hours"
      }
    ],
    "imageUrl": "https://media.indianluxurycars.com/google/a798aba6e779469335d541ce410d1bc702139328d2d6fb901c3678a6574b0206.jpg",
    "url": "https://www.google.com/maps/search/?api=1&query=Nahar%20Travels%20%7C%20Taxi%20on%20rent%20%7C%20Traveller%20on%20rent&query_place_id=ChIJURphTxH9YjkRkN4Ah3lWGzM"
  },
  {
    "title": "New Quality Auto deal",
    "subTitle": "न्यू क्वालिटी ऑटो डील",
    "categoryName": "Used car dealer",
    "address": "30D, AB Rd, HIG Colony, Indore, Madhya Pradesh 452011, India",
    "neighborhood": "HIG Colony",
    "street": "30D, AB Rd",
    "city": "Indore",
    "postalCode": "452011",
    "state": "Madhya Pradesh",
    "countryCode": "IN",
    "phone": "+918982371190",
    "phoneUnformatted": "+918982371190",
    "location": {
      "lat": 22.73876,
      "lng": 75.891494
    },
    "totalScore": 4.9,
    "permanentlyClosed": false,
    "temporarilyClosed": false,
    "placeId": "ChIJARJqHhP9YjkRL78CCLk62f4",
    "categories": [
      "Used car dealer",
      "Auto painting",
      "Auto repair shop",
      "Parking garage",
      "Second hand store"
    ],
    "reviewsCount": 22,
    "imagesCount": 21,
    "openingHours": [
      {
        "day": "Monday",
        "hours": "10 AM to 8 PM"
      },
      {
        "day": "Tuesday",
        "hours": "10 AM to 8 PM"
      },
      {
        "day": "Wednesday",
        "hours": "10 AM to 8 PM"
      },
      {
        "day": "Thursday",
        "hours": "10 AM to 8 PM"
      },
      {
        "day": "Friday",
        "hours": "10 AM to 8 PM"
      },
      {
        "day": "Saturday",
        "hours": "10 AM to 8 PM"
      },
      {
        "day": "Sunday",
        "hours": "Closed"
      }
    ],
    "imageUrl": "https://media.indianluxurycars.com/google/874d845b6a6859d4fedef4c8982ae02a8636b9feb1e41f3971522328ca8506af.jpg",
    "url": "https://www.google.com/maps/search/?api=1&query=New%20Quality%20Auto%20deal&query_place_id=ChIJARJqHhP9YjkRL78CCLk62f4"
  },
  {
    "title": "NEXA (Patel Motors, Indore, Ring Road)",
    "subTitle": "नेक्सा (पटेल मोटर्स, इंदौर, रिंग रोड)",
    "categoryName": "Car dealer",
    "address": "18.A velocity, Ring Rd, Scheme 94, Indore, Madhya Pradesh 452016, India",
    "neighborhood": "Scheme 94",
    "street": "18.A velocity, Ring Rd",
    "city": "Indore",
    "postalCode": "452016",
    "state": "Madhya Pradesh",
    "countryCode": "IN",
    "website": "https://www.nexaofringroadindore.com/",
    "phone": "+918062511963",
    "phoneUnformatted": "+918062511963",
    "location": {
      "lat": 22.7450492,
      "lng": 75.9034051
    },
    "totalScore": 4.8,
    "permanentlyClosed": false,
    "temporarilyClosed": false,
    "placeId": "ChIJr_lCeK3iYjkRlI_zR8-R-vA",
    "categories": [
      "Car dealer"
    ],
    "reviewsCount": 3005,
    "imagesCount": 806,
    "openingHours": [
      {
        "day": "Monday",
        "hours": "10 AM to 9 PM"
      },
      {
        "day": "Tuesday",
        "hours": "10 AM to 9 PM"
      },
      {
        "day": "Wednesday",
        "hours": "10 AM to 9 PM"
      },
      {
        "day": "Thursday",
        "hours": "10 AM to 9 PM"
      },
      {
        "day": "Friday",
        "hours": "9 AM to 9 PM"
      },
      {
        "day": "Saturday",
        "hours": "10 AM to 9 PM"
      },
      {
        "day": "Sunday",
        "hours": "10 AM to 9 PM"
      }
    ],
    "imageUrl": "https://media.indianluxurycars.com/google/ee77e3755c73607f52575c6d364838e9a49437bc9359ab3f1ea186c0899c0746.jpg",
    "url": "https://www.google.com/maps/search/?api=1&query=NEXA%20(Patel%20Motors%2C%20Indore%2C%20Ring%20Road)&query_place_id=ChIJr_lCeK3iYjkRlI_zR8-R-vA"
  },
  {
    "title": "NEXA (Rukmani Motors, Indore, Bhanwarkuan)",
    "subTitle": "नेक्सा (रुक्मणि मोटर्स, इंदौर, भंवरकुआं)",
    "categoryName": "Car dealer",
    "address": "Building 1, Fortune Aura, Bhawarkua Main Rd, Gurmeet Nagar, Transport Nagar, Indore, Madhya Pradesh 452014, India",
    "neighborhood": "Gurmeet Nagar, Transport Nagar",
    "street": "Building 1, Fortune Aura, Bhawarkua Main Rd",
    "city": "Indore",
    "postalCode": "452014",
    "state": "Madhya Pradesh",
    "countryCode": "IN",
    "website": "https://www.nexaofbhanwarkuan.com/?utm_source=gmb&utm_medium=google&utm_campaign=seo-local",
    "phone": "+918062217184",
    "phoneUnformatted": "+918062217184",
    "location": {
      "lat": 22.6950895,
      "lng": 75.866048
    },
    "totalScore": 4.9,
    "permanentlyClosed": false,
    "temporarilyClosed": false,
    "placeId": "ChIJ5V-tWOP8YjkRajATgbtzFHk",
    "categories": [
      "Car dealer"
    ],
    "reviewsCount": 4509,
    "imagesCount": 462,
    "openingHours": [
      {
        "day": "Monday",
        "hours": "9:30 AM to 8 PM"
      },
      {
        "day": "Tuesday",
        "hours": "9:30 AM to 8 PM"
      },
      {
        "day": "Wednesday",
        "hours": "9:30 AM to 8 PM"
      },
      {
        "day": "Thursday",
        "hours": "9:30 AM to 8 PM"
      },
      {
        "day": "Friday",
        "hours": "9:30 AM to 8 PM"
      },
      {
        "day": "Saturday",
        "hours": "9:30 AM to 8 PM"
      },
      {
        "day": "Sunday",
        "hours": "9:30 AM to 8 PM"
      }
    ],
    "imageUrl": "https://media.indianluxurycars.com/google/cc637f10639c2519acdf6589c7b51eb38178d4fabb23488ab279d0ac5851d9cb.png",
    "url": "https://www.google.com/maps/search/?api=1&query=NEXA%20(Rukmani%20Motors%2C%20Indore%2C%20Bhanwarkuan)&query_place_id=ChIJ5V-tWOP8YjkRajATgbtzFHk"
  },
  {
    "title": "Omkar tours and travels",
    "subTitle": "ओमकार टूर्स एंड ट्रैवल्स",
    "categoryName": "Car rental agency",
    "address": "236 B, opposite sahu dharamshala, Nanda Nagar, Kamala Nehru Nagar, Indore, Madhya Pradesh 452006, India",
    "neighborhood": "Nanda Nagar, Kamala Nehru Nagar",
    "street": "236 B, opposite sahu dharamshala",
    "city": "Indore",
    "postalCode": "452006",
    "state": "Madhya Pradesh",
    "countryCode": "IN",
    "location": {
      "lat": 22.7377464,
      "lng": 75.8452272
    },
    "permanentlyClosed": false,
    "temporarilyClosed": true,
    "placeId": "ChIJYU2B05H9YjkRJwKFZJVxXH0",
    "categories": [
      "Car rental agency"
    ],
    "imagesCount": 8,
    "openingHours": [],
    "imageUrl": "https://media.indianluxurycars.com/google/7cec575270dd125245709a38fea0fd5ba5f3dbdd51b77315d5e78884214ae840.jpg",
    "url": "https://www.google.com/maps/search/?api=1&query=Omkar%20tours%20and%20travels&query_place_id=ChIJYU2B05H9YjkRJwKFZJVxXH0"
  },
  {
    "title": "PARSHWANATH CAR RENTAL | TRAVELS",
    "subTitle": "पार्श्वनाथ कार रेंटल | ट्रैवल्स",
    "categoryName": "Car rental agency",
    "address": "63,C, Annapurna Rd, Parshwanath Nagar, Indore, Madhya Pradesh 452009, India",
    "neighborhood": "Parshwanath Nagar",
    "street": "63,C, Annapurna Rd",
    "city": "Indore",
    "postalCode": "452009",
    "state": "Madhya Pradesh",
    "countryCode": "IN",
    "phone": "+918602277840",
    "phoneUnformatted": "+918602277840",
    "location": {
      "lat": 22.6878013,
      "lng": 75.8398093
    },
    "totalScore": 4.8,
    "permanentlyClosed": false,
    "temporarilyClosed": false,
    "placeId": "ChIJDYtTM1_9YjkRdrj_V37VhVE",
    "categories": [
      "Car rental agency",
      "Bus tour agency",
      "Car leasing service",
      "Minibus taxi service",
      "Taxi service",
      "Transportation service"
    ],
    "reviewsCount": 52,
    "imagesCount": 96,
    "openingHours": [
      {
        "day": "Monday",
        "hours": "Open 24 hours"
      },
      {
        "day": "Tuesday",
        "hours": "Open 24 hours"
      },
      {
        "day": "Wednesday",
        "hours": "Open 24 hours"
      },
      {
        "day": "Thursday",
        "hours": "Open 24 hours"
      },
      {
        "day": "Friday",
        "hours": "Open 24 hours"
      },
      {
        "day": "Saturday",
        "hours": "Open 24 hours"
      },
      {
        "day": "Sunday",
        "hours": "Open 24 hours"
      }
    ],
    "imageUrl": "https://media.indianluxurycars.com/google/3dfe521e861cdec7fda0e1213091bd8838762a9179d2d241f247174c36b68a88.jpg",
    "url": "https://www.google.com/maps/search/?api=1&query=PARSHWANATH%20CAR%20RENTAL%20%7C%20TRAVELS&query_place_id=ChIJDYtTM1_9YjkRdrj_V37VhVE"
  },
  {
    "title": "Patel Car World",
    "subTitle": "पटेल कार वर्ल्ड",
    "categoryName": "Used car dealer",
    "address": "Shop Number 1, Harshdeep Tower, Indra Complex, Navlakha, Indore, Madhya Pradesh 452001, India",
    "neighborhood": "Indra Complex, Navlakha",
    "street": "Shop Number 1, Harshdeep Tower",
    "city": "Indore",
    "postalCode": "452001",
    "state": "Madhya Pradesh",
    "countryCode": "IN",
    "phone": "+918103586363",
    "phoneUnformatted": "+918103586363",
    "location": {
      "lat": 22.7030766,
      "lng": 75.8762674
    },
    "totalScore": 4.6,
    "permanentlyClosed": false,
    "temporarilyClosed": false,
    "placeId": "ChIJJSBc2KT9YjkRK8eBi2zfHII",
    "categories": [
      "Used car dealer",
      "Auto broker",
      "BMW dealer",
      "Car dealer",
      "Suzuki dealer"
    ],
    "reviewsCount": 37,
    "imagesCount": 20,
    "openingHours": [
      {
        "day": "Monday",
        "hours": "10 AM to 8 PM"
      },
      {
        "day": "Tuesday",
        "hours": "10 AM to 8 PM"
      },
      {
        "day": "Wednesday",
        "hours": "10 AM to 8 PM"
      },
      {
        "day": "Thursday",
        "hours": "10 AM to 8 PM"
      },
      {
        "day": "Friday",
        "hours": "10 AM to 8 PM"
      },
      {
        "day": "Saturday",
        "hours": "10 AM to 8 PM"
      },
      {
        "day": "Sunday",
        "hours": "10 AM to 8 PM"
      }
    ],
    "imageUrl": "https://media.indianluxurycars.com/google/156be13cfb9d478f093bc01202ed087fdfd49da5124e28778d8d4aafbe5b1296.jpg",
    "url": "https://www.google.com/maps/search/?api=1&query=Patel%20Car%20World&query_place_id=ChIJJSBc2KT9YjkRK8eBi2zfHII"
  },
  {
    "title": "Premium Car Lounge",
    "subTitle": "प्रीमियम कार लाउंज",
    "categoryName": "Used car dealer",
    "address": "Chappan Dukan, New Palasia N .m tower, opp. Om Namkeen, Indore, Madhya Pradesh 452003, India",
    "neighborhood": "New Palasia",
    "street": "Chappan Dukan, New Palasia N .m tower, opp. Om Namkeen",
    "city": "Indore",
    "postalCode": "452003",
    "state": "Madhya Pradesh",
    "countryCode": "IN",
    "phone": "+919300003506",
    "phoneUnformatted": "+919300003506",
    "location": {
      "lat": 22.7251991,
      "lng": 75.8832573
    },
    "totalScore": 4.7,
    "permanentlyClosed": false,
    "temporarilyClosed": false,
    "placeId": "ChIJc7a8LEj9YjkRKkspC2bqZrQ",
    "categories": [
      "Used car dealer",
      "DS Automobiles dealer",
      "Car dealer"
    ],
    "reviewsCount": 20,
    "imagesCount": 24,
    "openingHours": [],
    "imageUrl": "https://media.indianluxurycars.com/google/38b97f3a655c8ae42147df2a6e0d137251feab2778160cb2fe08a5272d27c9ef.jpg",
    "url": "https://www.google.com/maps/search/?api=1&query=Premium%20Car%20Lounge&query_place_id=ChIJc7a8LEj9YjkRKkspC2bqZrQ"
  },
  {
    "title": "Rajput Travel indore",
    "subTitle": "राजपूत ट्रैवल इंदौर",
    "categoryName": "Car rental agency",
    "address": "41-C, Sabji Mandi Main Rd, Nagin Nagar, Chandan Nagar, Indore, Madhya Pradesh 452002, India",
    "neighborhood": "Nagin Nagar, Chandan Nagar",
    "street": "41-C, Sabji Mandi Main Rd",
    "city": "Indore",
    "postalCode": "452002",
    "state": "Madhya Pradesh",
    "countryCode": "IN",
    "website": "https://rajputtravelindore.justdial.com/",
    "phone": "+919926620391",
    "phoneUnformatted": "+919926620391",
    "location": {
      "lat": 22.7147227,
      "lng": 75.8222679
    },
    "totalScore": 3.4,
    "permanentlyClosed": false,
    "temporarilyClosed": false,
    "placeId": "ChIJrxfChsH9YjkRZ-VW-zjkr-M",
    "categories": [
      "Car rental agency"
    ],
    "reviewsCount": 7,
    "imagesCount": 53,
    "openingHours": [
      {
        "day": "Monday",
        "hours": "Open 24 hours"
      },
      {
        "day": "Tuesday",
        "hours": "Open 24 hours"
      },
      {
        "day": "Wednesday",
        "hours": "Open 24 hours"
      },
      {
        "day": "Thursday",
        "hours": "Open 24 hours"
      },
      {
        "day": "Friday",
        "hours": "Open 24 hours"
      },
      {
        "day": "Saturday",
        "hours": "Open 24 hours"
      },
      {
        "day": "Sunday",
        "hours": "Open 24 hours"
      }
    ],
    "imageUrl": "https://media.indianluxurycars.com/google/691a625a24d66ff3edbc52a0e09a74f9f44c7456f5ce71a4864530749f41fe0a.jpg",
    "url": "https://www.google.com/maps/search/?api=1&query=Rajput%20Travel%20indore&query_place_id=ChIJrxfChsH9YjkRZ-VW-zjkr-M"
  },
  {
    "title": "Rental Riders - Rent a Car, Bike, or Scooty in Indore",
    "subTitle": "रेंटल राइडर्स - रेंट ए कार, बाइक, ओर स्कूटी इन इंदौर",
    "categoryName": "Car rental agency",
    "address": "Railway Station, Jhabua Tower Rd, near Platform - 01, opposite at Cosmopolitan Hotel, Flim Colony, Chhoti Gwaltoli, Indore, Madhya Pradesh 452001, India",
    "neighborhood": "Flim Colony, Chhoti Gwaltoli",
    "street": "Railway Station, Jhabua Tower Rd, near Platform - 01, opposite at Cosmopolitan Hotel",
    "city": "Indore",
    "postalCode": "452001",
    "state": "Madhya Pradesh",
    "countryCode": "IN",
    "website": "https://rentalriders.in/bikerental/indore",
    "phone": "+916232666123",
    "phoneUnformatted": "+916232666123",
    "location": {
      "lat": 22.7178154,
      "lng": 75.8698417
    },
    "totalScore": 4.7,
    "permanentlyClosed": false,
    "temporarilyClosed": false,
    "placeId": "ChIJmR_Iowv9YjkR9iqLW6Ow7hs",
    "categories": [
      "Car rental agency",
      "Car leasing service",
      "Motorcycle rental agency",
      "Scooter rental service"
    ],
    "reviewsCount": 512,
    "imagesCount": 51,
    "openingHours": [
      {
        "day": "Monday",
        "hours": "9 AM to 9 PM"
      },
      {
        "day": "Tuesday",
        "hours": "9 AM to 9 PM"
      },
      {
        "day": "Wednesday",
        "hours": "9 AM to 9 PM"
      },
      {
        "day": "Thursday",
        "hours": "9 AM to 9 PM"
      },
      {
        "day": "Friday",
        "hours": "9 AM to 9 PM"
      },
      {
        "day": "Saturday",
        "hours": "9 AM to 9 PM"
      },
      {
        "day": "Sunday",
        "hours": "9 AM to 9 PM"
      }
    ],
    "imageUrl": "https://media.indianluxurycars.com/google/5bf4b687bf2297c0d1db3dddd197509079b9b1dd610d30d32548ef3e5b4392f9.jpg",
    "url": "https://www.google.com/maps/search/?api=1&query=Rental%20Riders%20-%20Rent%20a%20Car%2C%20Bike%2C%20or%20Scooty%20in%20Indore&query_place_id=ChIJmR_Iowv9YjkR9iqLW6Ow7hs"
  },
  {
    "title": "Ride your bike- railway station",
    "subTitle": "राइड योर बाइक- रेलवे स्टेशन",
    "categoryName": "Car rental agency",
    "address": "Railway Station Rd, PF no. 01, Chhoti Gwaltoli, Indore, Madhya Pradesh 452001, India",
    "neighborhood": "PF no. 01, Chhoti Gwaltoli",
    "street": "Railway Station Rd",
    "city": "Indore",
    "postalCode": "452001",
    "state": "Madhya Pradesh",
    "countryCode": "IN",
    "website": "https://www.rideyourbikerental.com/",
    "phone": "+918818862672",
    "phoneUnformatted": "+918818862672",
    "location": {
      "lat": 22.7177414,
      "lng": 75.8698339
    },
    "totalScore": 5,
    "permanentlyClosed": false,
    "temporarilyClosed": false,
    "placeId": "ChIJ3eGpyKv9YjkRDQ-SNbK2Myc",
    "categories": [
      "Car rental agency",
      "Car leasing service",
      "Motorcycle rental agency"
    ],
    "reviewsCount": 154,
    "imagesCount": 78,
    "openingHours": [
      {
        "day": "Monday",
        "hours": "Open 24 hours"
      },
      {
        "day": "Tuesday",
        "hours": "Open 24 hours"
      },
      {
        "day": "Wednesday",
        "hours": "Open 24 hours"
      },
      {
        "day": "Thursday",
        "hours": "Open 24 hours"
      },
      {
        "day": "Friday",
        "hours": "Open 24 hours"
      },
      {
        "day": "Saturday",
        "hours": "Open 24 hours"
      },
      {
        "day": "Sunday",
        "hours": "Open 24 hours"
      }
    ],
    "imageUrl": "https://media.indianluxurycars.com/google/cfa55777413e4d3c9d5336057e5edb8186a0598f83a8b76a29ea7a712f80b26d.jpg",
    "url": "https://www.google.com/maps/search/?api=1&query=Ride%20your%20bike-%20railway%20station&query_place_id=ChIJ3eGpyKv9YjkRDQ-SNbK2Myc"
  },
  {
    "title": "Ride your bike- vijay nagar",
    "subTitle": "राइड योर बाइक- विजय नगर",
    "categoryName": "Car rental agency",
    "address": "Vijay Nagar Square, near vishal mega mart, Bhagyashree Colony, Indore, Madhya Pradesh 452010, India",
    "neighborhood": "Bhagyashree Colony",
    "street": "Vijay Nagar Square, near vishal mega mart",
    "city": "Indore",
    "postalCode": "452010",
    "state": "Madhya Pradesh",
    "countryCode": "IN",
    "website": "https://www.rideyourbikerental.com/",
    "phone": "+918818862010",
    "phoneUnformatted": "+918818862010",
    "location": {
      "lat": 22.7514958,
      "lng": 75.8960244
    },
    "totalScore": 5,
    "permanentlyClosed": false,
    "temporarilyClosed": false,
    "placeId": "ChIJiWN8iLYDYzkRYjesHpZMC-A",
    "categories": [
      "Car rental agency",
      "Motorcycle rental agency"
    ],
    "reviewsCount": 114,
    "imagesCount": 64,
    "openingHours": [
      {
        "day": "Monday",
        "hours": "Open 24 hours"
      },
      {
        "day": "Tuesday",
        "hours": "Open 24 hours"
      },
      {
        "day": "Wednesday",
        "hours": "Open 24 hours"
      },
      {
        "day": "Thursday",
        "hours": "Open 24 hours"
      },
      {
        "day": "Friday",
        "hours": "Open 24 hours"
      },
      {
        "day": "Saturday",
        "hours": "Open 24 hours"
      },
      {
        "day": "Sunday",
        "hours": "Open 24 hours"
      }
    ],
    "imageUrl": "https://media.indianluxurycars.com/google/b7ddf8a8c403c23a20f8f37c571b016cfa7a6b5b58e2957ca40403a545236ee0.jpg",
    "url": "https://www.google.com/maps/search/?api=1&query=Ride%20your%20bike-%20vijay%20nagar&query_place_id=ChIJiWN8iLYDYzkRYjesHpZMC-A"
  },
  {
    "title": "Ride your bikes",
    "subTitle": "राइड योर बिकेस",
    "categoryName": "Car rental agency",
    "address": "Bholaram Ustad Marg, Indrapuri Colony, Bhanwar Kuwa, Indore, Madhya Pradesh 452016, India",
    "neighborhood": "Indrapuri Colony, Bhanwar Kuwa",
    "street": "Bholaram Ustad Marg",
    "city": "Indore",
    "postalCode": "452016",
    "state": "Madhya Pradesh",
    "countryCode": "IN",
    "website": "https://www.rideyourbikerental.com/",
    "phone": "+917024248818",
    "phoneUnformatted": "+917024248818",
    "location": {
      "lat": 22.6880988,
      "lng": 75.8628431
    },
    "totalScore": 4.9,
    "permanentlyClosed": false,
    "temporarilyClosed": false,
    "placeId": "ChIJd4B3M9r9YjkRHJ5i-z8Qsc8",
    "categories": [
      "Car rental agency",
      "Motorcycle rental agency"
    ],
    "reviewsCount": 464,
    "imagesCount": 85,
    "openingHours": [
      {
        "day": "Monday",
        "hours": "Open 24 hours"
      },
      {
        "day": "Tuesday",
        "hours": "Open 24 hours"
      },
      {
        "day": "Wednesday",
        "hours": "Open 24 hours"
      },
      {
        "day": "Thursday",
        "hours": "Open 24 hours"
      },
      {
        "day": "Friday",
        "hours": "Open 24 hours"
      },
      {
        "day": "Saturday",
        "hours": "Open 24 hours"
      },
      {
        "day": "Sunday",
        "hours": "Open 24 hours"
      }
    ],
    "imageUrl": "https://media.indianluxurycars.com/google/3e40b9babe445e723eab5449e87bf3020be650cdc91392bd6902eaccca43eccd.jpg",
    "url": "https://www.google.com/maps/search/?api=1&query=Ride%20your%20bikes&query_place_id=ChIJd4B3M9r9YjkRHJ5i-z8Qsc8"
  },
  {
    "title": "Royal Car Rental Indore",
    "subTitle": "रॉयल कार रेंटल इंदौर",
    "categoryName": "Car rental agency",
    "address": "Royal Car Rental, 101, Plot No 103, near Hotel Orange Lily, Vijay Nagar, Ratna Lok Colony, Indore, Madhya Pradesh 452010, India",
    "neighborhood": "Vijay Nagar, Ratna Lok Colony",
    "street": "Royal Car Rental, 101, Plot No 103, near Hotel Orange Lily",
    "city": "Indore",
    "postalCode": "452010",
    "state": "Madhya Pradesh",
    "countryCode": "IN",
    "website": "https://carrentalindore.com/",
    "location": {
      "lat": 22.7492385,
      "lng": 75.8973263
    },
    "totalScore": 5,
    "permanentlyClosed": false,
    "temporarilyClosed": false,
    "placeId": "ChIJUZ2OSer9YjkRYBAA5TdlLx0",
    "categories": [
      "Car rental agency",
      "Bus tour agency",
      "Travel agency"
    ],
    "reviewsCount": 2,
    "imagesCount": 44,
    "openingHours": [
      {
        "day": "Monday",
        "hours": "Open 24 hours"
      },
      {
        "day": "Tuesday",
        "hours": "Open 24 hours"
      },
      {
        "day": "Wednesday",
        "hours": "Open 24 hours"
      },
      {
        "day": "Thursday",
        "hours": "Open 24 hours"
      },
      {
        "day": "Friday",
        "hours": "Open 24 hours"
      },
      {
        "day": "Saturday",
        "hours": "Open 24 hours"
      },
      {
        "day": "Sunday",
        "hours": "Open 24 hours"
      }
    ],
    "imageUrl": "https://media.indianluxurycars.com/google/b1ffd3c00eedb23efc49a62202ba9cf90d42c381b1e84bcec89afe6b0f143319.jpg",
    "url": "https://www.google.com/maps/search/?api=1&query=Royal%20Car%20Rental%20Indore&query_place_id=ChIJUZ2OSer9YjkRYBAA5TdlLx0"
  },
  {
    "title": "Royal rental",
    "subTitle": "रॉयल रेंटल",
    "categoryName": "Car rental agency",
    "address": "MVM6+WM6, Sector C, Sarvanand Nagar, Pipliya Rao, Indore, Madhya Pradesh 452001, India",
    "neighborhood": "Sector C, Sarvanand Nagar, Pipliya Rao",
    "street": "MVM6+WM6",
    "city": "Indore",
    "postalCode": "452001",
    "state": "Madhya Pradesh",
    "countryCode": "IN",
    "location": {
      "lat": 22.684811,
      "lng": 75.8617809
    },
    "totalScore": 5,
    "permanentlyClosed": false,
    "temporarilyClosed": false,
    "placeId": "ChIJYcls1d79YjkRmm3RtuuR5gw",
    "categories": [
      "Car rental agency"
    ],
    "reviewsCount": 44,
    "imagesCount": 29,
    "openingHours": [
      {
        "day": "Monday",
        "hours": "Open 24 hours"
      },
      {
        "day": "Tuesday",
        "hours": "Open 24 hours"
      },
      {
        "day": "Wednesday",
        "hours": "Open 24 hours"
      },
      {
        "day": "Thursday",
        "hours": "Open 24 hours"
      },
      {
        "day": "Friday",
        "hours": "Open 24 hours"
      },
      {
        "day": "Saturday",
        "hours": "Open 24 hours"
      },
      {
        "day": "Sunday",
        "hours": "Open 24 hours"
      }
    ],
    "imageUrl": "https://media.indianluxurycars.com/google/a820fc8558c51d9617da111bc218ac2551701bf5d2bbb02bac12f352aae23ffd.jpg",
    "url": "https://www.google.com/maps/search/?api=1&query=Royal%20rental&query_place_id=ChIJYcls1d79YjkRmm3RtuuR5gw"
  },
  {
    "title": "Sachdeva Automobiles",
    "subTitle": "सचदेवा ऑटोमोबिल्स",
    "categoryName": "Used car dealer",
    "address": "PU-4 213-214 behind C21 -Malhar Mega Mall, Vijay Nagar, Indore, Madhya Pradesh 452010, India",
    "neighborhood": "Behind C21 Mall, Vijay Nagar, Scheme 54 PU4",
    "street": "PU-4 213-214 behind C21 -Malhar Mega Mall",
    "city": "Indore",
    "postalCode": "452010",
    "state": "Madhya Pradesh",
    "countryCode": "IN",
    "phone": "+919826422280",
    "phoneUnformatted": "+919826422280",
    "location": {
      "lat": 22.7443173,
      "lng": 75.8952552
    },
    "totalScore": 4.6,
    "permanentlyClosed": false,
    "temporarilyClosed": false,
    "placeId": "ChIJC-9s3lb9YjkRbbTAAyr5oSk",
    "categories": [
      "Used car dealer",
      "Car dealer",
      "Smart Car dealer"
    ],
    "reviewsCount": 50,
    "imagesCount": 22,
    "openingHours": [
      {
        "day": "Monday",
        "hours": "11 AM to 8 PM"
      },
      {
        "day": "Tuesday",
        "hours": "11 AM to 8 PM"
      },
      {
        "day": "Wednesday",
        "hours": "11 AM to 8 PM"
      },
      {
        "day": "Thursday",
        "hours": "11 AM to 8 PM"
      },
      {
        "day": "Friday",
        "hours": "11 AM to 8 PM"
      },
      {
        "day": "Saturday",
        "hours": "11 AM to 8 PM"
      },
      {
        "day": "Sunday",
        "hours": "11 AM to 8 PM"
      }
    ],
    "imageUrl": "https://media.indianluxurycars.com/google/ad54b9756dcf8956c34d75fa1f7fdbcbbc3c7dcdf82d98afcab84266dabade6d.png",
    "url": "https://www.google.com/maps/search/?api=1&query=Sachdeva%20Automobiles&query_place_id=ChIJC-9s3lb9YjkRbbTAAyr5oSk"
  },
  {
    "title": "Salasar Balaji Logistic Pvt. Ltd.",
    "subTitle": "सालासर बालाजी लॉजिस्टिक पीवीटी. एलटीडी.",
    "categoryName": "Car rental agency",
    "address": "Regional Office: 409, Princess Business Park, Vijay Nagar, Indore, Madhya Pradesh 452010, India",
    "neighborhood": "Scheme No 54",
    "street": "Regional Office: 409, Princess Business Park, Vijay Nagar",
    "city": "Indore",
    "postalCode": "452010",
    "state": "Madhya Pradesh",
    "countryCode": "IN",
    "website": "http://salasar-group.com/",
    "phone": "+919826261160",
    "phoneUnformatted": "+919826261160",
    "location": {
      "lat": 22.7458842,
      "lng": 75.8931703
    },
    "totalScore": 3.4,
    "permanentlyClosed": false,
    "temporarilyClosed": false,
    "placeId": "ChIJq6qqqq8CYzkR0hfrpqqj0VU",
    "categories": [
      "Car rental agency",
      "Taxi service"
    ],
    "reviewsCount": 33,
    "imagesCount": 19,
    "openingHours": [
      {
        "day": "Monday",
        "hours": "Open 24 hours"
      },
      {
        "day": "Tuesday",
        "hours": "Open 24 hours"
      },
      {
        "day": "Wednesday",
        "hours": "Open 24 hours"
      },
      {
        "day": "Thursday",
        "hours": "Open 24 hours"
      },
      {
        "day": "Friday",
        "hours": "Open 24 hours"
      },
      {
        "day": "Saturday",
        "hours": "Open 24 hours"
      },
      {
        "day": "Sunday",
        "hours": "Open 24 hours"
      }
    ],
    "imageUrl": "https://media.indianluxurycars.com/google/81414e99390b327b30ccaf03a588e8d574278cb47600a6863f9be7ec28f305c5.jpg",
    "url": "https://www.google.com/maps/search/?api=1&query=Salasar%20Balaji%20Logistic%20Pvt.%20Ltd.&query_place_id=ChIJq6qqqq8CYzkR0hfrpqqj0VU"
  },
  {
    "title": "Samarth Motors",
    "subTitle": "समर्थ मोटर्स",
    "categoryName": "Car repair and maintenance service",
    "address": "Plot No 9, Keshar Bagh Rd, PART 2, Basant Puri Colony, Lokmanya Nagar, Indore, Madhya Pradesh 452012, India",
    "neighborhood": "PART 2, Basant Puri Colony, Lokmanya Nagar",
    "street": "Plot No 9, Keshar Bagh Rd",
    "city": "Indore",
    "postalCode": "452012",
    "state": "Madhya Pradesh",
    "countryCode": "IN",
    "phone": "+919826078896",
    "phoneUnformatted": "+919826078896",
    "location": {
      "lat": 22.6833453,
      "lng": 75.8423188
    },
    "totalScore": 4.3,
    "permanentlyClosed": false,
    "temporarilyClosed": false,
    "placeId": "ChIJdRXAMVv8YjkRlu6Wpxpnq4I",
    "categories": [
      "Car repair and maintenance service"
    ],
    "reviewsCount": 26,
    "imagesCount": 4,
    "openingHours": [
      {
        "day": "Monday",
        "hours": "10 AM to 7 PM"
      },
      {
        "day": "Tuesday",
        "hours": "10 AM to 7 PM"
      },
      {
        "day": "Wednesday",
        "hours": "10 AM to 7 PM"
      },
      {
        "day": "Thursday",
        "hours": "10 AM to 7 PM"
      },
      {
        "day": "Friday",
        "hours": "10 AM to 7 PM"
      },
      {
        "day": "Saturday",
        "hours": "10 AM to 7 PM"
      },
      {
        "day": "Sunday",
        "hours": "Closed"
      }
    ],
    "imageUrl": "https://media.indianluxurycars.com/google/68bd8ec34c3c0ac92a1d420fe8f436fc790c9590ab2b86d52a9f7081991dc6b9.jpg",
    "url": "https://www.google.com/maps/search/?api=1&query=Samarth%20Motors&query_place_id=ChIJdRXAMVv8YjkRlu6Wpxpnq4I"
  },
  {
    "title": "Sanghi Toyota (Sales)",
    "subTitle": "संघी टोयोटा",
    "categoryName": "Car dealer",
    "address": "6, near Palasia Square, Manorama Ganj, Indore, Madhya Pradesh 452001, India",
    "neighborhood": "Manorama Ganj",
    "street": "6, near Palasia Square",
    "city": "Indore",
    "postalCode": "452001",
    "state": "Madhya Pradesh",
    "countryCode": "IN",
    "website": "http://sanghitoyota.com/contact-in02a.html",
    "phone": "+917970001234",
    "phoneUnformatted": "+917970001234",
    "location": {
      "lat": 22.7222638,
      "lng": 75.8866572
    },
    "totalScore": 4,
    "permanentlyClosed": false,
    "temporarilyClosed": false,
    "placeId": "ChIJxWP1Sjr9YjkRavDiJ_P5p04",
    "categories": [
      "Car dealer",
      "Toyota dealer"
    ],
    "reviewsCount": 294,
    "imagesCount": 111,
    "openingHours": [
      {
        "day": "Monday",
        "hours": "10 AM to 8 PM"
      },
      {
        "day": "Tuesday",
        "hours": "10 AM to 8 PM"
      },
      {
        "day": "Wednesday",
        "hours": "10 AM to 8 PM"
      },
      {
        "day": "Thursday",
        "hours": "10 AM to 8 PM"
      },
      {
        "day": "Friday",
        "hours": "10 AM to 8 PM"
      },
      {
        "day": "Saturday",
        "hours": "10 AM to 8 PM"
      },
      {
        "day": "Sunday",
        "hours": "11 AM to 7 PM"
      }
    ],
    "imageUrl": "https://media.indianluxurycars.com/google/37263cec2cb066abcf0a0f5c3eb9bac5c1363fe02a11b6f92dc289b3b68dfe11.jpg",
    "url": "https://www.google.com/maps/search/?api=1&query=Sanghi%20Toyota%20(Sales)&query_place_id=ChIJxWP1Sjr9YjkRavDiJ_P5p04"
  },
  {
    "title": "SDC SELF DRIVEN /best car rental indore",
    "subTitle": "एसडीसी सेल्फ ड्रिवन /बेस्ट कार रेंटल इंदौर",
    "categoryName": "Car rental agency",
    "address": "Dindayal upadhya parishad, behind chl hospital, Rss Nagar, Indore, Madhya Pradesh 452011, India",
    "neighborhood": "Rss Nagar",
    "street": "Dindayal upadhya parishad, behind chl hospital",
    "city": "Indore",
    "postalCode": "452011",
    "state": "Madhya Pradesh",
    "countryCode": "IN",
    "phone": "+917224012354",
    "phoneUnformatted": "+917224012354",
    "location": {
      "lat": 22.7324421,
      "lng": 75.8885377
    },
    "totalScore": 4.8,
    "permanentlyClosed": false,
    "temporarilyClosed": false,
    "placeId": "ChIJE9dkDZD9YjkRW4sK6Hc2dD4",
    "categories": [
      "Car rental agency"
    ],
    "reviewsCount": 330,
    "imagesCount": 89,
    "openingHours": [
      {
        "day": "Monday",
        "hours": "Open 24 hours"
      },
      {
        "day": "Tuesday",
        "hours": "Open 24 hours"
      },
      {
        "day": "Wednesday",
        "hours": "Open 24 hours"
      },
      {
        "day": "Thursday",
        "hours": "Open 24 hours"
      },
      {
        "day": "Friday",
        "hours": "Open 24 hours"
      },
      {
        "day": "Saturday",
        "hours": "Open 24 hours"
      },
      {
        "day": "Sunday",
        "hours": "Open 24 hours"
      }
    ],
    "imageUrl": "https://media.indianluxurycars.com/google/e67cf273c952490677bef619ed1d99fb3708c7d3244cde5c548fe03f34b86f1e.jpg",
    "url": "https://www.google.com/maps/search/?api=1&query=SDC%20SELF%20DRIVEN%20%2Fbest%20car%20rental%20indore&query_place_id=ChIJE9dkDZD9YjkRW4sK6Hc2dD4"
  },
  {
    "title": "Shekhar Car Rental",
    "subTitle": "शेखर कार रेंटल",
    "categoryName": "Car rental agency",
    "address": "A/S 333, Pandit, Pandit Din Dayal Upadhyay Nagar, Sukhliya, Indore, Madhya Pradesh 452010, India",
    "neighborhood": "Pandit Din Dayal Upadhyay Nagar, Sukhliya",
    "street": "A/S 333, Pandit",
    "city": "Indore",
    "postalCode": "452010",
    "state": "Madhya Pradesh",
    "countryCode": "IN",
    "website": "http://shekharcarrental.com/",
    "phone": "+919303270436",
    "phoneUnformatted": "+919303270436",
    "location": {
      "lat": 22.7554121,
      "lng": 75.8769735
    },
    "totalScore": 4.7,
    "permanentlyClosed": false,
    "temporarilyClosed": false,
    "placeId": "ChIJyTm0O9MDYzkRRAmffgmtrSs",
    "categories": [
      "Car rental agency",
      "Car leasing service"
    ],
    "reviewsCount": 14,
    "imagesCount": 10,
    "openingHours": [
      {
        "day": "Monday",
        "hours": "Open 24 hours"
      },
      {
        "day": "Tuesday",
        "hours": "Open 24 hours"
      },
      {
        "day": "Wednesday",
        "hours": "Open 24 hours"
      },
      {
        "day": "Thursday",
        "hours": "Open 24 hours"
      },
      {
        "day": "Friday",
        "hours": "Open 24 hours"
      },
      {
        "day": "Saturday",
        "hours": "Open 24 hours"
      },
      {
        "day": "Sunday",
        "hours": "Open 24 hours"
      }
    ],
    "imageUrl": "https://media.indianluxurycars.com/google/74f67066818d7125fb2926e47d635fcdb0bc3edf84ce44fdef435feaed9f0b43.jpg",
    "url": "https://www.google.com/maps/search/?api=1&query=Shekhar%20Car%20Rental&query_place_id=ChIJyTm0O9MDYzkRRAmffgmtrSs"
  },
  {
    "title": "Shekhar Trade & Tours (I) Pvt. Ltd.",
    "subTitle": "शेखर ट्रेड & टूर्स (आई) पीवीटी. एलटीडी.",
    "categoryName": "Car leasing service",
    "address": "35 Housing Complex, Pandit Din Dayal Upadhyay Nagar, Sukhliya, Indore, Madhya Pradesh 452010, India",
    "neighborhood": "Pandit Din Dayal Upadhyay Nagar, Sukhliya",
    "street": "35 Housing Complex",
    "city": "Indore",
    "postalCode": "452010",
    "state": "Madhya Pradesh",
    "countryCode": "IN",
    "website": "https://shekhartradetours.com/",
    "phone": "+919303270436",
    "phoneUnformatted": "+919303270436",
    "location": {
      "lat": 22.7558822,
      "lng": 75.876312
    },
    "totalScore": 5,
    "permanentlyClosed": false,
    "temporarilyClosed": false,
    "placeId": "ChIJqcdlXs4DYzkRZQUejqTtswM",
    "categories": [
      "Car leasing service",
      "Tour operator"
    ],
    "reviewsCount": 23,
    "imagesCount": 22,
    "openingHours": [
      {
        "day": "Monday",
        "hours": "Open 24 hours"
      },
      {
        "day": "Tuesday",
        "hours": "Open 24 hours"
      },
      {
        "day": "Wednesday",
        "hours": "Open 24 hours"
      },
      {
        "day": "Thursday",
        "hours": "Open 24 hours"
      },
      {
        "day": "Friday",
        "hours": "Open 24 hours"
      },
      {
        "day": "Saturday",
        "hours": "Open 24 hours"
      },
      {
        "day": "Sunday",
        "hours": "Open 24 hours"
      }
    ],
    "imageUrl": "https://media.indianluxurycars.com/google/6fb24c7910217576eef45b7c8010b31e5aeed8806db1a91a0e18c7e6e5021165.jpg",
    "url": "https://www.google.com/maps/search/?api=1&query=Shekhar%20Trade%20%26%20Tours%20(I)%20Pvt.%20Ltd.&query_place_id=ChIJqcdlXs4DYzkRZQUejqTtswM"
  },
  {
    "title": "Shiv shakti Motors",
    "subTitle": "शिव शक्ति मोटर्स",
    "categoryName": "Used car dealer",
    "address": "615, Khatiwala Tank Main Rd, Transport Nagar, Indore, Madhya Pradesh 452014, India",
    "neighborhood": "Transport Nagar",
    "street": "615, Khatiwala Tank Main Rd",
    "city": "Indore",
    "postalCode": "452014",
    "state": "Madhya Pradesh",
    "countryCode": "IN",
    "phone": "+919039500100",
    "phoneUnformatted": "+919039500100",
    "location": {
      "lat": 22.6969458,
      "lng": 75.861552
    },
    "totalScore": 4.9,
    "permanentlyClosed": false,
    "temporarilyClosed": false,
    "placeId": "ChIJCyoGSR79YjkRzGkCHf_HCBI",
    "categories": [
      "Used car dealer"
    ],
    "reviewsCount": 49,
    "imagesCount": 15,
    "openingHours": [
      {
        "day": "Monday",
        "hours": "10:30 AM to 8 PM"
      },
      {
        "day": "Tuesday",
        "hours": "10:30 AM to 8 PM"
      },
      {
        "day": "Wednesday",
        "hours": "10:30 AM to 8 PM"
      },
      {
        "day": "Thursday",
        "hours": "Closed"
      },
      {
        "day": "Friday",
        "hours": "10:30 AM to 8 PM"
      },
      {
        "day": "Saturday",
        "hours": "10:30 AM to 8 PM"
      },
      {
        "day": "Sunday",
        "hours": "10:30 AM to 8 PM"
      }
    ],
    "imageUrl": "https://media.indianluxurycars.com/google/8962084f74b33235d685434a6e7bba1809caed369d9b9ea81f91586fac849103.jpg",
    "url": "https://www.google.com/maps/search/?api=1&query=Shiv%20shakti%20Motors&query_place_id=ChIJCyoGSR79YjkRzGkCHf_HCBI"
  },
  {
    "title": "Shraddha travels indore",
    "subTitle": "श्रद्धा ट्रेवल्स",
    "categoryName": "Car rental agency",
    "address": "113, Ratna Lok Colony Rd, Sheetal Nagar, Indore, Madhya Pradesh 452010, India",
    "neighborhood": "Sheetal Nagar",
    "street": "113, Ratna Lok Colony Rd",
    "city": "Indore",
    "postalCode": "452010",
    "state": "Madhya Pradesh",
    "countryCode": "IN",
    "website": "https://www.shraddhatravelsolution.com/",
    "phone": "+919826050187",
    "phoneUnformatted": "+919826050187",
    "location": {
      "lat": 22.7475614,
      "lng": 75.8983837
    },
    "totalScore": 4.8,
    "permanentlyClosed": false,
    "temporarilyClosed": false,
    "placeId": "ChIJgdmErEsdYzkRXpastUuMuWM",
    "categories": [
      "Car rental agency",
      "Minibus taxi service",
      "Taxi service",
      "Tour operator"
    ],
    "reviewsCount": 64,
    "imagesCount": 281,
    "openingHours": [
      {
        "day": "Monday",
        "hours": "Open 24 hours"
      },
      {
        "day": "Tuesday",
        "hours": "Open 24 hours"
      },
      {
        "day": "Wednesday",
        "hours": "Open 24 hours"
      },
      {
        "day": "Thursday",
        "hours": "Open 24 hours"
      },
      {
        "day": "Friday",
        "hours": "Open 24 hours"
      },
      {
        "day": "Saturday",
        "hours": "Open 24 hours"
      },
      {
        "day": "Sunday",
        "hours": "Open 24 hours"
      }
    ],
    "imageUrl": "https://media.indianluxurycars.com/google/b1ffd3c00eedb23efc49a62202ba9cf90d42c381b1e84bcec89afe6b0f143319.jpg",
    "url": "https://www.google.com/maps/search/?api=1&query=Shraddha%20travels%20indore&query_place_id=ChIJgdmErEsdYzkRXpastUuMuWM"
  },
  {
    "title": "Shree Agrawal Car Rentals Private Limited",
    "subTitle": "श्री अग्रवाल कार रेंटल्स प्राइवेट लिमिटेड",
    "categoryName": "Car rental agency",
    "address": "Dhan Trident, 222, PU-4, near Satya Sai School, Vijay Nagar, Scheme No 54, Indore, Madhya Pradesh 452010, India",
    "neighborhood": "Vijay Nagar, Scheme No 54",
    "street": "Dhan Trident, 222, PU-4, near Satya Sai School",
    "city": "Indore",
    "postalCode": "452010",
    "state": "Madhya Pradesh",
    "countryCode": "IN",
    "location": {
      "lat": 22.7539046,
      "lng": 75.8975482
    },
    "permanentlyClosed": false,
    "temporarilyClosed": false,
    "placeId": "ChIJl7gN0JQDYzkRAetsFNkm3VM",
    "categories": [
      "Car rental agency",
      "Car leasing service"
    ],
    "imagesCount": 4,
    "openingHours": [
      {
        "day": "Monday",
        "hours": "Open 24 hours"
      },
      {
        "day": "Tuesday",
        "hours": "Open 24 hours"
      },
      {
        "day": "Wednesday",
        "hours": "Open 24 hours"
      },
      {
        "day": "Thursday",
        "hours": "Open 24 hours"
      },
      {
        "day": "Friday",
        "hours": "Open 24 hours"
      },
      {
        "day": "Saturday",
        "hours": "Open 24 hours"
      },
      {
        "day": "Sunday",
        "hours": "Open 24 hours"
      }
    ],
    "imageUrl": "https://media.indianluxurycars.com/google/1cf32ce6edfb415b5c8d3385cf4015061ecc6fd13d47c5f9c148c22d6b1289d4.jpg",
    "url": "https://www.google.com/maps/search/?api=1&query=Shree%20Agrawal%20Car%20Rentals%20Private%20Limited&query_place_id=ChIJl7gN0JQDYzkRAetsFNkm3VM"
  },
  {
    "title": "Shree car decor",
    "subTitle": "श्री कार डेकोर",
    "categoryName": "Car stereo store",
    "address": "Meghdoot Tower, Maguda Nagar, Vijay Nagar, Scheme No 54, Indore, Madhya Pradesh 452011, India",
    "neighborhood": "Maguda Nagar, Vijay Nagar, Scheme No 54",
    "street": "Meghdoot Tower",
    "city": "Indore",
    "postalCode": "452011",
    "state": "Madhya Pradesh",
    "countryCode": "IN",
    "website": "https://instagram.com/shree_car_decor_2022?igshid=MzNlNGNkZWQ4Mg==",
    "phone": "+919691792934",
    "phoneUnformatted": "+919691792934",
    "location": {
      "lat": 22.7497385,
      "lng": 75.8900447
    },
    "totalScore": 5,
    "permanentlyClosed": false,
    "temporarilyClosed": false,
    "placeId": "ChIJG0O6ATz9YjkR6AyCpQ6jdak",
    "categories": [
      "Car stereo store"
    ],
    "reviewsCount": 4,
    "imagesCount": 4,
    "openingHours": [
      {
        "day": "Monday",
        "hours": "11 AM to 9 PM"
      },
      {
        "day": "Tuesday",
        "hours": "11 AM to 9 PM"
      },
      {
        "day": "Wednesday",
        "hours": "11 AM to 9 PM"
      },
      {
        "day": "Thursday",
        "hours": "11 AM to 9 PM"
      },
      {
        "day": "Friday",
        "hours": "11 AM to 9 PM"
      },
      {
        "day": "Saturday",
        "hours": "11 AM to 9 PM"
      },
      {
        "day": "Sunday",
        "hours": "11 AM to 6 PM"
      }
    ],
    "imageUrl": "https://media.indianluxurycars.com/google/5e970493fab670a0dd64ffa4d876efa76288fa8d3bca3597318fb784132087ac.jpg",
    "url": "https://www.google.com/maps/search/?api=1&query=Shree%20car%20decor&query_place_id=ChIJG0O6ATz9YjkR6AyCpQ6jdak"
  },
  {
    "title": "Shree Ram Tour and Travel - Taxi Service in Indore - luxury Cab Hire - Innova Crysta Taxi-Tempo Traveller on Rent",
    "categoryName": "Car rental agency",
    "address": "930Dwarkapuri, Gumasta Nagar, Scheme 71, Indore, Madhya Pradesh 452009, India",
    "neighborhood": "Gumasta Nagar, Scheme 71",
    "street": "930Dwarkapuri",
    "city": "Indore",
    "postalCode": "452009",
    "state": "Madhya Pradesh",
    "countryCode": "IN",
    "website": "https://shreeramtourandtravel.in/",
    "phone": "+919893220322",
    "phoneUnformatted": "+919893220322",
    "location": {
      "lat": 22.6946081,
      "lng": 75.8286688
    },
    "totalScore": 5,
    "permanentlyClosed": false,
    "temporarilyClosed": false,
    "placeId": "ChIJdfSLnhH9YjkRIAecppULuEA",
    "categories": [
      "Car rental agency",
      "Airport",
      "Taxi service",
      "Minibus taxi service",
      "Taxicab Stand",
      "Tour operator",
      "Travel agency"
    ],
    "reviewsCount": 52,
    "imagesCount": 164,
    "openingHours": [],
    "imageUrl": "https://media.indianluxurycars.com/google/0bb9b652d2bd4e935c97f01ec91ec1eb18eec87c8e6d4d7ccba9a9b4389fe936.jpg",
    "url": "https://www.google.com/maps/search/?api=1&query=Shree%20Ram%20Tour%20and%20Travel%20-%20Taxi%20Service%20in%20Indore%20-%20luxury%20Cab%20Hire%20-%20Innova%20Crysta%20Taxi-Tempo%20Traveller%20on%20Rent&query_place_id=ChIJdfSLnhH9YjkRIAecppULuEA"
  },
  {
    "title": "Shree Vijaylaxmi Travels | Car hire | Tempo traveller urbania on rent | Car rental | Outstation taxi service in Indore",
    "subTitle": "श्री विजयलक्ष्मी ट्रेवल्स",
    "categoryName": "Car rental agency",
    "address": "Kalyan Vishranti Grah 6-A, near Yashwant plaza, opposite Railway Station Road, Flim Colony, Chhoti Gwaltoli, Indore, Madhya Pradesh 452001, India",
    "neighborhood": "Flim Colony, Chhoti Gwaltoli",
    "street": "Kalyan Vishranti Grah 6-A, near Yashwant plaza, opposite Railway Station Road",
    "city": "Indore",
    "postalCode": "452001",
    "state": "Madhya Pradesh",
    "countryCode": "IN",
    "website": "http://shreevijaylaxmitravels.com/",
    "phone": "+919827012132",
    "phoneUnformatted": "+919827012132",
    "location": {
      "lat": 22.7181996,
      "lng": 75.8694113
    },
    "totalScore": 4.6,
    "permanentlyClosed": false,
    "temporarilyClosed": false,
    "placeId": "ChIJAQAAQBb9YjkR18TkkvqljZg",
    "categories": [
      "Car rental agency",
      "Bus tour agency",
      "Car leasing service",
      "Taxi service",
      "Minibus taxi service",
      "Sightseeing tour agency",
      "Tour agency",
      "Tour operator",
      "Travel agency"
    ],
    "reviewsCount": 291,
    "imagesCount": 76,
    "openingHours": [],
    "imageUrl": "https://media.indianluxurycars.com/google/2d96c745db559ea057dff80f310ac9511dccb88d0faa6279e57053c1b137d3ec.jpg",
    "url": "https://www.google.com/maps/search/?api=1&query=Shree%20Vijaylaxmi%20Travels%20%7C%20Car%20hire%20%7C%20Tempo%20traveller%20urbania%20on%20rent%20%7C%20Car%20rental%20%7C%20Outstation%20taxi%20service%20in%20Indore&query_place_id=ChIJAQAAQBb9YjkR18TkkvqljZg"
  },
  {
    "title": "Shrijee Motors",
    "subTitle": "श्रीजी मोटर्स",
    "categoryName": "Used car dealer",
    "address": "324, LIG Link Rd, near DNS Hospital, Ayodhya Puri, Indore, Madhya Pradesh 452018, India",
    "neighborhood": "Ayodhya Puri",
    "street": "324, LIG Link Rd, near DNS Hospital",
    "city": "Indore",
    "postalCode": "452018",
    "state": "Madhya Pradesh",
    "countryCode": "IN",
    "location": {
      "lat": 22.7338881,
      "lng": 75.8948659
    },
    "totalScore": 4.8,
    "permanentlyClosed": false,
    "temporarilyClosed": false,
    "placeId": "ChIJGW2XTBr9YjkR2KX1sTMzPyU",
    "categories": [
      "Used car dealer"
    ],
    "reviewsCount": 49,
    "imagesCount": 12,
    "openingHours": [
      {
        "day": "Monday",
        "hours": "10:30 AM to 8:30 PM"
      },
      {
        "day": "Tuesday",
        "hours": "10:30 AM to 8:30 PM"
      },
      {
        "day": "Wednesday",
        "hours": "10:30 AM to 8:30 PM"
      },
      {
        "day": "Thursday",
        "hours": "10:30 AM to 8:30 PM"
      },
      {
        "day": "Friday",
        "hours": "10:30 AM to 8:30 PM"
      },
      {
        "day": "Saturday",
        "hours": "10:30 AM to 8:30 PM"
      },
      {
        "day": "Sunday",
        "hours": "10:30 AM to 8:30 PM"
      }
    ],
    "imageUrl": "https://media.indianluxurycars.com/google/dae7cc48a7d9e38102fdc30920a0e2818175366f40c16c8350e4c3bd59c09b13.jpg",
    "url": "https://www.google.com/maps/search/?api=1&query=Shrijee%20Motors&query_place_id=ChIJGW2XTBr9YjkR2KX1sTMzPyU"
  },
  {
    "title": "Shyam Škoda Showroom",
    "subTitle": "श्याम स्कोडा शोरूम",
    "categoryName": "Car dealer",
    "address": "G-10, Tulsi Tower, 22/3, Gita Bhawan Rd, South Tukoganj, Indore, Madhya Pradesh 452001, India",
    "neighborhood": "South Tukoganj",
    "street": "G-10, Tulsi Tower, 22/3, Gita Bhawan Rd",
    "city": "Indore",
    "postalCode": "452001",
    "state": "Madhya Pradesh",
    "countryCode": "IN",
    "website": "https://dealers.skoda-auto.co.in/shyam-skoda-showroom-shyam-sangam-automobiles-private-limited-car-dealer-south-tukoganj-indore-488118/Home",
    "phone": "+919111990222",
    "phoneUnformatted": "+919111990222",
    "location": {
      "lat": 22.7186702,
      "lng": 75.8838952
    },
    "totalScore": 4.9,
    "permanentlyClosed": false,
    "temporarilyClosed": false,
    "placeId": "ChIJ2fLdMqX9YjkRaRBd5mHmQ0M",
    "categories": [
      "Car dealer"
    ],
    "reviewsCount": 59,
    "imagesCount": 16,
    "openingHours": [
      {
        "day": "Monday",
        "hours": "10 AM to 7 PM"
      },
      {
        "day": "Tuesday",
        "hours": "10 AM to 7 PM"
      },
      {
        "day": "Wednesday",
        "hours": "10 AM to 7 PM"
      },
      {
        "day": "Thursday",
        "hours": "10 AM to 7 PM"
      },
      {
        "day": "Friday",
        "hours": "10 AM to 7 PM"
      },
      {
        "day": "Saturday",
        "hours": "10 AM to 7 PM"
      },
      {
        "day": "Sunday",
        "hours": "10 AM to 7 PM"
      }
    ],
    "imageUrl": "https://media.indianluxurycars.com/google/c8e89942b4debb4cf7dd934595656dd2de2ca419967eddbc7994555efbef8294.jpg",
    "url": "https://www.google.com/maps/search/?api=1&query=Shyam%20%C5%A0koda%20Showroom&query_place_id=ChIJ2fLdMqX9YjkRaRBd5mHmQ0M"
  },
  {
    "title": "Taxi 09 Self Drive Car Rental Indore",
    "subTitle": "टैक्सी 09 सेल्फ ड्राइव कार रेंटल इंदौर",
    "categoryName": "Car rental agency",
    "address": "Police Station, 1/6, G.sachchanand street, behind Vijay Nagar, Vijay Nagar, Indore, Madhya Pradesh 452010, India",
    "neighborhood": "Vijay Nagar",
    "street": "Police Station, 1/6, G.sachchanand street, behind Vijay Nagar",
    "city": "Indore",
    "postalCode": "452010",
    "state": "Madhya Pradesh",
    "countryCode": "IN",
    "website": "https://taxi09.com/",
    "phone": "+919753000064",
    "phoneUnformatted": "+919753000064",
    "location": {
      "lat": 22.7522016,
      "lng": 75.8947689
    },
    "totalScore": 4.9,
    "permanentlyClosed": false,
    "temporarilyClosed": false,
    "placeId": "ChIJq4EtTT0DYzkRe4idjckGDp8",
    "categories": [
      "Car rental agency",
      "Bus ticket agency",
      "Camping cabin",
      "Car leasing service",
      "Sightseeing tour agency",
      "Taxi service",
      "Tour operator",
      "Travel agency"
    ],
    "reviewsCount": 1324,
    "imagesCount": 679,
    "openingHours": [],
    "imageUrl": "https://media.indianluxurycars.com/google/6fc8cf43ff84e835499462b0781266e00a2c55d6d376f9b65fa025e9fc0280d6.jpg",
    "url": "https://www.google.com/maps/search/?api=1&query=Taxi%2009%20Self%20Drive%20Car%20Rental%20Indore&query_place_id=ChIJq4EtTT0DYzkRe4idjckGDp8"
  },
  {
    "title": "THE LUXURY CAR INDORE",
    "subTitle": "द लक्जरी कार इंदौर",
    "categoryName": "Car rental agency",
    "address": "375, LIG Link Rd, Anurag Nagar, Indore, Madhya Pradesh 452016, India",
    "neighborhood": "Anurag Nagar",
    "street": "375, LIG Link Rd",
    "city": "Indore",
    "postalCode": "452016",
    "state": "Madhya Pradesh",
    "countryCode": "IN",
    "website": "http://www.theluxurycar.vo.in/",
    "location": {
      "lat": 22.7388054,
      "lng": 75.9087141
    },
    "totalScore": 4.6,
    "permanentlyClosed": false,
    "temporarilyClosed": false,
    "placeId": "ChIJoyDlXR79YjkRSVX5xRDAmkE",
    "categories": [
      "Car rental agency",
      "Taxi service",
      "Tourist information center",
      "Travel agency"
    ],
    "reviewsCount": 34,
    "imagesCount": 1,
    "openingHours": [
      {
        "day": "Monday",
        "hours": "Open 24 hours"
      },
      {
        "day": "Tuesday",
        "hours": "Open 24 hours"
      },
      {
        "day": "Wednesday",
        "hours": "Open 24 hours"
      },
      {
        "day": "Thursday",
        "hours": "Open 24 hours"
      },
      {
        "day": "Friday",
        "hours": "Open 24 hours"
      },
      {
        "day": "Saturday",
        "hours": "Open 24 hours"
      },
      {
        "day": "Sunday",
        "hours": "Open 24 hours"
      }
    ],
    "imageUrl": "https://media.indianluxurycars.com/google/f943b6da014ede72d49788b1b130a6d09e8b44d317db761897479eab016e9afe.jpg",
    "url": "https://www.google.com/maps/search/?api=1&query=THE%20LUXURY%20CAR%20INDORE&query_place_id=ChIJoyDlXR79YjkRSVX5xRDAmkE"
  },
  {
    "title": "The Standard Journey (TSJ Cars Rental Services Private Limited)",
    "subTitle": "द स्टैण्डर्ड जर्नी (टीएसजे कार्स रेंटल सर्विसेस प्राइवेट लिमिटेड)",
    "categoryName": "Car rental agency",
    "address": "16 G, beside chartered bus, Indore, Madhya Pradesh 452001, India",
    "neighborhood": "Near Suyash Hospital, Red Church Colony, Residency Area",
    "street": "16 G, beside chartered bus",
    "city": "Indore",
    "postalCode": "452001",
    "state": "Madhya Pradesh",
    "countryCode": "IN",
    "website": "https://www.thestandardjourney.com/",
    "phone": "+919109123404",
    "phoneUnformatted": "+919109123404",
    "location": {
      "lat": 22.712955,
      "lng": 75.8841772
    },
    "totalScore": 4.8,
    "permanentlyClosed": false,
    "temporarilyClosed": false,
    "placeId": "ChIJW6zZIRMdYzkRiwcIILmsUno",
    "categories": [
      "Car rental agency",
      "Minibus taxi service",
      "Taxi service",
      "Tour agency",
      "Tour operator",
      "Travel agency"
    ],
    "reviewsCount": 1269,
    "imagesCount": 234,
    "openingHours": [
      {
        "day": "Monday",
        "hours": "Open 24 hours"
      },
      {
        "day": "Tuesday",
        "hours": "Open 24 hours"
      },
      {
        "day": "Wednesday",
        "hours": "Open 24 hours"
      },
      {
        "day": "Thursday",
        "hours": "Open 24 hours"
      },
      {
        "day": "Friday",
        "hours": "Open 24 hours"
      },
      {
        "day": "Saturday",
        "hours": "Open 24 hours"
      },
      {
        "day": "Sunday",
        "hours": "Open 24 hours"
      }
    ],
    "imageUrl": "https://media.indianluxurycars.com/google/e242231ac4bfdcbfad6ec0ab02a7866d7b5c0f44cab103a3d65230636f773e1f.jpg",
    "url": "https://www.google.com/maps/search/?api=1&query=The%20Standard%20Journey%20(TSJ%20Cars%20Rental%20Services%20Private%20Limited)&query_place_id=ChIJW6zZIRMdYzkRiwcIILmsUno"
  },
  {
    "title": "Tourist Taxi Indore",
    "subTitle": "टूरिस्ट टैक्सी इंदौर",
    "categoryName": "Car rental agency",
    "address": "Office No. 44,Ring Road, Golden Fuchar School, Ke Pass, Pipliya Rao, Indore, Madhya Pradesh 452001, India",
    "neighborhood": "Sector A, Sarvanand Nagar, Pipliya Rao",
    "street": "Office No. 44,Ring Road, Golden Fuchar School, Ke Pass",
    "city": "Indore",
    "postalCode": "452001",
    "state": "Madhya Pradesh",
    "countryCode": "IN",
    "website": "http://touristtaxiindore.com/",
    "phone": "+916262727283",
    "phoneUnformatted": "+916262727283",
    "location": {
      "lat": 22.6838632,
      "lng": 75.8613891
    },
    "totalScore": 5,
    "permanentlyClosed": false,
    "temporarilyClosed": false,
    "placeId": "ChIJAQAAcPH8YjkR5v15_5SINkc",
    "categories": [
      "Car rental agency",
      "Taxi service"
    ],
    "reviewsCount": 3,
    "imagesCount": 26,
    "openingHours": [],
    "imageUrl": "https://media.indianluxurycars.com/google/7f213fe19b7821ca3e82b1c4537d4c518d25ae2621ac19baf323c438490afe22.jpg",
    "url": "https://www.google.com/maps/search/?api=1&query=Tourist%20Taxi%20Indore&query_place_id=ChIJAQAAcPH8YjkR5v15_5SINkc"
  },
  {
    "title": "Trin Trin Travels | Travel agency in Indore | Visa Service | Passport Service | Holiday & Honeymoon packages in Indore",
    "subTitle": "त्रिं त्रिं ट्रैवल्स | ट्रैवल एजेंसी इन इंदौर | वीसा सर्विस | पासपोर्ट सर्विस | हॉलिडे & हनीमून पैकेजेस इन इंदौर",
    "categoryName": "Car leasing service",
    "address": "UG1 Diamond Hotel, Schm no. 54, near Bhandari Hospital, Vijay Nagar, Indore, Madhya Pradesh 452010, India",
    "neighborhood": "Vijay Nagar, Scheme No 54",
    "street": "UG1 Diamond Hotel, Schm no. 54, near Bhandari Hospital",
    "city": "Indore",
    "postalCode": "452010",
    "state": "Madhya Pradesh",
    "countryCode": "IN",
    "website": "http://www.trintrintravel.in/",
    "phone": "+919098001944",
    "phoneUnformatted": "+919098001944",
    "location": {
      "lat": 22.7529547,
      "lng": 75.8885575
    },
    "totalScore": 4.5,
    "permanentlyClosed": false,
    "temporarilyClosed": false,
    "placeId": "ChIJFTEFVKgCYzkREjOHIuwSX8s",
    "categories": [
      "Car leasing service",
      "Airline ticket agency",
      "Travel agency",
      "Passport agent",
      "Tour operator",
      "Train ticket agency",
      "Visa consulting service"
    ],
    "reviewsCount": 65,
    "imagesCount": 15,
    "openingHours": [
      {
        "day": "Monday",
        "hours": "8 AM to 10 PM"
      },
      {
        "day": "Tuesday",
        "hours": "8 AM to 10 PM"
      },
      {
        "day": "Wednesday",
        "hours": "8 AM to 10 PM"
      },
      {
        "day": "Thursday",
        "hours": "8 AM to 10 PM"
      },
      {
        "day": "Friday",
        "hours": "8 AM to 10 PM"
      },
      {
        "day": "Saturday",
        "hours": "8 AM to 10 PM"
      },
      {
        "day": "Sunday",
        "hours": "8 AM to 10 PM"
      }
    ],
    "imageUrl": "https://media.indianluxurycars.com/google/bdd63126c2723ecca918d616885d259e6331c0d661c3907872a92ec9d61489c9.jpg",
    "url": "https://www.google.com/maps/search/?api=1&query=Trin%20Trin%20Travels%20%7C%20Travel%20agency%20in%20Indore%20%7C%20Visa%20Service%20%7C%20Passport%20Service%20%7C%20Holiday%20%26%20Honeymoon%20packages%20in%20Indore&query_place_id=ChIJFTEFVKgCYzkREjOHIuwSX8s"
  },
  {
    "title": "Unique Car Rental",
    "subTitle": "यूनिक कार रेंटल",
    "categoryName": "Car rental agency",
    "address": "Bus Stand, 23, Indra Complex, Navlakha, Indore, Madhya Pradesh 452001, India",
    "neighborhood": "Indra Complex, Navlakha",
    "street": "Bus Stand, 23",
    "city": "Indore",
    "postalCode": "452001",
    "state": "Madhya Pradesh",
    "countryCode": "IN",
    "website": "https://uniquecar.in/",
    "phone": "+919893352191",
    "phoneUnformatted": "+919893352191",
    "location": {
      "lat": 22.702344,
      "lng": 75.8760887
    },
    "totalScore": 4.7,
    "permanentlyClosed": false,
    "temporarilyClosed": false,
    "placeId": "ChIJhVppxq39YjkR-urU9ZSnMGY",
    "categories": [
      "Car rental agency",
      "Car leasing service"
    ],
    "reviewsCount": 74,
    "imagesCount": 29,
    "openingHours": [
      {
        "day": "Monday",
        "hours": "Open 24 hours"
      },
      {
        "day": "Tuesday",
        "hours": "Open 24 hours"
      },
      {
        "day": "Wednesday",
        "hours": "Open 24 hours"
      },
      {
        "day": "Thursday",
        "hours": "Open 24 hours"
      },
      {
        "day": "Friday",
        "hours": "Open 24 hours"
      },
      {
        "day": "Saturday",
        "hours": "Open 24 hours"
      },
      {
        "day": "Sunday",
        "hours": "Open 24 hours"
      }
    ],
    "imageUrl": "https://media.indianluxurycars.com/google/00aad51ff0932d99c258abcfe938190b9139229caaa26254865fc55651f514d0.jpg",
    "url": "https://www.google.com/maps/search/?api=1&query=Unique%20Car%20Rental&query_place_id=ChIJhVppxq39YjkR-urU9ZSnMGY"
  },
  {
    "title": "UNITED MOTORS || Best Old Used Car Dealer in khajrana Indore||",
    "subTitle": "यूनाइटेड मोटर्स || बेस्ट ओल्ड यूज्ड कार डीलर इन खजराना इंदौर||",
    "categoryName": "Used car dealer",
    "address": "Ganesh Mandir Gate, Ring Road, near Khajrana Road, Khajrana Square, Ganeshpuri, Khajrana, Indore, Madhya Pradesh 452016, India",
    "neighborhood": "Khajrana Square, Ganeshpuri, Khajrana",
    "street": "Ganesh Mandir Gate, Ring Road, near Khajrana Road",
    "city": "Indore",
    "postalCode": "452016",
    "state": "Madhya Pradesh",
    "countryCode": "IN",
    "website": "https://www.instagram.com/united_motors_indore",
    "phone": "+919425092196",
    "phoneUnformatted": "+919425092196",
    "location": {
      "lat": 22.731308,
      "lng": 75.9030435
    },
    "totalScore": 4.8,
    "permanentlyClosed": false,
    "temporarilyClosed": false,
    "placeId": "ChIJc49DahXjYjkR7JYA5hwxg2U",
    "categories": [
      "Used car dealer"
    ],
    "reviewsCount": 43,
    "imagesCount": 74,
    "openingHours": [
      {
        "day": "Monday",
        "hours": "10:30 AM to 8 PM"
      },
      {
        "day": "Tuesday",
        "hours": "10:30 AM to 8 PM"
      },
      {
        "day": "Wednesday",
        "hours": "10:30 AM to 8 PM"
      },
      {
        "day": "Thursday",
        "hours": "10:30 AM to 8 PM"
      },
      {
        "day": "Friday",
        "hours": "10:30 AM to 8 PM"
      },
      {
        "day": "Saturday",
        "hours": "10:30 AM to 8 PM"
      },
      {
        "day": "Sunday",
        "hours": "10:30 AM to 8 PM"
      }
    ],
    "imageUrl": "https://media.indianluxurycars.com/google/32a454eb3b845c162c9b17caf4fa38b044004dfdcbef1870a94d80c8d7c5d3cb.jpg",
    "url": "https://www.google.com/maps/search/?api=1&query=UNITED%20MOTORS%20%7C%7C%20Best%20Old%20Used%20Car%20Dealer%20in%20khajrana%20Indore%7C%7C&query_place_id=ChIJc49DahXjYjkR7JYA5hwxg2U"
  },
  {
    "title": "Vaanya Travels and Self Drive Cars",
    "subTitle": "वान्या ट्रैवल्स एंड सेल्फ ड्राइव कार्स",
    "categoryName": "Car rental agency",
    "address": "270, Sri Mangal Nagar, Indore, Madhya Pradesh 452009, India",
    "neighborhood": "Sri Mangal Nagar",
    "street": "270",
    "city": "Indore",
    "postalCode": "452009",
    "state": "Madhya Pradesh",
    "countryCode": "IN",
    "website": "https://wwwvaanyacarrentalcom.tiiny.site/?fbclid=PAb21jcANsBiFleHRuA2FlbQIxMQABp-TsoYq0iU9nQqRzpmwMArqykjEJoVJw0fNYrS2e-AH7AgzBXHWqE1RjTF8S_aem_xm_BiwxNqHDtVqlZPhYXug",
    "phone": "+919977938776",
    "phoneUnformatted": "+919977938776",
    "location": {
      "lat": 22.7152136,
      "lng": 75.9147174
    },
    "totalScore": 5,
    "permanentlyClosed": false,
    "temporarilyClosed": false,
    "placeId": "ChIJa0r8euPjYjkRCCK5D35gT7Y",
    "categories": [
      "Car rental agency"
    ],
    "reviewsCount": 20,
    "imagesCount": 14,
    "openingHours": [
      {
        "day": "Monday",
        "hours": "Open 24 hours"
      },
      {
        "day": "Tuesday",
        "hours": "Open 24 hours"
      },
      {
        "day": "Wednesday",
        "hours": "Open 24 hours"
      },
      {
        "day": "Thursday",
        "hours": "Open 24 hours"
      },
      {
        "day": "Friday",
        "hours": "Open 24 hours"
      },
      {
        "day": "Saturday",
        "hours": "Open 24 hours"
      },
      {
        "day": "Sunday",
        "hours": "Open 24 hours"
      }
    ],
    "imageUrl": "https://media.indianluxurycars.com/google/528f04b9eb58f237c5d74da46ef068f550ac03d3577f2bae573e65b506067262.jpg",
    "url": "https://www.google.com/maps/search/?api=1&query=Vaanya%20Travels%20and%20Self%20Drive%20Cars&query_place_id=ChIJa0r8euPjYjkRCCK5D35gT7Y"
  },
  {
    "title": "Yamaha Motor Showroom - Ratlam Motors",
    "subTitle": "ऐरन वेंचर्स यामाहा",
    "categoryName": "Motorcycle dealer",
    "address": "C-17, HIG Main Rd, opposite Christian Eminent School, Ambedkar Nagar, Indore, Madhya Pradesh 452011, India",
    "neighborhood": "Ambedkar Nagar",
    "street": "C-17, HIG Main Rd, opposite Christian Eminent School",
    "city": "Indore",
    "postalCode": "452011",
    "state": "Madhya Pradesh",
    "countryCode": "IN",
    "website": "https://www.instagram.com/ratlammotors_indore/",
    "phone": "+919630097320",
    "phoneUnformatted": "+919630097320",
    "location": {
      "lat": 22.735997,
      "lng": 75.8863439
    },
    "totalScore": 4.2,
    "permanentlyClosed": false,
    "temporarilyClosed": false,
    "placeId": "ChIJvzPtFkX9YjkRJC3EmOy5X5o",
    "categories": [
      "Motorcycle dealer",
      "Motor scooter dealer",
      "Motor scooter repair shop",
      "Motor vehicle dealer",
      "Motorcycle parts store",
      "Motorcycle repair shop",
      "Motorcycle shop"
    ],
    "reviewsCount": 1442,
    "imagesCount": 392,
    "openingHours": [
      {
        "day": "Monday",
        "hours": "10 AM to 7 PM"
      },
      {
        "day": "Tuesday",
        "hours": "10 AM to 7 PM"
      },
      {
        "day": "Wednesday",
        "hours": "10 AM to 7 PM"
      },
      {
        "day": "Thursday",
        "hours": "10 AM to 7 PM"
      },
      {
        "day": "Friday",
        "hours": "10 AM to 7 PM"
      },
      {
        "day": "Saturday",
        "hours": "10 AM to 7 PM"
      },
      {
        "day": "Sunday",
        "hours": "9 AM to 5 PM"
      }
    ],
    "imageUrl": "https://media.indianluxurycars.com/google/d0694cc8962bef2f0c61c49b1ebfa62f8dc28e3414cfbd73acc64b01d9b3d2fa.jpg",
    "url": "https://www.google.com/maps/search/?api=1&query=Yamaha%20Motor%20Showroom%20-%20Ratlam%20Motors&query_place_id=ChIJvzPtFkX9YjkRJC3EmOy5X5o"
  },
  {
    "title": "Yatra Car Rental Tour And Travels Indore",
    "subTitle": "यात्रा कार रेंटल टूर एंड ट्रैवल्स इंदौर",
    "categoryName": "Car rental agency",
    "address": "Second Floor, Office No. 202, Plot No. 18, Dhenu Market Rd, Meera Path, Shivaji Nagar, Indore, Madhya Pradesh 452003, India",
    "neighborhood": "Meera Path, Shivaji Nagar",
    "street": "Second Floor, Office No. 202, Plot No. 18, Dhenu Market Rd",
    "city": "Indore",
    "postalCode": "452003",
    "state": "Madhya Pradesh",
    "countryCode": "IN",
    "website": "https://yatracarrental.com/",
    "phone": "+919203403995",
    "phoneUnformatted": "+919203403995",
    "location": {
      "lat": 22.7213837,
      "lng": 75.872177
    },
    "totalScore": 4.8,
    "permanentlyClosed": false,
    "temporarilyClosed": false,
    "placeId": "ChIJxeyduyD9YjkRy9YXBfvDYc0",
    "categories": [
      "Car rental agency",
      "Bus tour agency",
      "Car leasing service",
      "Leasing service",
      "Minibus taxi service",
      "Rental car return location",
      "Taxi service",
      "Tour agency",
      "Travel agency",
      "Van rental agency"
    ],
    "reviewsCount": 38,
    "imagesCount": 389,
    "openingHours": [
      {
        "day": "Monday",
        "hours": "7 AM to 10 PM"
      },
      {
        "day": "Tuesday",
        "hours": "7 AM to 10 PM"
      },
      {
        "day": "Wednesday",
        "hours": "7 AM to 10 PM"
      },
      {
        "day": "Thursday",
        "hours": "7 AM to 10 PM"
      },
      {
        "day": "Friday",
        "hours": "7 AM to 10 PM"
      },
      {
        "day": "Saturday",
        "hours": "7 AM to 11 PM"
      },
      {
        "day": "Sunday",
        "hours": "7 AM to 10 PM"
      }
    ],
    "imageUrl": "https://media.indianluxurycars.com/google/cdc7619f24f5b064ab8daaed737d02c792097f623fe0c3cde4fd23892d1b4894.jpg",
    "url": "https://www.google.com/maps/search/?api=1&query=Yatra%20Car%20Rental%20Tour%20And%20Travels%20Indore&query_place_id=ChIJxeyduyD9YjkRy9YXBfvDYc0"
  },
  {
    "title": "YOGI TOUR AND TRAVELS",
    "categoryName": "Car rental agency",
    "address": "Scheme No , 140, Arnav Villa, Plot No-AO , 479, near MPEB POWER HOUSE, Indore, Madhya Pradesh 452001, India",
    "neighborhood": "Navratan Bagh",
    "street": "Scheme No , 140, Arnav Villa, Plot No-AO , 479, near MPEB POWER HOUSE",
    "city": "Indore",
    "postalCode": "452001",
    "state": "Madhya Pradesh",
    "countryCode": "IN",
    "website": "https://yogitourandtravles.com/",
    "phone": "+919201026003",
    "phoneUnformatted": "+919201026003",
    "location": {
      "lat": 22.7165418,
      "lng": 75.8861971
    },
    "totalScore": 5,
    "permanentlyClosed": false,
    "temporarilyClosed": false,
    "placeId": "ChIJf5iL6eLLESwRZtPbkNX7IGc",
    "categories": [
      "Car rental agency",
      "Air taxi",
      "Bus tour agency",
      "Taxi service",
      "Tour operator",
      "Tourist attraction",
      "Travel agency"
    ],
    "reviewsCount": 27,
    "imagesCount": 17,
    "openingHours": [],
    "imageUrl": "https://media.indianluxurycars.com/google/d36c8f6a2ccca905927afee8d1856cd3350575ab73f480336612f1425e101b1c.jpg",
    "url": "https://www.google.com/maps/search/?api=1&query=YOGI%20TOUR%20AND%20TRAVELS&query_place_id=ChIJf5iL6eLLESwRZtPbkNX7IGc"
  },
  {
    "title": "zaptrip.in",
    "subTitle": "ज़पत्रिप.इन",
    "categoryName": "Car rental agency",
    "address": "172, Ahilya Nagar, Scheme No 51, Indore, Madhya Pradesh 452006, India",
    "neighborhood": "Scheme No 51",
    "street": "172, Ahilya Nagar",
    "city": "Indore",
    "postalCode": "452006",
    "state": "Madhya Pradesh",
    "countryCode": "IN",
    "website": "http://zaptrip.in/",
    "phone": "+918103023467",
    "phoneUnformatted": "+918103023467",
    "location": {
      "lat": 22.7443429,
      "lng": 75.8373861
    },
    "totalScore": 5,
    "permanentlyClosed": false,
    "temporarilyClosed": false,
    "placeId": "ChIJb7PF_3X9YjkRjsacQZcD6O8",
    "categories": [
      "Car rental agency",
      "Car leasing service"
    ],
    "reviewsCount": 1,
    "imagesCount": 30,
    "openingHours": [
      {
        "day": "Monday",
        "hours": "9 AM to 5 PM"
      },
      {
        "day": "Tuesday",
        "hours": "9 AM to 5 PM"
      },
      {
        "day": "Wednesday",
        "hours": "9 AM to 5 PM"
      },
      {
        "day": "Thursday",
        "hours": "9 AM to 5 PM"
      },
      {
        "day": "Friday",
        "hours": "9 AM to 5 PM"
      },
      {
        "day": "Saturday",
        "hours": "9 AM to 5 PM"
      },
      {
        "day": "Sunday",
        "hours": "9 AM to 5 PM"
      }
    ],
    "imageUrl": "https://media.indianluxurycars.com/google/816930c5f87636f967ccee6e56c731e108bb191b5092be8f8a1b96d059581a48.jpg",
    "url": "https://www.google.com/maps/search/?api=1&query=zaptrip.in&query_place_id=ChIJb7PF_3X9YjkRjsacQZcD6O8"
  }
]
