[
  {
    "title": "Luxury Car Rental service jabalpur",
    "subTitle": "लक्जरी कार रेंटल सर्विस जबलपुर",
    "categoryName": "Car rental agency",
    "address": "F-18, Yashwar Nagar, Kanchan Vihar, Vijay Nagar, Jabalpur, Raksha, Madhya Pradesh 482002, India",
    "neighborhood": "Yashwar Nagar, Kanchan Vihar, Vijay Nagar",
    "street": "F-18",
    "city": "Jabalpur, Raksha",
    "postalCode": "482002",
    "state": "Madhya Pradesh",
    "countryCode": "IN",
    "website": "https://www.instagram.com/luxurycarrentalservicejabalpur?igsh=MXAwMXN1bGdhcXdqeg==",
    "location": {
      "lat": 23.1885876,
      "lng": 79.8998125
    },
    "totalScore": 5,
    "permanentlyClosed": false,
    "temporarilyClosed": false,
    "placeId": "ChIJZcdIDACxgTkRcCT1ilK6tAs",
    "categories": [
      "Car rental agency",
      "Car leasing service"
    ],
    "reviewsCount": 16,
    "imagesCount": 22,
    "openingHours": [
      {
        "day": "Monday",
        "hours": "Open 24 hours"
      },
      {
        "day": "Tuesday",
        "hours": "Open 24 hours"
      },
      {
        "day": "Wednesday",
        "hours": "Open 24 hours"
      },
      {
        "day": "Thursday",
        "hours": "Open 24 hours"
      },
      {
        "day": "Friday",
        "hours": "Open 24 hours"
      },
      {
        "day": "Saturday",
        "hours": "Open 24 hours"
      },
      {
        "day": "Sunday",
        "hours": "Open 24 hours"
      }
    ],
    "imageUrl": "https://media.indianluxurycars.com/google/ab4267b5ae2f81dd0e53dceb06c352b7d0e149c61fc50c5c5fa18b9024c60f98.jpg",
    "url": "https://www.google.com/maps/search/?api=1&query=Luxury%20Car%20Rental%20service%20jabalpur&query_place_id=ChIJZcdIDACxgTkRcCT1ilK6tAs"
  },
  {
    "title": "Sanskardhani Car Rental in Jabalpur - Taxi Service in Jabalpur",
    "subTitle": "संस्कारधानी कार रेंटल इन जबलपुर - टैक्सी सर्विस इन जबलपुर",
    "categoryName": "Car rental agency",
    "address": "House No 1123, sanatan chowk, in front of anushree beauty parlour, Vijay Nagar, Jabalpur, Raksha, Madhya Pradesh 482002, India",
    "neighborhood": "Vijay Nagar",
    "street": "House No 1123, sanatan chowk, in front of anushree beauty parlour",
    "city": "Jabalpur, Raksha",
    "postalCode": "482002",
    "state": "Madhya Pradesh",
    "countryCode": "IN",
    "website": "https://www.sanskardhanitourtravel.in/",
    "phone": "+919340004008",
    "phoneUnformatted": "+919340004008",
    "location": {
      "lat": 23.1836632,
      "lng": 79.9057241
    },
    "totalScore": 5,
    "permanentlyClosed": false,
    "temporarilyClosed": false,
    "placeId": "ChIJXazRz2NwYCARu5bpuxd4UEE",
    "categories": [
      "Car rental agency",
      "Car leasing service",
      "Taxi service",
      "Tour operator",
      "Transportation service",
      "Travel agency"
    ],
    "reviewsCount": 45,
    "imagesCount": 28,
    "openingHours": [
      {
        "day": "Monday",
        "hours": "Open 24 hours"
      },
      {
        "day": "Tuesday",
        "hours": "Open 24 hours"
      },
      {
        "day": "Wednesday",
        "hours": "Open 24 hours"
      },
      {
        "day": "Thursday",
        "hours": "Open 24 hours"
      },
      {
        "day": "Friday",
        "hours": "Open 24 hours"
      },
      {
        "day": "Saturday",
        "hours": "Open 24 hours"
      },
      {
        "day": "Sunday",
        "hours": "Open 24 hours"
      }
    ],
    "imageUrl": "https://media.indianluxurycars.com/google/bd378eace689b8d022ebcfe0012fcdc9711fd81b8063387cc54bed88849016c0.jpg",
    "url": "https://www.google.com/maps/search/?api=1&query=Sanskardhani%20Car%20Rental%20in%20Jabalpur%20-%20Taxi%20Service%20in%20Jabalpur&query_place_id=ChIJXazRz2NwYCARu5bpuxd4UEE"
  },
  {
    "title": "Self Drive Cars - JCR - Jabalpur Car Rental",
    "subTitle": "सेल्फ ड्राइव कार्स - जेसीआर - जबलपुर कार रेंटल",
    "categoryName": "Car rental agency",
    "address": "2nd floor, Shri Balaji Heights, beside Petrol pump, Karmeta, Jabalpur, Raksha, Madhya Pradesh 482002, India",
    "neighborhood": "Karmeta",
    "street": "2nd floor, Shri Balaji Heights, beside Petrol pump",
    "city": "Jabalpur, Raksha",
    "postalCode": "482002",
    "state": "Madhya Pradesh",
    "countryCode": "IN",
    "website": "https://jabalpurcarrental.com/",
    "phone": "+917804898331",
    "phoneUnformatted": "+917804898331",
    "location": {
      "lat": 23.194656,
      "lng": 79.9131627
    },
    "totalScore": 4.2,
    "permanentlyClosed": false,
    "temporarilyClosed": false,
    "placeId": "ChIJjexgErmvgTkR3j4PDD7L9qI",
    "categories": [
      "Car rental agency",
      "BMW dealer",
      "Car leasing service",
      "Taxi service",
      "Tour operator",
      "Travel agency"
    ],
    "reviewsCount": 13,
    "imagesCount": 24,
    "openingHours": [
      {
        "day": "Monday",
        "hours": "11 AM to 6 PM"
      },
      {
        "day": "Tuesday",
        "hours": "11 AM to 6 PM"
      },
      {
        "day": "Wednesday",
        "hours": "11 AM to 6 PM"
      },
      {
        "day": "Thursday",
        "hours": "11 AM to 6 PM"
      },
      {
        "day": "Friday",
        "hours": "11 AM to 6 PM"
      },
      {
        "day": "Saturday",
        "hours": "11 AM to 6 PM"
      },
      {
        "day": "Sunday",
        "hours": "Closed"
      }
    ],
    "imageUrl": "https://media.indianluxurycars.com/google/710ea2ab205e6c23fb2e8a8dafc0404373e48aed09e9ff817315ec117f9029ed.png",
    "url": "https://www.google.com/maps/search/?api=1&query=Self%20Drive%20Cars%20-%20JCR%20-%20Jabalpur%20Car%20Rental&query_place_id=ChIJjexgErmvgTkR3j4PDD7L9qI"
  },
  {
    "title": "The new auto park",
    "subTitle": "द न्यू ऑटो पार्क",
    "categoryName": "Used car dealer",
    "address": "Deendayal bus stand, Karmeta, Jabalpur, Raksha, Madhya Pradesh 482002, India",
    "neighborhood": "Karmeta",
    "street": "Deendayal bus stand",
    "city": "Jabalpur, Raksha",
    "postalCode": "482002",
    "state": "Madhya Pradesh",
    "countryCode": "IN",
    "location": {
      "lat": 23.193741,
      "lng": 79.9146092
    },
    "totalScore": 4.5,
    "permanentlyClosed": false,
    "temporarilyClosed": false,
    "placeId": "ChIJ1VPvAqWxgTkRtuTfOLhYs5Q",
    "categories": [
      "Used car dealer"
    ],
    "reviewsCount": 4,
    "imagesCount": 9,
    "openingHours": [
      {
        "day": "Monday",
        "hours": "9 AM to 8 PM"
      },
      {
        "day": "Tuesday",
        "hours": "9 AM to 8 PM"
      },
      {
        "day": "Wednesday",
        "hours": "9 AM to 8 PM"
      },
      {
        "day": "Thursday",
        "hours": "9 AM to 8 PM"
      },
      {
        "day": "Friday",
        "hours": "9 AM to 8 PM"
      },
      {
        "day": "Saturday",
        "hours": "Closed"
      },
      {
        "day": "Sunday",
        "hours": "9 AM to 8 PM"
      }
    ],
    "imageUrl": "https://media.indianluxurycars.com/google/29f384dab052db6166e59be482a6f5e6a651e4c5c3b4a03c43f76197ce5a32cd.jpg",
    "url": "https://www.google.com/maps/search/?api=1&query=The%20new%20auto%20park&query_place_id=ChIJ1VPvAqWxgTkRtuTfOLhYs5Q"
  }
]
