[
  {
    "title": "\"The Auto Choice\" Used Car Showroom",
    "subTitle": "\"थे ऑटो चॉइस\" यूज्ड कार शोरूम",
    "categoryName": "Used car dealer",
    "address": "5W8F+C4V, Wright Town, Jabalpur, Madhya Pradesh 482002, India",
    "neighborhood": "Wright Town",
    "street": "5W8F+C4V",
    "city": "Jabalpur",
    "postalCode": "482002",
    "state": "Madhya Pradesh",
    "countryCode": "IN",
    "phone": "+918602228333",
    "phoneUnformatted": "+918602228333",
    "location": {
      "lat": 23.1661222,
      "lng": 79.922788
    },
    "totalScore": 3.9,
    "permanentlyClosed": false,
    "temporarilyClosed": false,
    "placeId": "ChIJ3Xd_RpWvgTkROHhOSutSKsU",
    "categories": [
      "Used car dealer"
    ],
    "reviewsCount": 35,
    "imagesCount": 73,
    "openingHours": [
      {
        "day": "Monday",
        "hours": "11 AM to 9 PM"
      },
      {
        "day": "Tuesday",
        "hours": "11 AM to 9 PM"
      },
      {
        "day": "Wednesday",
        "hours": "11 AM to 9 PM"
      },
      {
        "day": "Thursday",
        "hours": "11 AM to 9 PM"
      },
      {
        "day": "Friday",
        "hours": "11 AM to 9 PM"
      },
      {
        "day": "Saturday",
        "hours": "11 AM to 9 PM"
      },
      {
        "day": "Sunday",
        "hours": "11 AM to 9 PM"
      }
    ],
    "imageUrl": "https://media.indianluxurycars.com/google/2daaab890439f713934427b8820e3b5382c7eed5cfd835e66b3656866757c0af.jpg",
    "url": "https://www.google.com/maps/search/?api=1&query=%22The%20Auto%20Choice%22%20Used%20Car%20Showroom&query_place_id=ChIJ3Xd_RpWvgTkROHhOSutSKsU"
  },
  {
    "title": "Amit Travels-Car Rental In Jabalpur",
    "subTitle": "अमित ट्रेवल्स-कार रेंटल इन जबलपुर",
    "categoryName": "Car rental agency",
    "address": "Niranjan Vihar, university road, South Civil Lines, Pachpedi, South Civil Lines, Jabalpur, Madhya Pradesh 482001, India",
    "neighborhood": "South Civil Lines, Pachpedi, South Civil Lines",
    "street": "Niranjan Vihar, university road",
    "city": "Jabalpur",
    "postalCode": "482001",
    "state": "Madhya Pradesh",
    "countryCode": "IN",
    "website": "http://www.amittravelsjbp.in/",
    "phone": "+919752477577",
    "phoneUnformatted": "+919752477577",
    "location": {
      "lat": 23.1596771,
      "lng": 79.9722136
    },
    "totalScore": 5,
    "permanentlyClosed": false,
    "temporarilyClosed": false,
    "placeId": "ChIJ2f3AUYe11YYRRAMqVh0xN7o",
    "categories": [
      "Car rental agency",
      "Taxi service"
    ],
    "reviewsCount": 211,
    "imagesCount": 43,
    "openingHours": [
      {
        "day": "Monday",
        "hours": "Open 24 hours"
      },
      {
        "day": "Tuesday",
        "hours": "Open 24 hours"
      },
      {
        "day": "Wednesday",
        "hours": "Open 24 hours"
      },
      {
        "day": "Thursday",
        "hours": "Open 24 hours"
      },
      {
        "day": "Friday",
        "hours": "Open 24 hours"
      },
      {
        "day": "Saturday",
        "hours": "Open 24 hours"
      },
      {
        "day": "Sunday",
        "hours": "Open 24 hours"
      }
    ],
    "imageUrl": "https://media.indianluxurycars.com/google/3bb07c0e7a4f2d578ef5ac74a2899f724ec28ed32a904b0f5d77bbe2afe17a53.png",
    "url": "https://www.google.com/maps/search/?api=1&query=Amit%20Travels-Car%20Rental%20In%20Jabalpur&query_place_id=ChIJ2f3AUYe11YYRRAMqVh0xN7o"
  },
  {
    "title": "Anmol Hyundai car showroom",
    "subTitle": "अनमोल हुंडई कार शोरूम",
    "categoryName": "Car dealer",
    "address": "R.R and Sons Vehicles Pvt Ltd Anmol Hyundai Besides Kartik Hotel opp Methodist Centre near Tayyabali Petrol Pump Contact-9753299455, Jabalpur, Madhya Pradesh 482002, India",
    "neighborhood": "Naya Mohalla",
    "street": "R.R and Sons Vehicles Pvt Ltd Anmol Hyundai Besides Kartik Hotel opp Methodist Centre near Tayyabali Petrol Pump Contact-9753299455",
    "city": "Jabalpur",
    "postalCode": "482002",
    "state": "Madhya Pradesh",
    "countryCode": "IN",
    "website": "http://anmol.hyundaimotor.in/",
    "phone": "+919753299455",
    "phoneUnformatted": "+919753299455",
    "location": {
      "lat": 23.16652,
      "lng": 79.9383
    },
    "totalScore": 4.9,
    "permanentlyClosed": false,
    "temporarilyClosed": false,
    "placeId": "ChIJp3AGiA2ugTkRAr0sA7IkdHo",
    "categories": [
      "Car dealer"
    ],
    "reviewsCount": 2193,
    "imagesCount": 162,
    "openingHours": [
      {
        "day": "Monday",
        "hours": "9:30 AM to 7 PM"
      },
      {
        "day": "Tuesday",
        "hours": "9:30 AM to 7 PM"
      },
      {
        "day": "Wednesday",
        "hours": "9:30 AM to 7 PM"
      },
      {
        "day": "Thursday",
        "hours": "9:30 AM to 7 PM"
      },
      {
        "day": "Friday",
        "hours": "9:30 AM to 7 PM"
      },
      {
        "day": "Saturday",
        "hours": "Closed"
      },
      {
        "day": "Sunday",
        "hours": "9:30 AM to 7 PM"
      }
    ],
    "imageUrl": "https://media.indianluxurycars.com/google/573130ea599a9ce9df444a7950094bde1435cf055374f20fe60ebdf35a6c90c9.jpg",
    "url": "https://www.google.com/maps/search/?api=1&query=Anmol%20Hyundai%20car%20showroom&query_place_id=ChIJp3AGiA2ugTkRAr0sA7IkdHo"
  },
  {
    "title": "Cab Booking Jabalpur Yash Tours and Travels",
    "subTitle": "कैब बुकिंग जबलपुर यश टूर्स एंड ट्रैवल्स",
    "categoryName": "Car leasing service",
    "address": "Bunglow No.5, Narmada Rd, Sadar, Cantt, Jabalpur, Madhya Pradesh 482001, India",
    "neighborhood": "Sadar, Cantt",
    "street": "Bunglow No.5, Narmada Rd",
    "city": "Jabalpur",
    "postalCode": "482001",
    "state": "Madhya Pradesh",
    "countryCode": "IN",
    "phone": "+917898948999",
    "phoneUnformatted": "+917898948999",
    "location": {
      "lat": 23.1494266,
      "lng": 79.9331262
    },
    "totalScore": 4.8,
    "permanentlyClosed": false,
    "temporarilyClosed": false,
    "placeId": "ChIJZ7afc06tgTkR4SUYtzO4LAw",
    "categories": [
      "Car leasing service",
      "Taxi service"
    ],
    "reviewsCount": 30,
    "imagesCount": 2,
    "openingHours": [],
    "imageUrl": "https://media.indianluxurycars.com/google/833afec55e528b48376b45d29848c6e04ba6d289f96a9a8a5215c29d5b4348ae.jpg",
    "url": "https://www.google.com/maps/search/?api=1&query=Cab%20Booking%20Jabalpur%20Yash%20Tours%20and%20Travels&query_place_id=ChIJZ7afc06tgTkR4SUYtzO4LAw"
  },
  {
    "title": "Car rental in Jabalpur Mamta Travels",
    "subTitle": "कार रेंटल इन जबलपुर ममता ट्रैवल्स",
    "categoryName": "Car rental agency",
    "address": "HOUSE NUMBER 1033, Kanchgar Nai Basti Rd, behind ISAI KABRISTAN, KanchGhar, Jabalpur, Madhya Pradesh 482001, India",
    "neighborhood": "KanchGhar",
    "street": "HOUSE NUMBER 1033, Kanchgar Nai Basti Rd, behind ISAI KABRISTAN",
    "city": "Jabalpur",
    "postalCode": "482001",
    "state": "Madhya Pradesh",
    "countryCode": "IN",
    "phone": "+919827092127",
    "phoneUnformatted": "+919827092127",
    "location": {
      "lat": 23.1755994,
      "lng": 79.959729
    },
    "totalScore": 4.5,
    "permanentlyClosed": false,
    "temporarilyClosed": false,
    "placeId": "ChIJ3zxtI4OvgTkRBb3w-4tUeu0",
    "categories": [
      "Car rental agency"
    ],
    "reviewsCount": 52,
    "imagesCount": 47,
    "openingHours": [
      {
        "day": "Monday",
        "hours": "10 AM to 9 PM"
      },
      {
        "day": "Tuesday",
        "hours": "10 AM to 9 PM"
      },
      {
        "day": "Wednesday",
        "hours": "10 AM to 9 PM"
      },
      {
        "day": "Thursday",
        "hours": "10 AM to 9 PM"
      },
      {
        "day": "Friday",
        "hours": "10 AM to 9 PM"
      },
      {
        "day": "Saturday",
        "hours": "10 AM to 9 PM"
      },
      {
        "day": "Sunday",
        "hours": "10 AM to 9 PM"
      }
    ],
    "imageUrl": "https://media.indianluxurycars.com/google/474d29634669f0ab44f192f24bddfb363afbacd9edc40f1b615c3239f503b24f.jpg",
    "url": "https://www.google.com/maps/search/?api=1&query=Car%20rental%20in%20Jabalpur%20Mamta%20Travels&query_place_id=ChIJ3zxtI4OvgTkRBb3w-4tUeu0"
  },
  {
    "title": "Gautamji Taxi Services Jabalpur - Car Rental in Jabalpur ,Taxi service , Cab Booking Services In Jabalpur",
    "subTitle": "गौतम जी टैक्सी सर्विसेस जबलपुर - कार रेंटल इन जबलपुर ,टैक्सी सर्विस , कैब बुकिंग सर्विसेस इन जबलपुर",
    "categoryName": "Car rental agency",
    "address": "House no 75, Garha Medical, gurati colony, near radha mandir, ganga nagar, Shatabdipuram Phase 2, Jabalpur, Madhya Pradesh 482003, India",
    "neighborhood": "ganga nagar, Shatabdipuram Phase 2",
    "street": "House no 75, Garha Medical, gurati colony, near radha mandir",
    "city": "Jabalpur",
    "postalCode": "482003",
    "state": "Madhya Pradesh",
    "countryCode": "IN",
    "website": "https://gautamjitravels.com/",
    "phone": "+919407822587",
    "phoneUnformatted": "+919407822587",
    "location": {
      "lat": 23.1763073,
      "lng": 79.9081194
    },
    "totalScore": 4.9,
    "permanentlyClosed": false,
    "temporarilyClosed": false,
    "placeId": "ChIJLwjHcJixgTkRWivlEYFWQ2o",
    "categories": [
      "Car rental agency",
      "Car leasing service",
      "Taxi service",
      "Transportation service",
      "Travel agency"
    ],
    "reviewsCount": 248,
    "imagesCount": 34,
    "openingHours": [],
    "imageUrl": "https://media.indianluxurycars.com/google/8019de9302e85e781b47a71ef69eeaea82d6bd69dc261673245385e0e7f3dfb0.jpg",
    "url": "https://www.google.com/maps/search/?api=1&query=Gautamji%20Taxi%20Services%20Jabalpur%20-%20Car%20Rental%20in%20Jabalpur%20%2CTaxi%20service%20%2C%20Cab%20Booking%20Services%20In%20Jabalpur&query_place_id=ChIJLwjHcJixgTkRWivlEYFWQ2o"
  },
  {
    "title": "Go Taxi Jabalpur",
    "subTitle": "गो टैक्सी जबलपुर",
    "categoryName": "Car rental agency",
    "address": "Shop No 02, beside Petrol Pump, Dwarka Nagar Ward, Govindh Bhavan Colony, South Civil Lines, Jabalpur, Madhya Pradesh 482001, India",
    "neighborhood": "Dwarka Nagar Ward, Govindh Bhavan Colony, South Civil Lines",
    "street": "Shop No 02, beside Petrol Pump",
    "city": "Jabalpur",
    "postalCode": "482001",
    "state": "Madhya Pradesh",
    "countryCode": "IN",
    "phone": "+917722900823",
    "phoneUnformatted": "+917722900823",
    "location": {
      "lat": 23.1620678,
      "lng": 79.963004
    },
    "totalScore": 5,
    "permanentlyClosed": false,
    "temporarilyClosed": false,
    "placeId": "ChIJu20skndYVyYRxjS_A-1jggk",
    "categories": [
      "Car rental agency",
      "Car leasing service",
      "Taxi service",
      "Tour operator",
      "Transportation service"
    ],
    "reviewsCount": 23,
    "imagesCount": 32,
    "openingHours": [],
    "imageUrl": "https://media.indianluxurycars.com/google/32e96cb12b5adca9399f4db315c9be9a098493a22fc4cb133008ff1bf4f46c4b.jpg",
    "url": "https://www.google.com/maps/search/?api=1&query=Go%20Taxi%20Jabalpur&query_place_id=ChIJu20skndYVyYRxjS_A-1jggk"
  },
  {
    "title": "Gupta Travels - Taxi Service",
    "subTitle": "गुप्ता ट्रेवल्स - टैक्सी सर्विस",
    "categoryName": "Car leasing service",
    "address": "Shop no7, First floor Delight Talkies Compound, South Civil Lines, Jabalpur, Madhya Pradesh 482001, India",
    "neighborhood": "Prestige Town, South Civil Lines",
    "street": "Shop no7, First floor Delight Talkies Compound",
    "city": "Jabalpur",
    "postalCode": "482001",
    "state": "Madhya Pradesh",
    "countryCode": "IN",
    "website": "http://www.guptatravelsjabalpur.com/",
    "phone": "+919301204783",
    "phoneUnformatted": "+919301204783",
    "location": {
      "lat": 23.1631399,
      "lng": 79.954933
    },
    "totalScore": 4.5,
    "permanentlyClosed": false,
    "temporarilyClosed": false,
    "placeId": "ChIJH9S6oXCugTkRkkeOE_40hHc",
    "categories": [
      "Car leasing service",
      "Bus tour agency",
      "Taxi service",
      "Travel agency"
    ],
    "reviewsCount": 614,
    "imagesCount": 89,
    "openingHours": [],
    "imageUrl": "https://media.indianluxurycars.com/google/48e5766912a8e4031be0a2493d3d7f12e9ef87f9aba316de7885938666116cfa.jpg",
    "url": "https://www.google.com/maps/search/?api=1&query=Gupta%20Travels%20-%20Taxi%20Service&query_place_id=ChIJH9S6oXCugTkRkkeOE_40hHc"
  },
  {
    "title": "Jabalpur Car Bazar",
    "subTitle": "जबलपुर कार बाजार",
    "categoryName": "Used car dealer",
    "address": "ke samne, Bhawani Complex, near Idbi bank, Wright Town, Jabalpur, Madhya Pradesh 482002, India",
    "neighborhood": "Wright Town",
    "street": "ke samne, Bhawani Complex, near Idbi bank",
    "city": "Jabalpur",
    "postalCode": "482002",
    "state": "Madhya Pradesh",
    "countryCode": "IN",
    "phone": "+919300002872",
    "phoneUnformatted": "+919300002872",
    "location": {
      "lat": 23.1641757,
      "lng": 79.9298596
    },
    "totalScore": 3.8,
    "permanentlyClosed": false,
    "temporarilyClosed": false,
    "placeId": "ChIJZ4b8E5evgTkRMxbgOQdowx0",
    "categories": [
      "Used car dealer"
    ],
    "reviewsCount": 68,
    "imagesCount": 42,
    "openingHours": [],
    "imageUrl": "https://media.indianluxurycars.com/google/d8a226bf9eb2d9945b41c4171c4e6dd7461c04b7b6852cd8d144336ebfd1fa0e.jpg",
    "url": "https://www.google.com/maps/search/?api=1&query=Jabalpur%20Car%20Bazar&query_place_id=ChIJZ4b8E5evgTkRMxbgOQdowx0"
  },
  {
    "title": "Jabalpur Car Hub",
    "subTitle": "जबलपुर कार हब",
    "categoryName": "Used car dealer",
    "address": "The Detailing Mafia, Bandariya Tiraha, near Ojas Imperia, Ratan Colony, Gorakhpur, Jabalpur, Madhya Pradesh 482001, India",
    "neighborhood": "Ratan Colony, Gorakhpur",
    "street": "The Detailing Mafia, Bandariya Tiraha, near Ojas Imperia",
    "city": "Jabalpur",
    "postalCode": "482001",
    "state": "Madhya Pradesh",
    "countryCode": "IN",
    "website": "https://sites.google.com/view/jabalpurcarhub",
    "location": {
      "lat": 23.1463212,
      "lng": 79.9268926
    },
    "totalScore": 5,
    "permanentlyClosed": false,
    "temporarilyClosed": true,
    "placeId": "ChIJQWslnKe1gTkRolngGNWMhvo",
    "categories": [
      "Used car dealer"
    ],
    "reviewsCount": 1,
    "imagesCount": 9,
    "openingHours": [],
    "imageUrl": "https://media.indianluxurycars.com/google/9a4a71748661a43275a84466d6f16fbaa4611b27a76c7039e9fb8f433d63cc67.jpg",
    "url": "https://www.google.com/maps/search/?api=1&query=Jabalpur%20Car%20Hub&query_place_id=ChIJQWslnKe1gTkRolngGNWMhvo"
  },
  {
    "title": "Kashyap Tours & Travels",
    "subTitle": "कश्यप टूर्स & ट्रैवल्स",
    "categoryName": "Car rental agency",
    "address": "653, Street, no 19, Shanti Nagar Rd, Damoh Naka, Jabalpur, Madhya Pradesh 482003, India",
    "neighborhood": "Damoh Naka, Sanjeevani Nagar",
    "street": "653, Street, no 19, Shanti Nagar Rd",
    "city": "Jabalpur",
    "postalCode": "482003",
    "state": "Madhya Pradesh",
    "countryCode": "IN",
    "website": "https://digitalcarddy.com/Kashyap--Tours--Travels",
    "phone": "+919630714543",
    "phoneUnformatted": "+919630714543",
    "location": {
      "lat": 23.1666783,
      "lng": 79.8980539
    },
    "totalScore": 4.3,
    "permanentlyClosed": false,
    "temporarilyClosed": false,
    "placeId": "ChIJs2oWamSugTkRaZlDT98Y-FQ",
    "categories": [
      "Car rental agency",
      "Bus company",
      "Bus tour agency",
      "Car leasing service",
      "Travel agency",
      "Sightseeing tour agency",
      "Taxi service",
      "Tour operator"
    ],
    "reviewsCount": 109,
    "imagesCount": 82,
    "openingHours": [
      {
        "day": "Monday",
        "hours": "Open 24 hours"
      },
      {
        "day": "Tuesday",
        "hours": "Open 24 hours"
      },
      {
        "day": "Wednesday",
        "hours": "Open 24 hours"
      },
      {
        "day": "Thursday",
        "hours": "Open 24 hours"
      },
      {
        "day": "Friday",
        "hours": "Open 24 hours"
      },
      {
        "day": "Saturday",
        "hours": "Open 24 hours"
      },
      {
        "day": "Sunday",
        "hours": "Open 24 hours"
      }
    ],
    "imageUrl": "https://media.indianluxurycars.com/google/560800eb896dd2d9b66dc49c3372ed6720fa9b09b391ce580ad9176f2eb128f8.jpg",
    "url": "https://www.google.com/maps/search/?api=1&query=Kashyap%20Tours%20%26%20Travels&query_place_id=ChIJs2oWamSugTkRaZlDT98Y-FQ"
  },
  {
    "title": "NEXA (Standard Motocorp, Jabalpur, Civil Lines)",
    "subTitle": "नेक्सा (स्टैंडर्ड मोटोकॉर्प, जबलपुर, सिविल लाइंस)",
    "categoryName": "Car dealer",
    "address": "1745 SUBHASH CHANDRA BANNERJI, WARD NO.51 NEAR G. S. COLLEGE, SAI BABA MANDIR ROAD, SOUTH CIVIL LINE, Jabalpur, Madhya Pradesh 482001, India",
    "neighborhood": "Govindh Bhavan Colony, South Civil Lines",
    "street": "1745 SUBHASH CHANDRA BANNERJI, WARD NO.51 NEAR G. S. COLLEGE, SAI BABA MANDIR ROAD, SOUTH CIVIL LINE",
    "city": "Jabalpur",
    "postalCode": "482001",
    "state": "Madhya Pradesh",
    "countryCode": "IN",
    "website": "http://www.nexaofcivillines.com/?utm_source=gmb&utm_medium=google&utm_campaign=seo-local",
    "phone": "+918062512807",
    "phoneUnformatted": "+918062512807",
    "location": {
      "lat": 23.1631055,
      "lng": 79.9583385
    },
    "totalScore": 4.8,
    "permanentlyClosed": false,
    "temporarilyClosed": false,
    "placeId": "ChIJ_fCuhH2ugTkRzO0Fato0vwE",
    "categories": [
      "Car dealer"
    ],
    "reviewsCount": 2771,
    "imagesCount": 360,
    "openingHours": [
      {
        "day": "Monday",
        "hours": "9:30 AM to 8:30 PM"
      },
      {
        "day": "Tuesday",
        "hours": "9:30 AM to 8:30 PM"
      },
      {
        "day": "Wednesday",
        "hours": "9:30 AM to 8:30 PM"
      },
      {
        "day": "Thursday",
        "hours": "9:30 AM to 8:30 PM"
      },
      {
        "day": "Friday",
        "hours": "9:30 AM to 8:30 PM"
      },
      {
        "day": "Saturday",
        "hours": "Closed"
      },
      {
        "day": "Sunday",
        "hours": "9:30 AM to 8:30 PM"
      }
    ],
    "imageUrl": "https://media.indianluxurycars.com/google/f3a9a9707700ca8481fc44122112733a257d812668bdd82ab0b4acb6044eb495.jpg",
    "url": "https://www.google.com/maps/search/?api=1&query=NEXA%20(Standard%20Motocorp%2C%20Jabalpur%2C%20Civil%20Lines)&query_place_id=ChIJ_fCuhH2ugTkRzO0Fato0vwE"
  },
  {
    "title": "Sai Car Accessories - Seat Cover/Matting/Music System in Jabalpur",
    "subTitle": "साई कार",
    "categoryName": "Car accessories store",
    "address": "2108, MLB Rd, Wright Town, Jabalpur, Madhya Pradesh 482002, India",
    "neighborhood": "Wright Town",
    "street": "2108, MLB Rd",
    "city": "Jabalpur",
    "postalCode": "482002",
    "state": "Madhya Pradesh",
    "countryCode": "IN",
    "phone": "+917509811122",
    "phoneUnformatted": "+917509811122",
    "location": {
      "lat": 23.1641939,
      "lng": 79.9301968
    },
    "totalScore": 4.8,
    "permanentlyClosed": false,
    "temporarilyClosed": false,
    "placeId": "ChIJD9TQYgWugTkRbpqbWNfL3YU",
    "categories": [
      "Car accessories store"
    ],
    "reviewsCount": 53,
    "imagesCount": 39,
    "openingHours": [
      {
        "day": "Monday",
        "hours": "10 AM to 9 PM"
      },
      {
        "day": "Tuesday",
        "hours": "10 AM to 9 PM"
      },
      {
        "day": "Wednesday",
        "hours": "10 AM to 9 PM"
      },
      {
        "day": "Thursday",
        "hours": "10 AM to 9 PM"
      },
      {
        "day": "Friday",
        "hours": "10 AM to 9 PM"
      },
      {
        "day": "Saturday",
        "hours": "10 AM to 9 PM"
      },
      {
        "day": "Sunday",
        "hours": "10 AM to 9 PM"
      }
    ],
    "imageUrl": "https://media.indianluxurycars.com/google/91eb7bcdf74433acea8794281defbd54ece373ca3ca14b3e643c5efac51fcda6.jpg",
    "url": "https://www.google.com/maps/search/?api=1&query=Sai%20Car%20Accessories%20-%20Seat%20Cover%2FMatting%2FMusic%20System%20in%20Jabalpur&query_place_id=ChIJD9TQYgWugTkRbpqbWNfL3YU"
  },
  {
    "title": "SATGURU TRAVELS",
    "subTitle": "सत्गुरु ट्रैवल्स",
    "categoryName": "Car leasing service",
    "address": "Shop no 11 , model road dana godam, Jabalpur, Madhya Pradesh 482002, India",
    "neighborhood": "Napier Town",
    "street": "Shop no 11 , model road dana godam",
    "city": "Jabalpur",
    "postalCode": "482002",
    "state": "Madhya Pradesh",
    "countryCode": "IN",
    "phone": "+919300107963",
    "phoneUnformatted": "+919300107963",
    "location": {
      "lat": 23.1633955,
      "lng": 79.9312341
    },
    "totalScore": 4.6,
    "permanentlyClosed": false,
    "temporarilyClosed": false,
    "placeId": "ChIJO-FvK5ivgTkRT5somQTTJ_w",
    "categories": [
      "Car leasing service",
      "Taxi service",
      "Travel agency"
    ],
    "reviewsCount": 11,
    "imagesCount": 22,
    "openingHours": [
      {
        "day": "Monday",
        "hours": "Open 24 hours"
      },
      {
        "day": "Tuesday",
        "hours": "Open 24 hours"
      },
      {
        "day": "Wednesday",
        "hours": "Open 24 hours"
      },
      {
        "day": "Thursday",
        "hours": "Open 24 hours"
      },
      {
        "day": "Friday",
        "hours": "Open 24 hours"
      },
      {
        "day": "Saturday",
        "hours": "Open 24 hours"
      },
      {
        "day": "Sunday",
        "hours": "Open 24 hours"
      }
    ],
    "imageUrl": "https://media.indianluxurycars.com/google/5a9dfd160da4e691f9504ac3ab0bd936e1bb7ef41dad1fc06c37f4693777a311.jpg",
    "url": "https://www.google.com/maps/search/?api=1&query=SATGURU%20TRAVELS&query_place_id=ChIJO-FvK5ivgTkRT5somQTTJ_w"
  },
  {
    "title": "Self drive rental car & bike",
    "subTitle": "सेल्फ ड्राइव रेंटल कार & बाइक",
    "categoryName": "Car rental agency",
    "address": "Teen patti, bus stand, Captainganj, Napier Town, Jabalpur, Madhya Pradesh 482001, India",
    "neighborhood": "Captainganj, Napier Town",
    "street": "Teen patti, bus stand",
    "city": "Jabalpur",
    "postalCode": "482001",
    "state": "Madhya Pradesh",
    "countryCode": "IN",
    "location": {
      "lat": 23.1591249,
      "lng": 79.9296762
    },
    "permanentlyClosed": false,
    "temporarilyClosed": true,
    "placeId": "ChIJMahvKT2xgTkR2vcyvwxrduo",
    "categories": [
      "Car rental agency"
    ],
    "imagesCount": 1,
    "openingHours": [],
    "imageUrl": "https://media.indianluxurycars.com/google/a72e15de3cdb274d581a4ec528d4e204475d207bd08653ff6c668d3bcd82b383.jpg",
    "url": "https://www.google.com/maps/search/?api=1&query=Self%20drive%20rental%20car%20%26%20bike&query_place_id=ChIJMahvKT2xgTkR2vcyvwxrduo"
  },
  {
    "title": "Standard Journey - Self Drive Car in Jabalpur",
    "subTitle": "स्टैण्डर्ड जर्नी - सेल्फ ड्राइव कार इन जबलपुर",
    "categoryName": "Car rental agency",
    "address": "21, Narmada Rd, Adarsh Nagar, Rampur, Jabalpur, Madhya Pradesh 482001, India",
    "neighborhood": "Adarsh Nagar, Rampur",
    "street": "21, Narmada Rd",
    "city": "Jabalpur",
    "postalCode": "482001",
    "state": "Madhya Pradesh",
    "countryCode": "IN",
    "phone": "+918878135555",
    "phoneUnformatted": "+918878135555",
    "location": {
      "lat": 23.1328741,
      "lng": 79.9280301
    },
    "totalScore": 4.8,
    "permanentlyClosed": false,
    "temporarilyClosed": false,
    "placeId": "ChIJDaJDIxutgTkRqVYL3S6a3xA",
    "categories": [
      "Car rental agency",
      "Auto broker",
      "Car dealer"
    ],
    "reviewsCount": 154,
    "imagesCount": 79,
    "openingHours": [
      {
        "day": "Monday",
        "hours": "Open 24 hours"
      },
      {
        "day": "Tuesday",
        "hours": "Open 24 hours"
      },
      {
        "day": "Wednesday",
        "hours": "Open 24 hours"
      },
      {
        "day": "Thursday",
        "hours": "Open 24 hours"
      },
      {
        "day": "Friday",
        "hours": "Open 24 hours"
      },
      {
        "day": "Saturday",
        "hours": "Open 24 hours"
      },
      {
        "day": "Sunday",
        "hours": "Open 24 hours"
      }
    ],
    "imageUrl": "https://media.indianluxurycars.com/google/ad0a3b7de8a2781ad3a630a0ea8d56778de8789f9ed1d110a4ce7c3108ce866b.jpg",
    "url": "https://www.google.com/maps/search/?api=1&query=Standard%20Journey%20-%20Self%20Drive%20Car%20in%20Jabalpur&query_place_id=ChIJDaJDIxutgTkRqVYL3S6a3xA"
  },
  {
    "title": "Sujeet Tour and Travels in Jabalpur | Taxi Service in Jabalpur | Car Rental Service in Jabalpur | Cab Service in Jabalpur",
    "subTitle": "सुजीत टूर एंड ट्रैवल्स इन जबलपुर | टैक्सी सर्विस इन जबलपुर | कार रेंटल सर्विस इन जबलपुर | कैब सर्विस इन जबलपुर",
    "categoryName": "Car rental agency",
    "address": "Narmda hospital, Shatabdipuram Phase 2, Jabalpur, Madhya Pradesh 482002, India",
    "neighborhood": "Shatabdipuram Phase 2",
    "street": "Narmda hospital",
    "city": "Jabalpur",
    "postalCode": "482002",
    "state": "Madhya Pradesh",
    "countryCode": "IN",
    "website": "https://sites.google.com/view/sujeet-tour-and-travels-car-hi/home",
    "phone": "+917000357012",
    "phoneUnformatted": "+917000357012",
    "location": {
      "lat": 23.1761489,
      "lng": 79.9089116
    },
    "totalScore": 4.8,
    "permanentlyClosed": false,
    "temporarilyClosed": false,
    "placeId": "ChIJxZhZN7-vgTkRk5GUgno2jaw",
    "categories": [
      "Car rental agency",
      "Airport shuttle service",
      "Bus tour agency",
      "Car leasing service",
      "Taxi service",
      "Sightseeing tour agency",
      "Tour operator",
      "Travel agency"
    ],
    "reviewsCount": 203,
    "imagesCount": 109,
    "openingHours": [],
    "imageUrl": "https://media.indianluxurycars.com/google/b1f6189db2fa32f5f15f0a695b41c43c40133bef85f6dd0a0a0fd7ab4e3e9454.jpg",
    "url": "https://www.google.com/maps/search/?api=1&query=Sujeet%20Tour%20and%20Travels%20in%20Jabalpur%20%7C%20Taxi%20Service%20in%20Jabalpur%20%7C%20Car%20Rental%20Service%20in%20Jabalpur%20%7C%20Cab%20Service%20in%20Jabalpur&query_place_id=ChIJxZhZN7-vgTkRk5GUgno2jaw"
  },
  {
    "title": "Sumit Travels Taxi service in jabalpur-Car Rental in Jabalpur ,Taxi service , Cab Booking Services In Jabalpur",
    "subTitle": "सुमित ट्रैवल्स टैक्सी सर्विस इन जबलपुर-कार रेंटल इन जबलपुर ,टैक्सी सर्विस , कैब बुकिंग सर्विसेस इन जबलपुर",
    "categoryName": "Car rental agency",
    "address": "Plot no. 836, Sadanand Society, Ganga Nagar, Garha, Jabalpur, Madhya Pradesh 482003, India",
    "neighborhood": "Sadanand Society, Ganga Nagar, Garha",
    "street": "Plot no. 836",
    "city": "Jabalpur",
    "postalCode": "482003",
    "state": "Madhya Pradesh",
    "countryCode": "IN",
    "website": "https://www.sumittravelsjbp.com/",
    "phone": "+918770500659",
    "phoneUnformatted": "+918770500659",
    "location": {
      "lat": 23.1639723,
      "lng": 79.8878351
    },
    "totalScore": 5,
    "permanentlyClosed": false,
    "temporarilyClosed": false,
    "placeId": "ChIJ806OAg-xgTkRHZWmgjuuen0",
    "categories": [
      "Car rental agency",
      "Airport shuttle service",
      "Car leasing service",
      "Taxi service",
      "Chauffeur service",
      "Sightseeing tour agency",
      "Taxicab Stand",
      "Transportation service",
      "Travel agency"
    ],
    "reviewsCount": 39,
    "imagesCount": 67,
    "openingHours": [],
    "imageUrl": "https://media.indianluxurycars.com/google/88f7eaefe62abe40c19cc3a3df5891b7c80529d918180e1cd348154eceb227f9.jpg",
    "url": "https://www.google.com/maps/search/?api=1&query=Sumit%20Travels%20Taxi%20service%20in%20jabalpur-Car%20Rental%20in%20Jabalpur%20%2CTaxi%20service%20%2C%20Cab%20Booking%20Services%20In%20Jabalpur&query_place_id=ChIJ806OAg-xgTkRHZWmgjuuen0"
  },
  {
    "title": "Supreme rides ( car buy and sale )",
    "subTitle": "सुप्रीम राइड्स ( कार बी एंड सेल )",
    "categoryName": "Used car dealer",
    "address": "5, Narmada Rd, Katanga, Jabalpur, Madhya Pradesh 482001, India",
    "neighborhood": "Katanga",
    "street": "5, Narmada Rd",
    "city": "Jabalpur",
    "postalCode": "482001",
    "state": "Madhya Pradesh",
    "countryCode": "IN",
    "website": "https://youtube.com/@supremerides-g4v?si=P61E_NUWttjJoMzY",
    "location": {
      "lat": 23.1522022,
      "lng": 79.9377066
    },
    "permanentlyClosed": false,
    "temporarilyClosed": false,
    "placeId": "ChIJb7FMGQCtgTkRqod_ERRMwUs",
    "categories": [
      "Used car dealer"
    ],
    "openingHours": [
      {
        "day": "Monday",
        "hours": "10:30 AM to 8:30 PM"
      },
      {
        "day": "Tuesday",
        "hours": "10:30 AM to 8:30 PM"
      },
      {
        "day": "Wednesday",
        "hours": "10:30 AM to 8:30 PM"
      },
      {
        "day": "Thursday",
        "hours": "10:30 AM to 8:30 PM"
      },
      {
        "day": "Friday",
        "hours": "10:30 AM to 8:30 PM"
      },
      {
        "day": "Saturday",
        "hours": "10:30 AM to 8:30 PM"
      },
      {
        "day": "Sunday",
        "hours": "10:30 AM to 8:30 PM"
      }
    ],
    "url": "https://www.google.com/maps/search/?api=1&query=Supreme%20rides%20(%20car%20buy%20and%20sale%20)&query_place_id=ChIJb7FMGQCtgTkRqod_ERRMwUs"
  },
  {
    "title": "Taxi 24",
    "subTitle": "टैक्सी 24",
    "categoryName": "Car rental agency",
    "address": "gate Taxi 24, Aman kanojia, 11, Swastik Complex Infront of Jabalpur hospital old, Jabalpur, Madhya Pradesh 482001, India",
    "neighborhood": "Napier Town",
    "street": "gate Taxi 24, Aman kanojia, 11, Swastik Complex Infront of Jabalpur hospital old",
    "city": "Jabalpur",
    "postalCode": "482001",
    "state": "Madhya Pradesh",
    "countryCode": "IN",
    "phone": "+918839920034",
    "phoneUnformatted": "+918839920034",
    "location": {
      "lat": 23.1626015,
      "lng": 79.9363606
    },
    "totalScore": 5,
    "permanentlyClosed": false,
    "temporarilyClosed": false,
    "placeId": "ChIJt_EmRZ-vgTkRdpxCx4plQQo",
    "categories": [
      "Car rental agency",
      "Car leasing service",
      "Taxi service"
    ],
    "reviewsCount": 7,
    "imagesCount": 14,
    "openingHours": [],
    "imageUrl": "https://media.indianluxurycars.com/google/231503b176f72eb51a1bd524ee5cd325496f75f8c4dc3b88f1db8d126622d855.jpg",
    "url": "https://www.google.com/maps/search/?api=1&query=Taxi%2024&query_place_id=ChIJt_EmRZ-vgTkRdpxCx4plQQo"
  },
  {
    "title": "travels",
    "subTitle": "ट्रैवल्स",
    "categoryName": "Car rental agency",
    "address": "Gurudwara, Gorakhpur, Jabalpur, Madhya Pradesh 482001, India",
    "neighborhood": "Gorakhpur",
    "street": "Gurudwara",
    "city": "Jabalpur",
    "postalCode": "482001",
    "state": "Madhya Pradesh",
    "countryCode": "IN",
    "phone": "+918878884009",
    "phoneUnformatted": "+918878884009",
    "location": {
      "lat": 23.1526939,
      "lng": 79.9327783
    },
    "totalScore": 4.9,
    "permanentlyClosed": false,
    "temporarilyClosed": false,
    "placeId": "ChIJc8LAQw6tgTkRaU_K6liXOI4",
    "categories": [
      "Car rental agency",
      "Taxi service"
    ],
    "reviewsCount": 24,
    "imagesCount": 12,
    "openingHours": [
      {
        "day": "Monday",
        "hours": "Open 24 hours"
      },
      {
        "day": "Tuesday",
        "hours": "Open 24 hours"
      },
      {
        "day": "Wednesday",
        "hours": "Open 24 hours"
      },
      {
        "day": "Thursday",
        "hours": "Open 24 hours"
      },
      {
        "day": "Friday",
        "hours": "Open 24 hours"
      },
      {
        "day": "Saturday",
        "hours": "Open 24 hours"
      },
      {
        "day": "Sunday",
        "hours": "Open 24 hours"
      }
    ],
    "imageUrl": "https://media.indianluxurycars.com/google/ef8d81dbe37b6588c2e966f53a4de547ab33692fbb29b084b5816585ab10948f.jpg",
    "url": "https://www.google.com/maps/search/?api=1&query=travels&query_place_id=ChIJc8LAQw6tgTkRaU_K6liXOI4"
  },
  {
    "title": "True Value Car Bazar -Used Cars Dealership |Old Cars Dealership |Second Hand Car |Car Bazar in Jabalpur",
    "subTitle": "ट्रू वैल्यू कार बाजार- यूज़्ड कार्स डीलरशिप |ओल्ड कार्स डीलरशिप |सेकंड हैंड कार |कार बाजार इन जबलपुर",
    "categoryName": "Used car dealer",
    "address": "Police Welfare Petrol Pump, Gwarighat Road, in front of Bapu Ke Kutiya, near Gorakhpur, Ratan Colony, Gorakhpur, Jabalpur, Madhya Pradesh 482001, India",
    "neighborhood": "Ratan Colony, Gorakhpur",
    "street": "Police Welfare Petrol Pump, Gwarighat Road, in front of Bapu Ke Kutiya, near Gorakhpur",
    "city": "Jabalpur",
    "postalCode": "482001",
    "state": "Madhya Pradesh",
    "countryCode": "IN",
    "phone": "+9118001021800",
    "phoneUnformatted": "+9118001021800",
    "location": {
      "lat": 23.1475692,
      "lng": 79.9268694
    },
    "totalScore": 4.2,
    "permanentlyClosed": false,
    "temporarilyClosed": false,
    "placeId": "ChIJ_zf98PSxgTkRdjivB5P2F4A",
    "categories": [
      "Used car dealer"
    ],
    "reviewsCount": 36,
    "imagesCount": 25,
    "openingHours": [
      {
        "day": "Monday",
        "hours": "10 AM to 8 PM"
      },
      {
        "day": "Tuesday",
        "hours": "10 AM to 8 PM"
      },
      {
        "day": "Wednesday",
        "hours": "10 AM to 8 PM"
      },
      {
        "day": "Thursday",
        "hours": "10 AM to 8 PM"
      },
      {
        "day": "Friday",
        "hours": "10 AM to 8 PM"
      },
      {
        "day": "Saturday",
        "hours": "10 AM to 8 PM"
      },
      {
        "day": "Sunday",
        "hours": "10 AM to 8 PM"
      }
    ],
    "imageUrl": "https://media.indianluxurycars.com/google/769783d97ee733611c5a348bc81eeb55f6356f1ac25f4e3998a249cb90d058e2.jpg",
    "url": "https://www.google.com/maps/search/?api=1&query=True%20Value%20Car%20Bazar%20-Used%20Cars%20Dealership%20%7COld%20Cars%20Dealership%20%7CSecond%20Hand%20Car%20%7CCar%20Bazar%20in%20Jabalpur&query_place_id=ChIJ_zf98PSxgTkRdjivB5P2F4A"
  },
  {
    "title": "Vedika Tour And Travels -Car Rental Jabalpur",
    "subTitle": "वेदिका टूर एंड ट्रैवल्स -कार रेंटल जबलपुर",
    "categoryName": "Car rental agency",
    "address": "House No 1450, 4, near Gupta Kirana Store, Chandan Colony, Ganga Nagar, Jabalpur, Madhya Pradesh 482003, India",
    "neighborhood": "Chandan Colony, Ganga Nagar",
    "street": "House No 1450, 4, near Gupta Kirana Store",
    "city": "Jabalpur",
    "postalCode": "482003",
    "state": "Madhya Pradesh",
    "countryCode": "IN",
    "website": "https://www.vedikatourandtravels.in/",
    "phone": "+919584115666",
    "phoneUnformatted": "+919584115666",
    "location": {
      "lat": 23.1646611,
      "lng": 79.8911593
    },
    "totalScore": 4.9,
    "permanentlyClosed": false,
    "temporarilyClosed": false,
    "placeId": "ChIJTbAlVjKxgTkRYXyO60hQk34",
    "categories": [
      "Car rental agency",
      "Rental car return location",
      "Taxi service",
      "Temp agency"
    ],
    "reviewsCount": 165,
    "imagesCount": 46,
    "openingHours": [
      {
        "day": "Monday",
        "hours": "Open 24 hours"
      },
      {
        "day": "Tuesday",
        "hours": "Open 24 hours"
      },
      {
        "day": "Wednesday",
        "hours": "Open 24 hours"
      },
      {
        "day": "Thursday",
        "hours": "Open 24 hours"
      },
      {
        "day": "Friday",
        "hours": "Open 24 hours"
      },
      {
        "day": "Saturday",
        "hours": "Open 24 hours"
      },
      {
        "day": "Sunday",
        "hours": "Open 24 hours"
      }
    ],
    "imageUrl": "https://media.indianluxurycars.com/google/fd1d3a98632652263a4bdee893e9d5e61a01f4357e17a1141ff6da9a89be699b.jpg",
    "url": "https://www.google.com/maps/search/?api=1&query=Vedika%20Tour%20And%20Travels%20-Car%20Rental%20Jabalpur&query_place_id=ChIJTbAlVjKxgTkRYXyO60hQk34"
  },
  {
    "title": "Ways India",
    "subTitle": "भारत के तरीके",
    "categoryName": "Car rental agency",
    "address": "Corporation Market, Model Road & Madhya Pradesh State Highway 22, Wright Town, Jabalpur, Madhya Pradesh 482002, India",
    "neighborhood": "Wright Town",
    "street": "Corporation Market, Model Road & Madhya Pradesh State Highway 22, Wright Town",
    "city": "Jabalpur",
    "postalCode": "482002",
    "state": "Madhya Pradesh",
    "countryCode": "IN",
    "phone": "+917614700047",
    "phoneUnformatted": "+917614700047",
    "location": {
      "lat": 23.1646888,
      "lng": 79.93173
    },
    "totalScore": 4.5,
    "permanentlyClosed": false,
    "temporarilyClosed": false,
    "placeId": "ChIJhWdFlQ-ugTkRPOMupXm_TNw",
    "categories": [
      "Car rental agency",
      "Airline ticket agency",
      "Bus ticket agency",
      "Bus tour agency",
      "Software company"
    ],
    "reviewsCount": 6,
    "imagesCount": 3,
    "openingHours": [
      {
        "day": "Monday",
        "hours": "9 AM to 9 PM"
      },
      {
        "day": "Tuesday",
        "hours": "9 AM to 9 PM"
      },
      {
        "day": "Wednesday",
        "hours": "9 AM to 9 PM"
      },
      {
        "day": "Thursday",
        "hours": "9 AM to 9 PM"
      },
      {
        "day": "Friday",
        "hours": "9 AM to 9 PM"
      },
      {
        "day": "Saturday",
        "hours": "9 AM to 9 PM"
      },
      {
        "day": "Sunday",
        "hours": "Closed"
      }
    ],
    "imageUrl": "https://media.indianluxurycars.com/google/100970034d9ef877a54279b86666a249f9627594af7f4211fa92c3aa7a2a362e.png",
    "url": "https://www.google.com/maps/search/?api=1&query=Ways%20India&query_place_id=ChIJhWdFlQ-ugTkRPOMupXm_TNw"
  },
  {
    "title": "Yadav Taxi Services - best taxi service in jabalpur! taxi service in jabalpur",
    "subTitle": "यादव टैक्सी सर्विसेस - बेस्ट टैक्सी सर्विस इन जबलपुर! टैक्सी सर्विस इन जबलपुर",
    "categoryName": "Car rental agency",
    "address": "Gupteshwar, Mandir Road, near MGM School, Sethi Nagar, Jabalpur, Madhya Pradesh 482001, India",
    "neighborhood": "Sethi Nagar",
    "street": "Gupteshwar, Mandir Road, near MGM School",
    "city": "Jabalpur",
    "postalCode": "482001",
    "state": "Madhya Pradesh",
    "countryCode": "IN",
    "website": "https://yadavtaxiservicejabalpur.com/",
    "phone": "+917000861088",
    "phoneUnformatted": "+917000861088",
    "location": {
      "lat": 23.1448513,
      "lng": 79.9235771
    },
    "totalScore": 5,
    "permanentlyClosed": false,
    "temporarilyClosed": false,
    "placeId": "ChIJ3VOniM2tgTkRK2U9JpNU-CU",
    "categories": [
      "Car rental agency",
      "Taxi service"
    ],
    "reviewsCount": 299,
    "imagesCount": 34,
    "openingHours": [],
    "imageUrl": "https://media.indianluxurycars.com/google/fcb410e6f4f40326744b56a4d9a1b25b2441bb88f5e8a44f151b15995d817e35.jpg",
    "url": "https://www.google.com/maps/search/?api=1&query=Yadav%20Taxi%20Services%20-%20best%20taxi%20service%20in%20jabalpur!%20taxi%20service%20in%20jabalpur&query_place_id=ChIJ3VOniM2tgTkRK2U9JpNU-CU"
  }
]
