[
  {
    "title": "12 Seater Tempo Traveller Jaipur",
    "subTitle": "12 सीटों वाले टेम्पो यात्री",
    "categoryName": "Car rental agency",
    "address": "Gayatri Sadan, AC-4A, Sawai Jai Singh Hwy, Bani Park, Jaipur, Rajasthan 302016, India",
    "neighborhood": "Bani Park",
    "street": "Gayatri Sadan, AC-4A, Sawai Jai Singh Hwy",
    "city": "Jaipur",
    "postalCode": "302016",
    "state": "Rajasthan",
    "countryCode": "IN",
    "website": "https://www.tempotravellerjaipur.in/12-seater-tempo-traveller-in-jaipur/",
    "phone": "+917357360888",
    "phoneUnformatted": "+917357360888",
    "location": {
      "lat": 26.9272921,
      "lng": 75.7906169
    },
    "totalScore": 4.4,
    "permanentlyClosed": false,
    "temporarilyClosed": false,
    "placeId": "ChIJXYqfmPGzbTkR2jq5EYGG8hk",
    "categories": [
      "Car rental agency",
      "Bus tour agency",
      "Tour operator",
      "Travel agency"
    ],
    "reviewsCount": 14,
    "imagesCount": 7,
    "openingHours": [
      {
        "day": "Monday",
        "hours": "Open 24 hours"
      },
      {
        "day": "Tuesday",
        "hours": "Open 24 hours"
      },
      {
        "day": "Wednesday",
        "hours": "Open 24 hours"
      },
      {
        "day": "Thursday",
        "hours": "Open 24 hours"
      },
      {
        "day": "Friday",
        "hours": "Open 24 hours"
      },
      {
        "day": "Saturday",
        "hours": "Open 24 hours"
      },
      {
        "day": "Sunday",
        "hours": "Open 24 hours"
      }
    ],
    "imageUrl": "https://media.indianluxurycars.com/google/e1d21b29cca4dc892c45474294df11036646dab9d503b516c952928cd7d68c19.jpg",
    "url": "https://www.google.com/maps/search/?api=1&query=12%20Seater%20Tempo%20Traveller%20Jaipur&query_place_id=ChIJXYqfmPGzbTkR2jq5EYGG8hk"
  },
  {
    "title": "Aditi cars new",
    "subTitle": "अदिति कार्स न्यू",
    "categoryName": "Car dealer",
    "address": "26 C, east, Suraj Nagar, Civil Lines, Jaipur, Rajasthan, India",
    "neighborhood": "Shivaji Nagar, Suraj Nagar, Civil Lines",
    "street": "26 C, east",
    "city": "Jaipur",
    "state": "Rajasthan",
    "countryCode": "IN",
    "location": {
      "lat": 26.9048341,
      "lng": 75.7878463
    },
    "totalScore": 5,
    "permanentlyClosed": false,
    "temporarilyClosed": false,
    "placeId": "ChIJKev9JwC1bTkR547jxJofz5E",
    "categories": [
      "Car dealer"
    ],
    "reviewsCount": 8,
    "imagesCount": 28,
    "openingHours": [
      {
        "day": "Monday",
        "hours": "8:03 AM to 8:03 PM"
      },
      {
        "day": "Tuesday",
        "hours": "8:03 AM to 8:03 PM"
      },
      {
        "day": "Wednesday",
        "hours": "8:03 AM to 8:03 PM"
      },
      {
        "day": "Thursday",
        "hours": "8:03 AM to 8:03 PM"
      },
      {
        "day": "Friday",
        "hours": "8:03 AM to 8:03 PM"
      },
      {
        "day": "Saturday",
        "hours": "8:03 AM to 8:03 PM"
      },
      {
        "day": "Sunday",
        "hours": "8:03 AM to 8:03 PM"
      }
    ],
    "imageUrl": "https://media.indianluxurycars.com/google/15353d91244f1b45f0ceda9fa6d9cd01f6af6477f40c684ff35a153a868cddb2.jpg",
    "url": "https://www.google.com/maps/search/?api=1&query=Aditi%20cars%20new&query_place_id=ChIJKev9JwC1bTkR547jxJofz5E"
  },
  {
    "title": "Amit car bazar",
    "subTitle": "अमित कार बाज़ार",
    "categoryName": "Car dealer",
    "address": "D-5, Govind Marg, Saket Colony, Adarsh Nagar, Jaipur, Rajasthan 302004, India",
    "neighborhood": "Saket Colony, Adarsh Nagar",
    "street": "D-5, Govind Marg",
    "city": "Jaipur",
    "postalCode": "302004",
    "state": "Rajasthan",
    "countryCode": "IN",
    "phone": "+919461070704",
    "phoneUnformatted": "+919461070704",
    "location": {
      "lat": 26.9014685,
      "lng": 75.8352466
    },
    "totalScore": 3.5,
    "permanentlyClosed": false,
    "temporarilyClosed": false,
    "placeId": "ChIJ6dXkzsO2bTkRN9i4Aj6eAww",
    "categories": [
      "Car dealer",
      "Used car dealer"
    ],
    "reviewsCount": 12,
    "imagesCount": 11,
    "openingHours": [
      {
        "day": "Monday",
        "hours": "11 AM to 5:30 PM"
      },
      {
        "day": "Tuesday",
        "hours": "11 AM to 5:30 PM"
      },
      {
        "day": "Wednesday",
        "hours": "11 AM to 5:30 PM"
      },
      {
        "day": "Thursday",
        "hours": "9 AM to 5:30 PM"
      },
      {
        "day": "Friday",
        "hours": "11 AM to 5:30 PM"
      },
      {
        "day": "Saturday",
        "hours": "11 AM to 5:30 PM"
      },
      {
        "day": "Sunday",
        "hours": "Closed"
      }
    ],
    "imageUrl": "https://media.indianluxurycars.com/google/1bb950ff41933e7c86092425db22b5f1823bdbaf8cc58ec4af9f15a8eb9ac722.jpg",
    "url": "https://www.google.com/maps/search/?api=1&query=Amit%20car%20bazar&query_place_id=ChIJ6dXkzsO2bTkRN9i4Aj6eAww"
  },
  {
    "title": "ARQ Tours",
    "subTitle": "एआरक्यू टूर्स",
    "categoryName": "Car leasing service",
    "address": "705, Shivaji Nagar, Shri Lal Bhadur Shastri Bhatta Basti, Shastri Nagar, Jaipur, Rajasthan 302016, India",
    "neighborhood": "Shivaji Nagar, Shri Lal Bhadur Shastri Bhatta Basti, Shastri Nagar",
    "street": "705",
    "city": "Jaipur",
    "postalCode": "302016",
    "state": "Rajasthan",
    "countryCode": "IN",
    "website": "http://arqtours.com/",
    "phone": "+919887668001",
    "phoneUnformatted": "+919887668001",
    "location": {
      "lat": 26.9457158,
      "lng": 75.8071872
    },
    "totalScore": 4.8,
    "permanentlyClosed": false,
    "temporarilyClosed": false,
    "placeId": "ChIJtULfKGCxbTkRD70jLt0bZXs",
    "categories": [
      "Car leasing service",
      "Bus tour agency"
    ],
    "reviewsCount": 69,
    "imagesCount": 22,
    "openingHours": [
      {
        "day": "Monday",
        "hours": "8 AM to 10:30 PM"
      },
      {
        "day": "Tuesday",
        "hours": "8 AM to 10:30 PM"
      },
      {
        "day": "Wednesday",
        "hours": "8 AM to 10 PM"
      },
      {
        "day": "Thursday",
        "hours": "8 AM to 10 PM"
      },
      {
        "day": "Friday",
        "hours": "Open 24 hours"
      },
      {
        "day": "Saturday",
        "hours": "Open 24 hours"
      },
      {
        "day": "Sunday",
        "hours": "Open 24 hours"
      }
    ],
    "imageUrl": "https://media.indianluxurycars.com/google/1e551afac9957e8fbbf914736c01c9148bd3d6bfb0019da0a4437c2585094fab.jpg",
    "url": "https://www.google.com/maps/search/?api=1&query=ARQ%20Tours&query_place_id=ChIJtULfKGCxbTkRD70jLt0bZXs"
  },
  {
    "title": "Audi Jaipur",
    "subTitle": "ऑडी जयपुर",
    "categoryName": "Audi dealer",
    "address": "Kamal Ratna Chamber, Mirza Ismail Rd, opposite GPO, C Scheme, Ashok Nagar, Jaipur, Rajasthan 302001, India",
    "neighborhood": "C Scheme, Ashok Nagar",
    "street": "Kamal Ratna Chamber, Mirza Ismail Rd, opposite GPO",
    "city": "Jaipur",
    "postalCode": "302001",
    "state": "Rajasthan",
    "countryCode": "IN",
    "website": "https://dealers.myaudi.in/audi-jaipur-audi-dealer-mi-road-jaipur-122007/Home",
    "phone": "+911412370434",
    "phoneUnformatted": "+911412370434",
    "location": {
      "lat": 26.9170435,
      "lng": 75.8034987
    },
    "totalScore": 4.4,
    "permanentlyClosed": false,
    "temporarilyClosed": false,
    "placeId": "ChIJD-0JVQC0bTkRKWnyJQ703T0",
    "categories": [
      "Audi dealer",
      "Auto dent removal service",
      "Auto repair shop",
      "Car accessories store",
      "Car dealer"
    ],
    "reviewsCount": 286,
    "imagesCount": 224,
    "openingHours": [
      {
        "day": "Monday",
        "hours": "10 AM to 7 PM"
      },
      {
        "day": "Tuesday",
        "hours": "10 AM to 7 PM"
      },
      {
        "day": "Wednesday",
        "hours": "10 AM to 7 PM"
      },
      {
        "day": "Thursday",
        "hours": "10 AM to 7 PM"
      },
      {
        "day": "Friday",
        "hours": "10 AM to 7 PM"
      },
      {
        "day": "Saturday",
        "hours": "10 AM to 7 PM"
      },
      {
        "day": "Sunday",
        "hours": "Closed"
      }
    ],
    "imageUrl": "https://media.indianluxurycars.com/google/a53683642c661d1518a2f06e9a593bb4fb30a2bb62f1ec18c06df119c4f2f3c3.jpg",
    "url": "https://www.google.com/maps/search/?api=1&query=Audi%20Jaipur&query_place_id=ChIJD-0JVQC0bTkRKWnyJQ703T0"
  },
  {
    "title": "Auto Riders - Jaipur Taxi Hire / Rental Service Jaipur",
    "subTitle": "आटो राइडर्स",
    "categoryName": "Car rental agency",
    "address": "NGV-1, Nehru Place, Tonk Rd, Lalkothi, Jaipur, Rajasthan 302015, India",
    "neighborhood": "Lalkothi",
    "street": "NGV-1, Nehru Place, Tonk Rd",
    "city": "Jaipur",
    "postalCode": "302015",
    "state": "Rajasthan",
    "countryCode": "IN",
    "website": "http://jaipurtaxihire.com/",
    "phone": "+919928324747",
    "phoneUnformatted": "+919928324747",
    "location": {
      "lat": 26.8848899,
      "lng": 75.8010576
    },
    "totalScore": 4.7,
    "permanentlyClosed": false,
    "temporarilyClosed": false,
    "placeId": "ChIJS9NIIpm2bTkRLDD5zzok8iQ",
    "categories": [
      "Car rental agency",
      "Bus tour agency",
      "Car leasing service",
      "Taxi service"
    ],
    "reviewsCount": 210,
    "imagesCount": 216,
    "openingHours": [
      {
        "day": "Monday",
        "hours": "Open 24 hours"
      },
      {
        "day": "Tuesday",
        "hours": "Open 24 hours"
      },
      {
        "day": "Wednesday",
        "hours": "Open 24 hours"
      },
      {
        "day": "Thursday",
        "hours": "Open 24 hours"
      },
      {
        "day": "Friday",
        "hours": "Open 24 hours"
      },
      {
        "day": "Saturday",
        "hours": "Open 24 hours"
      },
      {
        "day": "Sunday",
        "hours": "Open 24 hours"
      }
    ],
    "imageUrl": "https://media.indianluxurycars.com/google/85bb169ef92d012034f663a0b1a0baa2e9c1a1ca0a16d9761f9b52dad24b1669.jpg",
    "url": "https://www.google.com/maps/search/?api=1&query=Auto%20Riders%20-%20Jaipur%20Taxi%20Hire%20%2F%20Rental%20Service%20Jaipur&query_place_id=ChIJS9NIIpm2bTkRLDD5zzok8iQ"
  },
  {
    "title": "Ayodhyataxi",
    "subTitle": "अयोध्याटैक्सी",
    "categoryName": "Car leasing service",
    "address": "1193 raythal house, uniyaron, Ninder Rao Ji ka Rasta, Chandpol, Jaipur, Rajasthan 302001, India",
    "neighborhood": "Chandpole, Chandpol",
    "street": "1193 raythal house, uniyaron, Ninder Rao Ji ka Rasta",
    "city": "Jaipur",
    "postalCode": "302001",
    "state": "Rajasthan",
    "countryCode": "IN",
    "website": "https://ayodhyataxi.com/",
    "phone": "+917878549195",
    "phoneUnformatted": "+917878549195",
    "location": {
      "lat": 26.9272146,
      "lng": 75.8108737
    },
    "totalScore": 4.9,
    "permanentlyClosed": false,
    "temporarilyClosed": false,
    "placeId": "ChIJA8VrXkKxbTkRUETTqTSQMnQ",
    "categories": [
      "Car leasing service",
      "Taxi service",
      "Sightseeing tour agency",
      "Tour operator"
    ],
    "reviewsCount": 233,
    "imagesCount": 21,
    "openingHours": [],
    "imageUrl": "https://media.indianluxurycars.com/google/27bc8559713da8e92595b7cb499ec581bf9529d1b376b94964ee65b1727f9fac.jpg",
    "url": "https://www.google.com/maps/search/?api=1&query=Ayodhyataxi&query_place_id=ChIJA8VrXkKxbTkRUETTqTSQMnQ"
  },
  {
    "title": "biggunsauto",
    "subTitle": "बिगुणसौटो",
    "categoryName": "Car dealer",
    "address": "J-34, 2ND FLOOR, Subhash Marg, C Scheme, Ashok Nagar, Jaipur, Rajasthan 302001, India",
    "neighborhood": "C Scheme, Ashok Nagar",
    "street": "J-34, 2ND FLOOR, Subhash Marg",
    "city": "Jaipur",
    "postalCode": "302001",
    "state": "Rajasthan",
    "countryCode": "IN",
    "website": "http://www.biggunsauto.com/",
    "phone": "+917011086912",
    "phoneUnformatted": "+917011086912",
    "location": {
      "lat": 26.9079177,
      "lng": 75.7992101
    },
    "totalScore": 5,
    "permanentlyClosed": false,
    "temporarilyClosed": false,
    "placeId": "ChIJq6WRPNm3bTkRlWEpybbPrNs",
    "categories": [
      "Car dealer"
    ],
    "reviewsCount": 27,
    "imagesCount": 16,
    "openingHours": [
      {
        "day": "Monday",
        "hours": "10 AM to 6:30 PM"
      },
      {
        "day": "Tuesday",
        "hours": "10 AM to 6:30 PM"
      },
      {
        "day": "Wednesday",
        "hours": "10 AM to 6:30 PM"
      },
      {
        "day": "Thursday",
        "hours": "10 AM to 6:30 PM"
      },
      {
        "day": "Friday",
        "hours": "10 AM to 6:30 PM"
      },
      {
        "day": "Saturday",
        "hours": "10 AM to 6:30 PM"
      },
      {
        "day": "Sunday",
        "hours": "Closed"
      }
    ],
    "imageUrl": "https://media.indianluxurycars.com/google/9da5a4d5b96adefeab5805109feaca5ef15e17c61673895ced09ddc7b90946e4.jpg",
    "url": "https://www.google.com/maps/search/?api=1&query=biggunsauto&query_place_id=ChIJq6WRPNm3bTkRlWEpybbPrNs"
  },
  {
    "title": "Bishnoi Luxury Car Services",
    "subTitle": "बिश्नोई लक्जरी कार सर्विसेस",
    "categoryName": "Car rental agency",
    "address": "Plot No 79, opposite Airport Terminal 1, Chitragupta Nagar-II, Janakpuri, Imli Phatak, Dhakar Colony, Jaipur, Rajasthan 302015, India",
    "neighborhood": "Chitragupta Nagar-II, Janakpuri, Imli Phatak, Dhakar Colony",
    "street": "Plot No 79, opposite Airport Terminal 1",
    "city": "Jaipur",
    "postalCode": "302015",
    "state": "Rajasthan",
    "countryCode": "IN",
    "location": {
      "lat": 26.888517,
      "lng": 75.7920146
    },
    "permanentlyClosed": false,
    "temporarilyClosed": false,
    "placeId": "ChIJAQAAnDu0bTkRLJCmmlXVjkM",
    "categories": [
      "Car rental agency"
    ],
    "imagesCount": 1,
    "openingHours": [],
    "imageUrl": "https://media.indianluxurycars.com/google/ec1389e0d309cdce55007bfd1dee8377d8a5ca74f1eca6545510cadb8d5e47a8.jpg",
    "url": "https://www.google.com/maps/search/?api=1&query=Bishnoi%20Luxury%20Car%20Services&query_place_id=ChIJAQAAnDu0bTkRLJCmmlXVjkM"
  },
  {
    "title": "Book City Trips Tour & travels",
    "subTitle": "बुक सिटी ट्रिप्स टूर & ट्रैवल्स",
    "categoryName": "Car leasing service",
    "address": "Kuber Hotel, Sansar Chandra Rd, behind Amber Tower, Pink City, Jaipur, Rajasthan 302001, India",
    "neighborhood": "Pink City",
    "street": "Kuber Hotel, Sansar Chandra Rd, behind Amber Tower",
    "city": "Jaipur",
    "postalCode": "302001",
    "state": "Rajasthan",
    "countryCode": "IN",
    "website": "https://bookcitytrips.com/",
    "phone": "+919602774746",
    "phoneUnformatted": "+919602774746",
    "location": {
      "lat": 26.9207795,
      "lng": 75.8037298
    },
    "totalScore": 5,
    "permanentlyClosed": false,
    "temporarilyClosed": false,
    "placeId": "ChIJt2_W67KzbTkR9cHrYxok9cA",
    "categories": [
      "Car leasing service",
      "Taxi service",
      "Sightseeing tour agency",
      "Tour operator",
      "Tourist information center",
      "Travel agency"
    ],
    "reviewsCount": 6,
    "imagesCount": 19,
    "openingHours": [],
    "imageUrl": "https://media.indianluxurycars.com/google/f94fa21984af0055a82a1e7ada9e3f283230bfa7c2d465dfe9dc1ec00ac73ab4.jpg",
    "url": "https://www.google.com/maps/search/?api=1&query=Book%20City%20Trips%20Tour%20%26%20travels&query_place_id=ChIJt2_W67KzbTkR9cHrYxok9cA"
  },
  {
    "title": "Car King",
    "subTitle": "कार किंग",
    "categoryName": "Used car dealer",
    "address": "Metro Station, Plot no 704, Ajmer Rd, near Civil Line, opp. Pillar No 82, Madrampur, Civil Lines, Jaipur, Rajasthan 302006, India",
    "neighborhood": "Madrampur, Civil Lines",
    "street": "Metro Station, Plot no 704, Ajmer Rd, near Civil Line, opp. Pillar No 82",
    "city": "Jaipur",
    "postalCode": "302006",
    "state": "Rajasthan",
    "countryCode": "IN",
    "website": "http://carkingindia.in/",
    "location": {
      "lat": 26.9094751,
      "lng": 75.7808644
    },
    "totalScore": 5,
    "permanentlyClosed": false,
    "temporarilyClosed": false,
    "placeId": "ChIJ35q3lly1bTkRqnCrqIroVxk",
    "categories": [
      "Used car dealer",
      "Audi dealer",
      "BMW dealer",
      "Honda dealer",
      "Hyundai dealer",
      "Kia dealer",
      "Mercedes-Benz dealer",
      "Skoda dealer",
      "Suzuki dealer",
      "Tata Motors dealer"
    ],
    "reviewsCount": 466,
    "imagesCount": 211,
    "openingHours": [
      {
        "day": "Monday",
        "hours": "10:30 AM to 8:30 PM"
      },
      {
        "day": "Tuesday",
        "hours": "10:30 AM to 8:30 PM"
      },
      {
        "day": "Wednesday",
        "hours": "10:30 AM to 8:30 PM"
      },
      {
        "day": "Thursday",
        "hours": "10:30 AM to 8:30 PM"
      },
      {
        "day": "Friday",
        "hours": "10:30 AM to 8:30 PM"
      },
      {
        "day": "Saturday",
        "hours": "10:30 AM to 8:30 PM"
      },
      {
        "day": "Sunday",
        "hours": "10:30 AM to 8:30 PM"
      }
    ],
    "imageUrl": "https://media.indianluxurycars.com/google/d4469cfd4b8aeb64ccc38bc202c21ba6884dadfca978684fad18a3837a02d6c6.jpg",
    "url": "https://www.google.com/maps/search/?api=1&query=Car%20King&query_place_id=ChIJ35q3lly1bTkRqnCrqIroVxk"
  },
  {
    "title": "Car kiraye ki - self drive cars in jaipur jaipur airport car rental car for rent or car on rent jaipur car rental",
    "subTitle": "कार किराए की",
    "categoryName": "Car rental agency",
    "address": "Car Kiraye Ki, 30, Barodia Scheme, Gopalbari, Junction, near Jaipur, Bani Park, Jaipur, Rajasthan 302006, India",
    "neighborhood": "Barodia Scheme, Bani Park",
    "street": "Car Kiraye Ki, 30, Barodia Scheme, Gopalbari, Junction, near Jaipur",
    "city": "Jaipur",
    "postalCode": "302006",
    "state": "Rajasthan",
    "countryCode": "IN",
    "website": "https://gmbwale.com/carkirayeki/index.html",
    "phone": "+918502902360",
    "phoneUnformatted": "+918502902360",
    "location": {
      "lat": 26.921024,
      "lng": 75.7915063
    },
    "totalScore": 4.9,
    "permanentlyClosed": false,
    "temporarilyClosed": false,
    "placeId": "ChIJOdI6F5G1bTkRIc-2aPciOlI",
    "categories": [
      "Car rental agency",
      "Car leasing service",
      "Taxi service",
      "Tour agency",
      "Tour operator"
    ],
    "reviewsCount": 146,
    "imagesCount": 4,
    "openingHours": [],
    "imageUrl": "https://media.indianluxurycars.com/google/729037ee80ef862fd1e3a09e424053140dff63ad6e1c702b69492e0a82d5a8f7.png",
    "url": "https://www.google.com/maps/search/?api=1&query=Car%20kiraye%20ki%20-%20self%20drive%20cars%20in%20jaipur%20jaipur%20airport%20car%20rental%20car%20for%20rent%20or%20car%20on%20rent%20jaipur%20car%20rental&query_place_id=ChIJOdI6F5G1bTkRIc-2aPciOlI"
  },
  {
    "title": "Car rental in Jaipur- Skyline Travels",
    "subTitle": "कार रेंटल इन जयपुर- स्काइलाइन ट्रैवल्स",
    "categoryName": "Car rental agency",
    "address": "LM-72, Amber Tower, Sansar Chandra Rd, Pink City, Jaipur, Rajasthan 302001, India",
    "neighborhood": "Pink City",
    "street": "LM-72, Amber Tower, Sansar Chandra Rd",
    "city": "Jaipur",
    "postalCode": "302001",
    "state": "Rajasthan",
    "countryCode": "IN",
    "website": "https://www.tempotravellerinjaipur.com/car-rental/",
    "phone": "+918690150030",
    "phoneUnformatted": "+918690150030",
    "location": {
      "lat": 26.9198508,
      "lng": 75.8037494
    },
    "totalScore": 5,
    "permanentlyClosed": false,
    "temporarilyClosed": false,
    "placeId": "ChIJMa5a-XezbTkR9GQLtwRDt8c",
    "categories": [
      "Car rental agency",
      "Car leasing service",
      "Taxi service",
      "Tour operator"
    ],
    "reviewsCount": 1,
    "imagesCount": 10,
    "openingHours": [
      {
        "day": "Monday",
        "hours": "Open 24 hours"
      },
      {
        "day": "Tuesday",
        "hours": "Open 24 hours"
      },
      {
        "day": "Wednesday",
        "hours": "Open 24 hours"
      },
      {
        "day": "Thursday",
        "hours": "Open 24 hours"
      },
      {
        "day": "Friday",
        "hours": "Open 24 hours"
      },
      {
        "day": "Saturday",
        "hours": "Open 24 hours"
      },
      {
        "day": "Sunday",
        "hours": "Open 24 hours"
      }
    ],
    "imageUrl": "https://media.indianluxurycars.com/google/6b16809e228dc7a9acdb7d360def97812a16e774d6965960bf9e37e6a7e8d1ba.jpg",
    "url": "https://www.google.com/maps/search/?api=1&query=Car%20rental%20in%20Jaipur-%20Skyline%20Travels&query_place_id=ChIJMa5a-XezbTkR9GQLtwRDt8c"
  },
  {
    "title": "CARLUST - Get Your Dream Car For Rental",
    "subTitle": "कार्लस्ट",
    "categoryName": "Car rental agency",
    "address": "Shop No -7, Plot No. 9, opposite Pondrik Park, Indrapuri, Brahampuri, Jaipur, Rajasthan 302001, India",
    "neighborhood": "Indrapuri, Brahampuri",
    "street": "Shop No -7, Plot No. 9, opposite Pondrik Park",
    "city": "Jaipur",
    "postalCode": "302001",
    "state": "Rajasthan",
    "countryCode": "IN",
    "website": "https://carlust.in/",
    "phone": "+918000585654",
    "phoneUnformatted": "+918000585654",
    "location": {
      "lat": 26.9353114,
      "lng": 75.824314
    },
    "totalScore": 4.8,
    "permanentlyClosed": false,
    "temporarilyClosed": false,
    "placeId": "ChIJOf2uVCWxbTkRK4NJX7hOFA8",
    "categories": [
      "Car rental agency",
      "Car leasing service"
    ],
    "reviewsCount": 253,
    "imagesCount": 42,
    "openingHours": [
      {
        "day": "Monday",
        "hours": "6 AM to 12 AM"
      },
      {
        "day": "Tuesday",
        "hours": "6 AM to 12 AM"
      },
      {
        "day": "Wednesday",
        "hours": "6 AM to 12 AM"
      },
      {
        "day": "Thursday",
        "hours": "6 AM to 12 AM"
      },
      {
        "day": "Friday",
        "hours": "6 AM to 12 AM"
      },
      {
        "day": "Saturday",
        "hours": "6 AM to 12 AM"
      },
      {
        "day": "Sunday",
        "hours": "6 AM to 12 AM"
      }
    ],
    "imageUrl": "https://media.indianluxurycars.com/google/eac0a795c82c4e0371202f6256c32f48975a55be3cc9f4ba376fa5961b8d5d85.jpg",
    "url": "https://www.google.com/maps/search/?api=1&query=CARLUST%20-%20Get%20Your%20Dream%20Car%20For%20Rental&query_place_id=ChIJOf2uVCWxbTkRK4NJX7hOFA8"
  },
  {
    "title": "Classic Rovers Travel",
    "subTitle": "क्लासिक रोवर्स ट्रैवल",
    "categoryName": "Car rental agency",
    "address": "301 III Floor, Whispering Palms D, 42, Subhash Marg, C Scheme, Ashok Nagar, Jaipur, Rajasthan 302001, India",
    "neighborhood": "C Scheme, Ashok Nagar",
    "street": "301 III Floor, Whispering Palms D, 42, Subhash Marg",
    "city": "Jaipur",
    "postalCode": "302001",
    "state": "Rajasthan",
    "countryCode": "IN",
    "website": "https://classicroverstravel.com/",
    "phone": "+919352299103",
    "phoneUnformatted": "+919352299103",
    "location": {
      "lat": 26.9110149,
      "lng": 75.8013386
    },
    "totalScore": 4.4,
    "permanentlyClosed": false,
    "temporarilyClosed": false,
    "placeId": "ChIJz2s5caC1bTkRWXie_VyL3kE",
    "categories": [
      "Car rental agency",
      "Bus tour agency",
      "Car leasing service",
      "Taxi service",
      "Van rental agency"
    ],
    "reviewsCount": 56,
    "imagesCount": 36,
    "openingHours": [
      {
        "day": "Monday",
        "hours": "9 AM to 8 PM"
      },
      {
        "day": "Tuesday",
        "hours": "9 AM to 8 PM"
      },
      {
        "day": "Wednesday",
        "hours": "9 AM to 8 PM"
      },
      {
        "day": "Thursday",
        "hours": "9 AM to 8 PM"
      },
      {
        "day": "Friday",
        "hours": "9 AM to 8 PM"
      },
      {
        "day": "Saturday",
        "hours": "9 AM to 7 PM"
      },
      {
        "day": "Sunday",
        "hours": "Closed"
      }
    ],
    "imageUrl": "https://media.indianluxurycars.com/google/e947a7092e93ea29af344ea995cd407d0811e43b331e1df677e1177501126eb8.jpg",
    "url": "https://www.google.com/maps/search/?api=1&query=Classic%20Rovers%20Travel&query_place_id=ChIJz2s5caC1bTkRWXie_VyL3kE"
  },
  {
    "title": "Doorcars Car Rental",
    "subTitle": "दूरकार्स कार रेंटल",
    "categoryName": "Car leasing service",
    "address": "Metro Gate no 2, Jaipur Railwaya Station Metro Gate no .2, near JMRC, Jaipur, Rajasthan 302006, India",
    "neighborhood": "Gopalbari",
    "street": "Metro Gate no 2, Jaipur Railwaya Station Metro Gate no .2, near JMRC",
    "city": "Jaipur",
    "postalCode": "302006",
    "state": "Rajasthan",
    "countryCode": "IN",
    "website": "https://www.doorcars.com/",
    "phone": "+917878245769",
    "phoneUnformatted": "+917878245769",
    "location": {
      "lat": 26.9187106,
      "lng": 75.7901499
    },
    "totalScore": 4.9,
    "permanentlyClosed": false,
    "temporarilyClosed": false,
    "placeId": "ChIJPb3PvD-zbTkRi2Y1ipZC_gc",
    "categories": [
      "Car leasing service"
    ],
    "reviewsCount": 300,
    "imagesCount": 80,
    "openingHours": [
      {
        "day": "Monday",
        "hours": "Open 24 hours"
      },
      {
        "day": "Tuesday",
        "hours": "Open 24 hours"
      },
      {
        "day": "Wednesday",
        "hours": "Open 24 hours"
      },
      {
        "day": "Thursday",
        "hours": "Open 24 hours"
      },
      {
        "day": "Friday",
        "hours": "Open 24 hours"
      },
      {
        "day": "Saturday",
        "hours": "Open 24 hours"
      },
      {
        "day": "Sunday",
        "hours": "Open 24 hours"
      }
    ],
    "imageUrl": "https://media.indianluxurycars.com/google/346be8fbf877479aacf82ac41b9935e77455342daaa2cc95ba1fd4490e564aaf.jpg",
    "url": "https://www.google.com/maps/search/?api=1&query=Doorcars%20Car%20Rental&query_place_id=ChIJPb3PvD-zbTkRi2Y1ipZC_gc"
  },
  {
    "title": "Dream Luxury Car Rental",
    "subTitle": "ड्रीम लक्जरी कार रेंटल",
    "categoryName": "Car rental agency",
    "address": "Swej Farm Rd, near Sanskar Marriage Garden, S.B. Vihar, Govindpuri, Jaipur, Rajasthan 302015, India",
    "neighborhood": "S.B. Vihar, Govindpuri",
    "street": "Swej Farm Rd, near Sanskar Marriage Garden",
    "city": "Jaipur",
    "postalCode": "302015",
    "state": "Rajasthan",
    "countryCode": "IN",
    "website": "http://www.dreamluxurycarrental.com/",
    "phone": "+919782322122",
    "phoneUnformatted": "+919782322122",
    "location": {
      "lat": 26.8914924,
      "lng": 75.7787333
    },
    "totalScore": 4.8,
    "permanentlyClosed": false,
    "temporarilyClosed": false,
    "placeId": "ChIJW774-yy1bTkRA1VdHViORmo",
    "categories": [
      "Car rental agency"
    ],
    "reviewsCount": 197,
    "imagesCount": 211,
    "openingHours": [
      {
        "day": "Monday",
        "hours": "Open 24 hours"
      },
      {
        "day": "Tuesday",
        "hours": "Open 24 hours"
      },
      {
        "day": "Wednesday",
        "hours": "Open 24 hours"
      },
      {
        "day": "Thursday",
        "hours": "Open 24 hours"
      },
      {
        "day": "Friday",
        "hours": "Open 24 hours"
      },
      {
        "day": "Saturday",
        "hours": "Open 24 hours"
      },
      {
        "day": "Sunday",
        "hours": "Open 24 hours"
      }
    ],
    "imageUrl": "https://media.indianluxurycars.com/google/0da0277c5abdbe8069f4e88c265554619b19528e385a514ae309ac1635f33f48.jpg",
    "url": "https://www.google.com/maps/search/?api=1&query=Dream%20Luxury%20Car%20Rental&query_place_id=ChIJW774-yy1bTkRA1VdHViORmo"
  },
  {
    "title": "Enjoy Rajasthan Tour - Travel company in jaipur - Best Tour & Travel company in Rajasthan - Best travel agency in Jaipur",
    "subTitle": "एंजॉय राजस्थान टूर",
    "categoryName": "Car rental agency",
    "address": "A 15, Subhash Nagar Rd, near Sarang palace hotel, Subash Nagar, Bani Park, Jaipur, Rajasthan 302016, India",
    "neighborhood": "Subash Nagar, Bani Park",
    "street": "A 15, Subhash Nagar Rd, near Sarang palace hotel",
    "city": "Jaipur",
    "postalCode": "302016",
    "state": "Rajasthan",
    "countryCode": "IN",
    "website": "http://enjoyrajasthantour.com/",
    "phone": "+918619321256",
    "phoneUnformatted": "+918619321256",
    "location": {
      "lat": 26.9369722,
      "lng": 75.7961392
    },
    "totalScore": 4.8,
    "permanentlyClosed": false,
    "temporarilyClosed": false,
    "placeId": "ChIJSUSF_jCzbTkRV9WbhG8OOiQ",
    "categories": [
      "Car rental agency",
      "Auto repair shop",
      "Bus tour agency",
      "Sightseeing tour agency",
      "Minibus taxi service",
      "Taxi service",
      "Tour agency",
      "Tour operator",
      "Transportation service",
      "Travel agency"
    ],
    "reviewsCount": 459,
    "imagesCount": 521,
    "openingHours": [
      {
        "day": "Monday",
        "hours": "6 AM to 11 PM"
      },
      {
        "day": "Tuesday",
        "hours": "6 AM to 11 PM"
      },
      {
        "day": "Wednesday",
        "hours": "6 AM to 11 PM"
      },
      {
        "day": "Thursday",
        "hours": "6 AM to 11 PM"
      },
      {
        "day": "Friday",
        "hours": "6 AM to 11 PM"
      },
      {
        "day": "Saturday",
        "hours": "6 AM to 11 PM"
      },
      {
        "day": "Sunday",
        "hours": "6 AM to 11 PM"
      }
    ],
    "imageUrl": "https://media.indianluxurycars.com/google/d01c772b977471634df659f27eeb77b3f19b799f4a3cea0aeb5f23381f16cee3.jpg",
    "url": "https://www.google.com/maps/search/?api=1&query=Enjoy%20Rajasthan%20Tour%20-%20Travel%20company%20in%20jaipur%20-%20Best%20Tour%20%26%20Travel%20company%20in%20Rajasthan%20-%20Best%20travel%20agency%20in%20Jaipur&query_place_id=ChIJSUSF_jCzbTkRV9WbhG8OOiQ"
  },
  {
    "title": "Find My Tour",
    "subTitle": "फाइंड माय टूर",
    "categoryName": "Car rental agency",
    "address": "Shop no. 3 and 4, Purohit Mansion, near hotel jaisingh palace Gopi Nath Marg, Mirza Ismail Rd, Jaipur, Rajasthan 302001, India",
    "neighborhood": "Jayanti Market, New Colony",
    "street": "Shop no. 3 and 4, Purohit Mansion, near hotel jaisingh palace Gopi Nath Marg, Mirza Ismail Rd",
    "city": "Jaipur",
    "postalCode": "302001",
    "state": "Rajasthan",
    "countryCode": "IN",
    "website": "http://www.findmytour.in/",
    "phone": "+919326260377",
    "phoneUnformatted": "+919326260377",
    "location": {
      "lat": 26.9186519,
      "lng": 75.8068969
    },
    "totalScore": 4.6,
    "permanentlyClosed": false,
    "temporarilyClosed": false,
    "placeId": "ChIJbag-3By3bTkRmLJe5XXSDfc",
    "categories": [
      "Car rental agency",
      "Airline ticket agency",
      "Travel agency",
      "Lodging",
      "Tour operator"
    ],
    "reviewsCount": 12,
    "imagesCount": 3,
    "openingHours": [],
    "imageUrl": "https://media.indianluxurycars.com/google/048f919ff7786c829ae40d534a99cd39832a861bcd03a945e6b301517f1c56fe.png",
    "url": "https://www.google.com/maps/search/?api=1&query=Find%20My%20Tour&query_place_id=ChIJbag-3By3bTkRmLJe5XXSDfc"
  },
  {
    "title": "FoxCabs",
    "subTitle": "फॉक्सकैब्स",
    "categoryName": "Car leasing service",
    "address": "Pink City Tower, near Pittal Factory, Bani Park, Jaipur, Rajasthan 302016, India",
    "neighborhood": "Bani Park",
    "street": "Pink City Tower, near Pittal Factory",
    "city": "Jaipur",
    "postalCode": "302016",
    "state": "Rajasthan",
    "countryCode": "IN",
    "phone": "+917300000900",
    "phoneUnformatted": "+917300000900",
    "location": {
      "lat": 26.932041,
      "lng": 75.798778
    },
    "totalScore": 4.9,
    "permanentlyClosed": false,
    "temporarilyClosed": false,
    "placeId": "ChIJGXBkdb2zbTkRmAZkQLdhR8E",
    "categories": [
      "Car leasing service",
      "Transportation service",
      "Taxi service"
    ],
    "reviewsCount": 9,
    "imagesCount": 2,
    "openingHours": [
      {
        "day": "Monday",
        "hours": "Open 24 hours"
      },
      {
        "day": "Tuesday",
        "hours": "Open 24 hours"
      },
      {
        "day": "Wednesday",
        "hours": "Open 24 hours"
      },
      {
        "day": "Thursday",
        "hours": "Open 24 hours"
      },
      {
        "day": "Friday",
        "hours": "Open 24 hours"
      },
      {
        "day": "Saturday",
        "hours": "Open 24 hours"
      },
      {
        "day": "Sunday",
        "hours": "Open 24 hours"
      }
    ],
    "imageUrl": "https://media.indianluxurycars.com/google/06bd5e30208d1a3f5d5533e9be1c32f9d0902b476986df5928c4ee4d2262c137.jpg",
    "url": "https://www.google.com/maps/search/?api=1&query=FoxCabs&query_place_id=ChIJGXBkdb2zbTkRmAZkQLdhR8E"
  },
  {
    "title": "Guru Kripa Self Drive Car Rental",
    "subTitle": "गुरु कृपा सेल्फ ड्राइव कार रेंटल",
    "categoryName": "Car rental agency",
    "address": "Nirwan Marg, near Lemon Tree Premier, Sindhi Colony, Bani Park, Jaipur, Rajasthan 302016, India",
    "neighborhood": "Sindhi Colony, Bani Park",
    "street": "Nirwan Marg, near Lemon Tree Premier",
    "city": "Jaipur",
    "postalCode": "302016",
    "state": "Rajasthan",
    "countryCode": "IN",
    "website": "https://gurukripaselfdrive.in/",
    "phone": "+916367523560",
    "phoneUnformatted": "+916367523560",
    "location": {
      "lat": 26.935695,
      "lng": 75.7923583
    },
    "totalScore": 5,
    "permanentlyClosed": false,
    "temporarilyClosed": false,
    "placeId": "ChIJ5VVm46ezbTkRKSanaj6sB4Y",
    "categories": [
      "Car rental agency"
    ],
    "reviewsCount": 1,
    "imagesCount": 13,
    "openingHours": [
      {
        "day": "Monday",
        "hours": "Open 24 hours"
      },
      {
        "day": "Tuesday",
        "hours": "Open 24 hours"
      },
      {
        "day": "Wednesday",
        "hours": "Open 24 hours"
      },
      {
        "day": "Thursday",
        "hours": "Open 24 hours"
      },
      {
        "day": "Friday",
        "hours": "Open 24 hours"
      },
      {
        "day": "Saturday",
        "hours": "Open 24 hours"
      },
      {
        "day": "Sunday",
        "hours": "Open 24 hours"
      }
    ],
    "imageUrl": "https://media.indianluxurycars.com/google/a2eb194bbbc41f23a532eaabc61939fda12f6d961676192f4e3200a3c48e103f.jpg",
    "url": "https://www.google.com/maps/search/?api=1&query=Guru%20Kripa%20Self%20Drive%20Car%20Rental&query_place_id=ChIJ5VVm46ezbTkRKSanaj6sB4Y"
  },
  {
    "title": "Guru Kripa Self Drive Car Rental",
    "subTitle": "गुरु कृपा सेल्फ ड्राइव कार रेंटल",
    "categoryName": "Car rental agency",
    "address": "Plot No. 1, 2, Govind Marg, near Pink Square Mall, Raja Park, Frontier Colony, Adarsh Nagar, Jaipur, Rajasthan 302004, India",
    "neighborhood": "Raja Park, Frontier Colony, Adarsh Nagar",
    "street": "Plot No. 1, 2, Govind Marg, near Pink Square Mall",
    "city": "Jaipur",
    "postalCode": "302004",
    "state": "Rajasthan",
    "countryCode": "IN",
    "phone": "+916367523560",
    "phoneUnformatted": "+916367523560",
    "location": {
      "lat": 26.8983332,
      "lng": 75.8325301
    },
    "permanentlyClosed": false,
    "temporarilyClosed": false,
    "placeId": "ChIJ7f4xNZa3bTkRkALK5kQQZ3c",
    "categories": [
      "Car rental agency",
      "Car leasing service"
    ],
    "imagesCount": 30,
    "openingHours": [
      {
        "day": "Monday",
        "hours": "Open 24 hours"
      },
      {
        "day": "Tuesday",
        "hours": "Open 24 hours"
      },
      {
        "day": "Wednesday",
        "hours": "Open 24 hours"
      },
      {
        "day": "Thursday",
        "hours": "Open 24 hours"
      },
      {
        "day": "Friday",
        "hours": "Open 24 hours"
      },
      {
        "day": "Saturday",
        "hours": "Open 24 hours"
      },
      {
        "day": "Sunday",
        "hours": "Open 24 hours"
      }
    ],
    "imageUrl": "https://media.indianluxurycars.com/google/c6a1b6a541b7f303fe3c619af4cc4e9360ad9272e439873eaa2b754d30f1fc53.jpg",
    "url": "https://www.google.com/maps/search/?api=1&query=Guru%20Kripa%20Self%20Drive%20Car%20Rental&query_place_id=ChIJ7f4xNZa3bTkRkALK5kQQZ3c"
  },
  {
    "title": "Guru Kripa Travels | Taxi Service in Jaipur",
    "subTitle": "गुरु कृपा ट्रैवल्स | टैक्सी सर्विस इन जयपुर",
    "categoryName": "Car leasing service",
    "address": "Shop 18, b-4, Sethi colony, behind Gurudwara, Transport Nagar, Jaipur, Rajasthan 302004, India",
    "neighborhood": "Transport Nagar",
    "street": "Shop 18, b-4, Sethi colony, behind Gurudwara",
    "city": "Jaipur",
    "postalCode": "302004",
    "state": "Rajasthan",
    "countryCode": "IN",
    "website": "https://gurukripatourandtravel.in/",
    "phone": "+919414441084",
    "phoneUnformatted": "+919414441084",
    "location": {
      "lat": 26.8992482,
      "lng": 75.8418431
    },
    "totalScore": 4.9,
    "permanentlyClosed": false,
    "temporarilyClosed": false,
    "placeId": "ChIJX8JHOmmB8CIRU2QGfvM9vIk",
    "categories": [
      "Car leasing service",
      "Taxi service"
    ],
    "reviewsCount": 55,
    "imagesCount": 17,
    "openingHours": [],
    "imageUrl": "https://media.indianluxurycars.com/google/1677cdaf827a47b721123e8c127b37b57c00ec97e41e66260b2d5d0313f540f7.jpg",
    "url": "https://www.google.com/maps/search/?api=1&query=Guru%20Kripa%20Travels%20%7C%20Taxi%20Service%20in%20Jaipur&query_place_id=ChIJX8JHOmmB8CIRU2QGfvM9vIk"
  },
  {
    "title": "Havishe Travel-Rajasthan Tour",
    "subTitle": "हविशे ट्रैवल-राजस्थान टूर",
    "categoryName": "Car rental agency",
    "address": "Plot no 19, 20, near science park, Subhash Nagar, Shastri Nagar, Jaipur, Rajasthan 302016, India",
    "neighborhood": "Subhash Nagar, Shastri Nagar",
    "street": "Plot no 19, 20, near science park",
    "city": "Jaipur",
    "postalCode": "302016",
    "state": "Rajasthan",
    "countryCode": "IN",
    "website": "https://www.rajasthantourismpackages.com/",
    "phone": "+919950066388",
    "phoneUnformatted": "+919950066388",
    "location": {
      "lat": 26.930998,
      "lng": 75.806182
    },
    "totalScore": 3.6,
    "permanentlyClosed": false,
    "temporarilyClosed": false,
    "placeId": "ChIJE6MvLfqzbTkR8mqm_sjTjUw",
    "categories": [
      "Car rental agency",
      "Bus tour agency",
      "Car leasing service",
      "Travel agency",
      "Motorcycle rental agency",
      "Scooter rental service",
      "Sightseeing tour agency",
      "Taxi service",
      "Tour agency",
      "Tour operator"
    ],
    "reviewsCount": 18,
    "imagesCount": 14,
    "openingHours": [
      {
        "day": "Monday",
        "hours": "9 AM to 8 PM"
      },
      {
        "day": "Tuesday",
        "hours": "9 AM to 8 PM"
      },
      {
        "day": "Wednesday",
        "hours": "9 AM to 8 PM"
      },
      {
        "day": "Thursday",
        "hours": "9 AM to 8 PM"
      },
      {
        "day": "Friday",
        "hours": "9 AM to 8 PM"
      },
      {
        "day": "Saturday",
        "hours": "9 AM to 8 PM"
      },
      {
        "day": "Sunday",
        "hours": "Closed"
      }
    ],
    "imageUrl": "https://media.indianluxurycars.com/google/545e58caaba2337eede0330fb512e005d6a0c0ab2da813d7ba29103712106ea1.jpg",
    "url": "https://www.google.com/maps/search/?api=1&query=Havishe%20Travel-Rajasthan%20Tour&query_place_id=ChIJE6MvLfqzbTkR8mqm_sjTjUw"
  },
  {
    "title": "Heritage Cabs : Luxury Tempo Traveller & Urbania Rental Jaipur",
    "subTitle": "हेरिटेज कैब्स",
    "categoryName": "Car rental agency",
    "address": "Nehru Place, NP-1, Tonk Rd, Lalkothi, Jaipur, Rajasthan 302015, India",
    "neighborhood": "Lalkothi",
    "street": "Nehru Place, NP-1, Tonk Rd",
    "city": "Jaipur",
    "postalCode": "302015",
    "state": "Rajasthan",
    "countryCode": "IN",
    "website": "https://heritagecabs.in/services/tempo-traveller",
    "phone": "+919799110000",
    "phoneUnformatted": "+919799110000",
    "location": {
      "lat": 26.8851334,
      "lng": 75.8011567
    },
    "totalScore": 4.9,
    "permanentlyClosed": false,
    "temporarilyClosed": false,
    "placeId": "ChIJi49_qlW1bTkRPdX07-M-Ask",
    "categories": [
      "Car rental agency",
      "Car leasing service",
      "Minibus taxi service",
      "Van rental agency"
    ],
    "reviewsCount": 283,
    "imagesCount": 323,
    "openingHours": [
      {
        "day": "Monday",
        "hours": "Open 24 hours"
      },
      {
        "day": "Tuesday",
        "hours": "Open 24 hours"
      },
      {
        "day": "Wednesday",
        "hours": "Open 24 hours"
      },
      {
        "day": "Thursday",
        "hours": "Open 24 hours"
      },
      {
        "day": "Friday",
        "hours": "Open 24 hours"
      },
      {
        "day": "Saturday",
        "hours": "Open 24 hours"
      },
      {
        "day": "Sunday",
        "hours": "Open 24 hours"
      }
    ],
    "imageUrl": "https://media.indianluxurycars.com/google/ac4fe8b7d074df663584022a45ffff0ad8a4844480d4972a102f9d5583e04700.jpg",
    "url": "https://www.google.com/maps/search/?api=1&query=Heritage%20Cabs%20%3A%20Luxury%20Tempo%20Traveller%20%26%20Urbania%20Rental%20Jaipur&query_place_id=ChIJi49_qlW1bTkRPdX07-M-Ask"
  },
  {
    "title": "Holly Elite Tours - Taxi in Jaipur",
    "subTitle": "होली एलीट टूर्स - टैक्सी इन जयपुर",
    "categoryName": "Car leasing service",
    "address": "2, 26, Amer Rd, Nagar Nigam Colony, Kagdiwara, Govind Nagar, Jaipur, Rajasthan 302002, India",
    "neighborhood": "Nagar Nigam Colony, Kagdiwara, Govind Nagar",
    "street": "2, 26, Amer Rd",
    "city": "Jaipur",
    "postalCode": "302002",
    "state": "Rajasthan",
    "countryCode": "IN",
    "phone": "+918824686506",
    "phoneUnformatted": "+918824686506",
    "location": {
      "lat": 26.940846,
      "lng": 75.835098
    },
    "totalScore": 5,
    "permanentlyClosed": false,
    "temporarilyClosed": true,
    "placeId": "ChIJOeqfw3GxbTkRTaS_QIdxXMU",
    "categories": [
      "Car leasing service",
      "Taxi service",
      "Minibus taxi service",
      "Tour operator",
      "Travel agency"
    ],
    "reviewsCount": 135,
    "imagesCount": 2,
    "openingHours": [],
    "imageUrl": "https://media.indianluxurycars.com/google/49a237dead67dd51b08646d8e4f9c0f2e74ab1a2ccc21ae798879a183a95defc.jpg",
    "url": "https://www.google.com/maps/search/?api=1&query=Holly%20Elite%20Tours%20-%20Taxi%20in%20Jaipur&query_place_id=ChIJOeqfw3GxbTkRTaS_QIdxXMU"
  },
  {
    "title": "Indo Routes",
    "subTitle": "हिन्द रूट्स",
    "categoryName": "Car rental agency",
    "address": "M-75, Sahakar Marg, near JP railway underpass, J.P. Fatak, Mahesh colony, Tonk Phatak, Jaipur, Rajasthan 302015, India",
    "neighborhood": "J.P. Fatak, Mahesh colony, Tonk Phatak",
    "street": "M-75, Sahakar Marg, near JP railway underpass",
    "city": "Jaipur",
    "postalCode": "302015",
    "state": "Rajasthan",
    "countryCode": "IN",
    "website": "https://www.indoroutes.com/",
    "phone": "+919555638677",
    "phoneUnformatted": "+919555638677",
    "location": {
      "lat": 26.8829027,
      "lng": 75.7944228
    },
    "totalScore": 3.8,
    "permanentlyClosed": false,
    "temporarilyClosed": false,
    "placeId": "ChIJHZsdjhGxbTkR246qFAsTVXs",
    "categories": [
      "Car rental agency",
      "Tour operator",
      "Sightseeing tour agency",
      "Tour agency",
      "Travel agency"
    ],
    "reviewsCount": 6,
    "imagesCount": 256,
    "openingHours": [
      {
        "day": "Monday",
        "hours": "9 AM to 8 PM"
      },
      {
        "day": "Tuesday",
        "hours": "9 AM to 8 PM"
      },
      {
        "day": "Wednesday",
        "hours": "9 AM to 8 PM"
      },
      {
        "day": "Thursday",
        "hours": "9 AM to 8 PM"
      },
      {
        "day": "Friday",
        "hours": "9 AM to 8 PM"
      },
      {
        "day": "Saturday",
        "hours": "9 AM to 8 PM"
      },
      {
        "day": "Sunday",
        "hours": "9 AM to 8 PM"
      }
    ],
    "imageUrl": "https://media.indianluxurycars.com/google/eae3882991913d7f97b6f25f30375477016f14f4d3a018b31aa4374b51512802.jpg",
    "url": "https://www.google.com/maps/search/?api=1&query=Indo%20Routes&query_place_id=ChIJHZsdjhGxbTkR246qFAsTVXs"
  },
  {
    "title": "Innova Crysta Car Hire",
    "subTitle": "इनोवा क्रिस्टा कार हीरे",
    "categoryName": "Car rental agency",
    "address": "Mangal vihar F-16, Swej Farm Road near MJRP College Road Ram Nagar, Vistar Rd, Sodala, Jaipur, Rajasthan 302019, India",
    "neighborhood": "Ganesh Nagar, Sodala",
    "street": "Mangal vihar F-16, Swej Farm Road near MJRP College Road Ram Nagar, Vistar Rd",
    "city": "Jaipur",
    "postalCode": "302019",
    "state": "Rajasthan",
    "countryCode": "IN",
    "website": "https://www.innovacrystacars.in/index.php",
    "phone": "+919214009016",
    "phoneUnformatted": "+919214009016",
    "location": {
      "lat": 26.8927796,
      "lng": 75.7785627
    },
    "totalScore": 4.9,
    "permanentlyClosed": false,
    "temporarilyClosed": false,
    "placeId": "ChIJc9F-7UG0bTkR6lUu53N4dQg",
    "categories": [
      "Car rental agency",
      "Bus tour agency",
      "Taxi service"
    ],
    "reviewsCount": 324,
    "imagesCount": 34,
    "openingHours": [
      {
        "day": "Monday",
        "hours": "Open 24 hours"
      },
      {
        "day": "Tuesday",
        "hours": "Open 24 hours"
      },
      {
        "day": "Wednesday",
        "hours": "Open 24 hours"
      },
      {
        "day": "Thursday",
        "hours": "Open 24 hours"
      },
      {
        "day": "Friday",
        "hours": "Open 24 hours"
      },
      {
        "day": "Saturday",
        "hours": "Open 24 hours"
      },
      {
        "day": "Sunday",
        "hours": "Open 24 hours"
      }
    ],
    "imageUrl": "https://media.indianluxurycars.com/google/518bf146d2c9a4330c0b1d12a7e27a4b1252e7efe886eac836ea8aabd1710d07.jpg",
    "url": "https://www.google.com/maps/search/?api=1&query=Innova%20Crysta%20Car%20Hire&query_place_id=ChIJc9F-7UG0bTkR6lUu53N4dQg"
  },
  {
    "title": "Jaipur Cab Services —— Local , Outstation & Taxi Service",
    "subTitle": "जयपुर कैब सर्विसेस",
    "categoryName": "Car rental agency",
    "address": "H-No. 55-A, Khatipura Rd, near NBC, Kanta Colony, Raval Gi Ka Banda, Hasanpura, Jaipur, Rajasthan 302006, India",
    "neighborhood": "Kanta Colony, Raval Gi Ka Banda, Hasanpura",
    "street": "H-No. 55-A, Khatipura Rd, near NBC",
    "city": "Jaipur",
    "postalCode": "302006",
    "state": "Rajasthan",
    "countryCode": "IN",
    "website": "https://jaipurcabservices.com/",
    "phone": "+919929728906",
    "phoneUnformatted": "+919929728906",
    "location": {
      "lat": 26.9202849,
      "lng": 75.7719607
    },
    "totalScore": 5,
    "permanentlyClosed": false,
    "temporarilyClosed": false,
    "placeId": "ChIJ7_q5hluzbTkRZgj9a8FnrLU",
    "categories": [
      "Car rental agency",
      "Taxi service",
      "Sightseeing tour agency",
      "Tour agency",
      "Tour operator",
      "Tourist information center",
      "Travel agency"
    ],
    "reviewsCount": 183,
    "imagesCount": 15,
    "openingHours": [],
    "imageUrl": "https://media.indianluxurycars.com/google/b06fd48ec761bcbfd08a3c39420d0910c133aa2763a1f8c8f9f1f66fe727e54f.jpg",
    "url": "https://www.google.com/maps/search/?api=1&query=Jaipur%20Cab%20Services%20%E2%80%94%E2%80%94%20Local%20%2C%20Outstation%20%26%20Taxi%20Service&query_place_id=ChIJ7_q5hluzbTkRZgj9a8FnrLU"
  },
  {
    "title": "Jaipur Car Rental with Driver Group",
    "subTitle": "जयपुर कार रेंटल विथ ड्राइवर ग्रुप",
    "categoryName": "Car rental agency",
    "address": "42, Dhuleshwer Garden, Ajmer Rd, Jaipur, Rajasthan 302001, India",
    "neighborhood": "Mission Compound",
    "street": "42, Dhuleshwer Garden, Ajmer Rd",
    "city": "Jaipur",
    "postalCode": "302001",
    "state": "Rajasthan",
    "countryCode": "IN",
    "website": "https://jaipurcarrental.org/",
    "phone": "+919950750550",
    "phoneUnformatted": "+919950750550",
    "location": {
      "lat": 26.9143724,
      "lng": 75.7960633
    },
    "totalScore": 4.8,
    "permanentlyClosed": false,
    "temporarilyClosed": false,
    "placeId": "ChIJfSDXAXO0bTkRd29OxK8jH7A",
    "categories": [
      "Car rental agency",
      "Car leasing service",
      "Sightseeing tour agency",
      "Taxi service",
      "Tour agency",
      "Travel agency",
      "Wedding service"
    ],
    "reviewsCount": 397,
    "imagesCount": 93,
    "openingHours": [
      {
        "day": "Monday",
        "hours": "Open 24 hours"
      },
      {
        "day": "Tuesday",
        "hours": "Open 24 hours"
      },
      {
        "day": "Wednesday",
        "hours": "Open 24 hours"
      },
      {
        "day": "Thursday",
        "hours": "Open 24 hours"
      },
      {
        "day": "Friday",
        "hours": "Open 24 hours"
      },
      {
        "day": "Saturday",
        "hours": "Open 24 hours"
      },
      {
        "day": "Sunday",
        "hours": "Open 24 hours"
      }
    ],
    "imageUrl": "https://media.indianluxurycars.com/google/0f167c380f5ca42448812eee636c6efd5874d63188d500ed96f5c3e3ad4b4b10.jpg",
    "url": "https://www.google.com/maps/search/?api=1&query=Jaipur%20Car%20Rental%20with%20Driver%20Group&query_place_id=ChIJfSDXAXO0bTkRd29OxK8jH7A"
  },
  {
    "title": "Jaipur City Cab",
    "subTitle": "जयपुर सिटी कैब",
    "categoryName": "Car rental agency",
    "address": "B-2, gangapol road, Chandra Shekhar Azad Colony, Bas Badanpura, Jaipur, Rajasthan 302002, India",
    "neighborhood": "Chandra Shekhar Azad Colony, Bas Badanpura",
    "street": "B-2, gangapol road",
    "city": "Jaipur",
    "postalCode": "302002",
    "state": "Rajasthan",
    "countryCode": "IN",
    "website": "https://www.jaipurcitycab.in/",
    "phone": "+916376602323",
    "phoneUnformatted": "+916376602323",
    "location": {
      "lat": 26.936185,
      "lng": 75.842356
    },
    "totalScore": 5,
    "permanentlyClosed": false,
    "temporarilyClosed": false,
    "placeId": "ChIJiQaMQsexbTkR_II8lPiSyRY",
    "categories": [
      "Car rental agency",
      "Bus tour agency",
      "Car leasing service",
      "Taxi service",
      "Sightseeing tour agency",
      "Tour agency",
      "Tour operator"
    ],
    "reviewsCount": 500,
    "imagesCount": 402,
    "openingHours": [],
    "imageUrl": "https://media.indianluxurycars.com/google/d1a449150d66250fc23b16b38290adecb11040aa487626aff02e018d2fc679eb.jpg",
    "url": "https://www.google.com/maps/search/?api=1&query=Jaipur%20City%20Cab&query_place_id=ChIJiQaMQsexbTkR_II8lPiSyRY"
  },
  {
    "title": "Jaipur Private Tour/Jaipur Taxi Service/Jaipur sightseeing Tour",
    "subTitle": "जयपुर प्राइवेट टूर/जयपुर टैक्सी सर्विस/जयपुर साइटसीइंग टूर",
    "categoryName": "Car leasing service",
    "address": "S-3, Raghu Shree Apartment, C-23, Sawai Jai Singh Hwy, Sen Colony, Bani Park, Jaipur, Rajasthan 302016, India",
    "neighborhood": "Sen Colony, Bani Park",
    "street": "S-3, Raghu Shree Apartment, C-23, Sawai Jai Singh Hwy",
    "city": "Jaipur",
    "postalCode": "302016",
    "state": "Rajasthan",
    "countryCode": "IN",
    "website": "http://www.goldentriangletoursinindia.com/",
    "phone": "+919314165249",
    "phoneUnformatted": "+919314165249",
    "location": {
      "lat": 26.9285961,
      "lng": 75.7907885
    },
    "totalScore": 5,
    "permanentlyClosed": false,
    "temporarilyClosed": false,
    "placeId": "ChIJ6bVX2texbTkRRItDMyQoQuk",
    "categories": [
      "Car leasing service",
      "Auto rickshaw stand",
      "Sightseeing tour agency",
      "Minibus taxi service",
      "Taxi service",
      "Tour operator",
      "Tourist attraction",
      "Travel agency"
    ],
    "reviewsCount": 92,
    "imagesCount": 35,
    "openingHours": [
      {
        "day": "Monday",
        "hours": "Open 24 hours"
      },
      {
        "day": "Tuesday",
        "hours": "Open 24 hours"
      },
      {
        "day": "Wednesday",
        "hours": "Open 24 hours"
      },
      {
        "day": "Thursday",
        "hours": "Open 24 hours"
      },
      {
        "day": "Friday",
        "hours": "Open 24 hours"
      },
      {
        "day": "Saturday",
        "hours": "Open 24 hours"
      },
      {
        "day": "Sunday",
        "hours": "Open 24 hours"
      }
    ],
    "imageUrl": "https://media.indianluxurycars.com/google/05cff0b3a0d96cf8d0ccdcf77787353b10f92b10ede3c2d4471991ad25927745.jpg",
    "url": "https://www.google.com/maps/search/?api=1&query=Jaipur%20Private%20Tour%2FJaipur%20Taxi%20Service%2FJaipur%20sightseeing%20Tour&query_place_id=ChIJ6bVX2texbTkRRItDMyQoQuk"
  },
  {
    "title": "Jaipur Sightseeing Tour",
    "subTitle": "जयपुर साइटसीिंग टूर",
    "categoryName": "Car rental agency",
    "address": "B/H, Vidhayakpuri Thana, SangamTower (Street, near St. Xaviers College, opp. Rotary Club, Sector 2, Hathroi, Jaipur, Rajasthan 302001, India",
    "neighborhood": "Sector 2, Hathroi",
    "street": "B/H, Vidhayakpuri Thana, SangamTower (Street, near St. Xaviers College, opp. Rotary Club",
    "city": "Jaipur",
    "postalCode": "302001",
    "state": "Rajasthan",
    "countryCode": "IN",
    "website": "https://www.jaipursightseeingtour.com/",
    "phone": "+919829833465",
    "phoneUnformatted": "+919829833465",
    "location": {
      "lat": 26.9172129,
      "lng": 75.7972264
    },
    "totalScore": 5,
    "permanentlyClosed": false,
    "temporarilyClosed": false,
    "placeId": "ChIJdTuBPJ21bTkRzM2RI7ZHCAc",
    "categories": [
      "Car rental agency",
      "Sightseeing tour agency",
      "Taxi service",
      "Tour agency",
      "Tourist information center",
      "Travel agency"
    ],
    "reviewsCount": 276,
    "imagesCount": 261,
    "openingHours": [
      {
        "day": "Monday",
        "hours": "Open 24 hours"
      },
      {
        "day": "Tuesday",
        "hours": "Open 24 hours"
      },
      {
        "day": "Wednesday",
        "hours": "Open 24 hours"
      },
      {
        "day": "Thursday",
        "hours": "Open 24 hours"
      },
      {
        "day": "Friday",
        "hours": "Open 24 hours"
      },
      {
        "day": "Saturday",
        "hours": "Open 24 hours"
      },
      {
        "day": "Sunday",
        "hours": "Open 24 hours"
      }
    ],
    "imageUrl": "https://media.indianluxurycars.com/google/5ed24f06423f64539e71aa146a46ec06ff175c9b4ee46ba17d2749233b030a0c.jpg",
    "url": "https://www.google.com/maps/search/?api=1&query=Jaipur%20Sightseeing%20Tour&query_place_id=ChIJdTuBPJ21bTkRzM2RI7ZHCAc"
  },
  {
    "title": "Jaipur Travel",
    "subTitle": "जयपुर ट्रैवल",
    "categoryName": "Car rental agency",
    "address": "C, BUILDING, C-20 / B-2, Umaid Mahal Hotel, Jai Singh Highway, 20 / B-2, Bihari Marg, opp. Lane of K.P. Automotives, Sen Colony, Bani Park, Jaipur, Rajasthan 302016, India",
    "neighborhood": "Sen Colony, Bani Park",
    "street": "C, BUILDING, C-20 / B-2, Umaid Mahal Hotel, Jai Singh Highway, 20 / B-2, Bihari Marg, opp. Lane of K.P. Automotives",
    "city": "Jaipur",
    "postalCode": "302016",
    "state": "Rajasthan",
    "countryCode": "IN",
    "website": "http://www.jaipurtravel.com/",
    "phone": "+911412204470",
    "phoneUnformatted": "+911412204470",
    "location": {
      "lat": 26.9279147,
      "lng": 75.7889714
    },
    "totalScore": 4,
    "permanentlyClosed": false,
    "temporarilyClosed": false,
    "placeId": "ChIJ6cbTIfKzbTkRHkfBKp09vq0",
    "categories": [
      "Car rental agency",
      "Travel agency",
      "Tour operator"
    ],
    "reviewsCount": 58,
    "imagesCount": 118,
    "openingHours": [
      {
        "day": "Monday",
        "hours": "Open 24 hours"
      },
      {
        "day": "Tuesday",
        "hours": "Open 24 hours"
      },
      {
        "day": "Wednesday",
        "hours": "Open 24 hours"
      },
      {
        "day": "Thursday",
        "hours": "Open 24 hours"
      },
      {
        "day": "Friday",
        "hours": "Open 24 hours"
      },
      {
        "day": "Saturday",
        "hours": "Open 24 hours"
      },
      {
        "day": "Sunday",
        "hours": "Open 24 hours"
      }
    ],
    "imageUrl": "https://media.indianluxurycars.com/google/2d75c8ee8a83cbde39ce74e77497259b62c8872cfdc20dbbe495d566891ba927.jpg",
    "url": "https://www.google.com/maps/search/?api=1&query=Jaipur%20Travel&query_place_id=ChIJ6cbTIfKzbTkRHkfBKp09vq0"
  },
  {
    "title": "Jaipur Trip Travels",
    "subTitle": "जयपुर ट्रिप ट्रैवल्स",
    "categoryName": "Car rental agency",
    "address": "shopping Center, A - 39, Subhash Nagar Rd, Subash Nagar, Shastri Nagar, Jaipur, Rajasthan 302039, India",
    "neighborhood": "Subash Nagar, Shastri Nagar",
    "street": "shopping Center, A - 39, Subhash Nagar Rd",
    "city": "Jaipur",
    "postalCode": "302039",
    "state": "Rajasthan",
    "countryCode": "IN",
    "website": "http://www.jaipurtriptravels.in/",
    "phone": "+919588216564",
    "phoneUnformatted": "+919588216564",
    "location": {
      "lat": 26.9368557,
      "lng": 75.7960487
    },
    "totalScore": 5,
    "permanentlyClosed": false,
    "temporarilyClosed": false,
    "placeId": "ChIJFxNXkLezbTkRq7DNBaG6WJg",
    "categories": [
      "Car rental agency",
      "Sightseeing tour agency",
      "Taxi service",
      "Tour operator"
    ],
    "reviewsCount": 24,
    "imagesCount": 7,
    "openingHours": [
      {
        "day": "Monday",
        "hours": "Open 24 hours"
      },
      {
        "day": "Tuesday",
        "hours": "Open 24 hours"
      },
      {
        "day": "Wednesday",
        "hours": "Open 24 hours"
      },
      {
        "day": "Thursday",
        "hours": "Open 24 hours"
      },
      {
        "day": "Friday",
        "hours": "Open 24 hours"
      },
      {
        "day": "Saturday",
        "hours": "Open 24 hours"
      },
      {
        "day": "Sunday",
        "hours": "Open 24 hours"
      }
    ],
    "imageUrl": "https://media.indianluxurycars.com/google/2c9a51e18e3c54c44e30e288c41ab7d89e44038f789d6110c2687c0620231ccc.jpg",
    "url": "https://www.google.com/maps/search/?api=1&query=Jaipur%20Trip%20Travels&query_place_id=ChIJFxNXkLezbTkRq7DNBaG6WJg"
  },
  {
    "title": "jaipur vintage cars",
    "subTitle": "जयपुर विंटेज कार्स",
    "categoryName": "Car rental agency",
    "address": "A-1 meer ji ka bagh M,L,A quarter GPO, Jaipur, Rajasthan 302001, India",
    "neighborhood": "Pink City",
    "street": "A-1 meer ji ka bagh M,L,A quarter GPO",
    "city": "Jaipur",
    "postalCode": "302001",
    "state": "Rajasthan",
    "countryCode": "IN",
    "website": "http://www.jaipurvintagecars.com/",
    "phone": "+919829631335",
    "phoneUnformatted": "+919829631335",
    "location": {
      "lat": 26.9193703,
      "lng": 75.8041561
    },
    "totalScore": 4.1,
    "permanentlyClosed": false,
    "temporarilyClosed": false,
    "placeId": "ChIJz6gF7aq2bTkRAWGUPRF4phU",
    "categories": [
      "Car rental agency",
      "Auto repair shop",
      "Car leasing service"
    ],
    "reviewsCount": 10,
    "imagesCount": 39,
    "openingHours": [
      {
        "day": "Monday",
        "hours": "9 AM to 8 PM"
      },
      {
        "day": "Tuesday",
        "hours": "9 AM to 8 PM"
      },
      {
        "day": "Wednesday",
        "hours": "9 AM to 8 PM"
      },
      {
        "day": "Thursday",
        "hours": "9 AM to 8 PM"
      },
      {
        "day": "Friday",
        "hours": "9 AM to 8 PM"
      },
      {
        "day": "Saturday",
        "hours": "9 AM to 8 PM"
      },
      {
        "day": "Sunday",
        "hours": "9 AM to 8 PM"
      }
    ],
    "imageUrl": "https://media.indianluxurycars.com/google/b177853a257ec2c3d61d2363a97b01d1635e29d8ecbad866a2d019779f6c2fb3.jpg",
    "url": "https://www.google.com/maps/search/?api=1&query=jaipur%20vintage%20cars&query_place_id=ChIJz6gF7aq2bTkRAWGUPRF4phU"
  },
  {
    "title": "Jaipur Vintage Cars On Rent",
    "subTitle": "जयपुर विंटेज कार्स ऑन रेंट",
    "categoryName": "Car leasing service",
    "address": "25, Sanganeri Gate, 3, Agra Rd, opp. Agarwal College, Amratpuri, Pink City, Jaipur, Rajasthan 302004, India",
    "neighborhood": "Amratpuri, Pink City",
    "street": "25, Sanganeri Gate, 3, Agra Rd, opp. Agarwal College",
    "city": "Jaipur",
    "state": "Rajasthan",
    "countryCode": "IN",
    "phone": "+919828015639",
    "phoneUnformatted": "+919828015639",
    "location": {
      "lat": 26.9084214,
      "lng": 75.8390516
    },
    "totalScore": 3,
    "permanentlyClosed": false,
    "temporarilyClosed": true,
    "placeId": "ChIJuwAq-cS2bTkRdYk--Gk67RY",
    "categories": [
      "Car leasing service"
    ],
    "reviewsCount": 2,
    "imagesCount": 10,
    "openingHours": [],
    "imageUrl": "https://media.indianluxurycars.com/google/f32e05d85cc780ba1e53c6cbe011d605b36729a3a6eeeff2a9d1333bfa12985e.jpg",
    "url": "https://www.google.com/maps/search/?api=1&query=Jaipur%20Vintage%20Cars%20On%20Rent&query_place_id=ChIJuwAq-cS2bTkRdYk--Gk67RY"
  },
  {
    "title": "Jasbhag Tours & Travels",
    "subTitle": "जसभाग टूर्स & ट्रैवल्स",
    "categoryName": "Car rental agency",
    "address": "S.Bhag Singh Ji Crossing, 209, Bhag Singh Rd, Frontier Colony, Adarsh Nagar, Jaipur, Rajasthan 302004, India",
    "neighborhood": "Frontier Colony, Adarsh Nagar",
    "street": "S.Bhag Singh Ji Crossing, 209, Bhag Singh Rd",
    "city": "Jaipur",
    "postalCode": "302004",
    "state": "Rajasthan",
    "countryCode": "IN",
    "website": "http://www.jasbhagtoursindia.com/",
    "phone": "+919829012636",
    "phoneUnformatted": "+919829012636",
    "location": {
      "lat": 26.8988064,
      "lng": 75.827901
    },
    "totalScore": 4.6,
    "permanentlyClosed": false,
    "temporarilyClosed": false,
    "placeId": "ChIJ95_71b-2bTkRwSd12CBHueQ",
    "categories": [
      "Car rental agency",
      "Airline ticket agency",
      "Bus tour agency",
      "Travel agency",
      "Sightseeing tour agency",
      "Tour agency"
    ],
    "reviewsCount": 44,
    "imagesCount": 23,
    "openingHours": [
      {
        "day": "Monday",
        "hours": "11 AM to 6 PM"
      },
      {
        "day": "Tuesday",
        "hours": "11 AM to 6 PM"
      },
      {
        "day": "Wednesday",
        "hours": "11 AM to 6 PM"
      },
      {
        "day": "Thursday",
        "hours": "11 AM to 6 PM"
      },
      {
        "day": "Friday",
        "hours": "11 AM to 6 PM"
      },
      {
        "day": "Saturday",
        "hours": "11 AM to 5 PM"
      },
      {
        "day": "Sunday",
        "hours": "Closed"
      }
    ],
    "imageUrl": "https://media.indianluxurycars.com/google/c9c299eb4182e72b582d861d6b021549ff4d8ba49324f21da3997b6fcbf9abfc.jpg",
    "url": "https://www.google.com/maps/search/?api=1&query=Jasbhag%20Tours%20%26%20Travels&query_place_id=ChIJ95_71b-2bTkRwSd12CBHueQ"
  },
  {
    "title": "Jhalani Tour and Travels",
    "subTitle": "झालानी टूर एंड ट्रैवल्स",
    "categoryName": "Car leasing service",
    "address": "d 20, Meera Marg, near D M B SWEET, Bani Park, Jaipur, Rajasthan 302016, India",
    "neighborhood": "Bani Park",
    "street": "d 20, Meera Marg, near D M B SWEET",
    "city": "Jaipur",
    "postalCode": "302016",
    "state": "Rajasthan",
    "countryCode": "IN",
    "website": "https://jhalanitourandtravels.com/",
    "phone": "+917014538634",
    "phoneUnformatted": "+917014538634",
    "location": {
      "lat": 26.9310015,
      "lng": 75.7985925
    },
    "totalScore": 5,
    "permanentlyClosed": false,
    "temporarilyClosed": false,
    "placeId": "ChIJzVHGzLqzbTkR1tmax38C8oc",
    "categories": [
      "Car leasing service",
      "Taxi service",
      "Minibus taxi service",
      "Taxicab Stand",
      "Taxidermist"
    ],
    "reviewsCount": 22,
    "imagesCount": 29,
    "openingHours": [],
    "imageUrl": "https://media.indianluxurycars.com/google/1428bb6133abb9282cf9e98b3952ddb8b1a007615d6e7729bfd686ea78fc76e4.jpg",
    "url": "https://www.google.com/maps/search/?api=1&query=Jhalani%20Tour%20and%20Travels&query_place_id=ChIJzVHGzLqzbTkR1tmax38C8oc"
  },
  {
    "title": "JoJo Car Rental",
    "subTitle": "जोजो कार रेंटल",
    "categoryName": "Car rental agency",
    "address": "3rd Floor-MotiLal Atal Road Ganpati Plaza, Mirza Ismail Rd, Jaipur, Rajasthan 302001, India",
    "neighborhood": "C Scheme, Ashok Nagar",
    "street": "3rd Floor-MotiLal Atal Road Ganpati Plaza, Mirza Ismail Rd",
    "city": "Jaipur",
    "postalCode": "302001",
    "state": "Rajasthan",
    "countryCode": "IN",
    "phone": "+917300404204",
    "phoneUnformatted": "+917300404204",
    "location": {
      "lat": 26.9161894,
      "lng": 75.8059547
    },
    "totalScore": 5,
    "permanentlyClosed": false,
    "temporarilyClosed": false,
    "placeId": "ChIJ1zVL-py3bTkR1U26eashfrQ",
    "categories": [
      "Car rental agency",
      "Sightseeing tour agency",
      "Taxi service",
      "Travel agency"
    ],
    "reviewsCount": 9,
    "imagesCount": 26,
    "openingHours": [],
    "imageUrl": "https://media.indianluxurycars.com/google/b9f5e8477ba592b8857290361778fbdc03ab0c26d702fb0758d3c2e42b2042dd.jpg",
    "url": "https://www.google.com/maps/search/?api=1&query=JoJo%20Car%20Rental&query_place_id=ChIJ1zVL-py3bTkR1U26eashfrQ"
  },
  {
    "title": "Luxe cars",
    "subTitle": "ल्यूक्स कार्स",
    "categoryName": "Car dealer",
    "address": "Shalom, Pulia, Ajmer Rd, Devi Niketan Compound, Mission Compound, Jaipur, Rajasthan 302001, India",
    "neighborhood": "Devi Niketan Compound, Mission Compound",
    "street": "Shalom, Pulia, Ajmer Rd",
    "city": "Jaipur",
    "postalCode": "302001",
    "state": "Rajasthan",
    "countryCode": "IN",
    "phone": "+918890935046",
    "phoneUnformatted": "+918890935046",
    "location": {
      "lat": 26.9142331,
      "lng": 75.7938508
    },
    "totalScore": 4.7,
    "permanentlyClosed": false,
    "temporarilyClosed": false,
    "placeId": "ChIJd9lGKQK1bTkRiObWrpWZcds",
    "categories": [
      "Car dealer"
    ],
    "reviewsCount": 22,
    "imagesCount": 89,
    "openingHours": [
      {
        "day": "Monday",
        "hours": "10 AM to 6 PM"
      },
      {
        "day": "Tuesday",
        "hours": "10 AM to 6 PM"
      },
      {
        "day": "Wednesday",
        "hours": "10 AM to 6 PM"
      },
      {
        "day": "Thursday",
        "hours": "10 AM to 6 PM"
      },
      {
        "day": "Friday",
        "hours": "10 AM to 6 PM"
      },
      {
        "day": "Saturday",
        "hours": "10 AM to 6 PM"
      },
      {
        "day": "Sunday",
        "hours": "10 AM to 6 PM"
      }
    ],
    "imageUrl": "https://media.indianluxurycars.com/google/e99cb5dc4c7bca73924d1aac99e61d8777632d40b34420ca2bb62121a7cdadbc.jpg",
    "url": "https://www.google.com/maps/search/?api=1&query=Luxe%20cars&query_place_id=ChIJd9lGKQK1bTkRiObWrpWZcds"
  },
  {
    "title": "Luxury Car Rental Jaipur",
    "subTitle": "लक्जरी कार रेंटल जयपुर",
    "categoryName": "Car rental agency",
    "address": "D, Whispering Palms, 300 III Floor, 42, Subhash Marg, Jaipur, Rajasthan 302001, India",
    "neighborhood": "C Scheme, Ashok Nagar",
    "street": "D, Whispering Palms, 300 III Floor, 42, Subhash Marg",
    "city": "Jaipur",
    "postalCode": "302001",
    "state": "Rajasthan",
    "countryCode": "IN",
    "website": "https://luxurycarrentaljaipur.com/",
    "phone": "+919799942109",
    "phoneUnformatted": "+919799942109",
    "location": {
      "lat": 26.9109926,
      "lng": 75.8011663
    },
    "totalScore": 5,
    "permanentlyClosed": false,
    "temporarilyClosed": false,
    "placeId": "ChIJMVNd6tn1JqQRinlJxXjIXN4",
    "categories": [
      "Car rental agency"
    ],
    "reviewsCount": 1,
    "imagesCount": 6,
    "openingHours": [
      {
        "day": "Monday",
        "hours": "Open 24 hours"
      },
      {
        "day": "Tuesday",
        "hours": "Open 24 hours"
      },
      {
        "day": "Wednesday",
        "hours": "Open 24 hours"
      },
      {
        "day": "Thursday",
        "hours": "Open 24 hours"
      },
      {
        "day": "Friday",
        "hours": "Open 24 hours"
      },
      {
        "day": "Saturday",
        "hours": "Open 24 hours"
      },
      {
        "day": "Sunday",
        "hours": "Open 24 hours"
      }
    ],
    "imageUrl": "https://media.indianluxurycars.com/google/08d539b07f9a9e6eefab07abea73d149ed28a1311dabe9af598c7a7cfbecf00d.png",
    "url": "https://www.google.com/maps/search/?api=1&query=Luxury%20Car%20Rental%20Jaipur&query_place_id=ChIJMVNd6tn1JqQRinlJxXjIXN4"
  },
  {
    "title": "Luxury Urbania Rental - Tempo Traveller, Urbania Rental Jaipur, Delhi, Agra",
    "subTitle": "लक्जरी अर्बनिया रेंटल - टेम्पो ट्रैवलर, अर्बनिया रेंटल जयपुर, दिल्ली, आगरा",
    "categoryName": "Car leasing service",
    "address": "Anchor Mall, GC-7, Ajmer Rd, behind Orbit Mall, Madrampur, Sodala, Jaipur, Rajasthan 302006, India",
    "neighborhood": "Madrampur, Sodala",
    "street": "Anchor Mall, GC-7, Ajmer Rd, behind Orbit Mall",
    "city": "Jaipur",
    "postalCode": "302006",
    "state": "Rajasthan",
    "countryCode": "IN",
    "website": "https://luxuryurbaniarental.com/",
    "phone": "+919982110660",
    "phoneUnformatted": "+919982110660",
    "location": {
      "lat": 26.9109551,
      "lng": 75.7836844
    },
    "totalScore": 5,
    "permanentlyClosed": false,
    "temporarilyClosed": false,
    "placeId": "ChIJw7yzSLK1bTkRMZseGHky3p8",
    "categories": [
      "Car leasing service",
      "Van rental agency"
    ],
    "reviewsCount": 40,
    "imagesCount": 15,
    "openingHours": [
      {
        "day": "Monday",
        "hours": "Open 24 hours"
      },
      {
        "day": "Tuesday",
        "hours": "Open 24 hours"
      },
      {
        "day": "Wednesday",
        "hours": "Open 24 hours"
      },
      {
        "day": "Thursday",
        "hours": "Open 24 hours"
      },
      {
        "day": "Friday",
        "hours": "Open 24 hours"
      },
      {
        "day": "Saturday",
        "hours": "Open 24 hours"
      },
      {
        "day": "Sunday",
        "hours": "Open 24 hours"
      }
    ],
    "imageUrl": "https://media.indianluxurycars.com/google/90357a12304f0d034acf77c0c2d06504e99ff5ec5cbd51ce1e1e52f2409d3a8d.jpg",
    "url": "https://www.google.com/maps/search/?api=1&query=Luxury%20Urbania%20Rental%20-%20Tempo%20Traveller%2C%20Urbania%20Rental%20Jaipur%2C%20Delhi%2C%20Agra&query_place_id=ChIJw7yzSLK1bTkRMZseGHky3p8"
  },
  {
    "title": "Maharani Cab Jaipur - Taxi & Cab Service in Jaipur",
    "subTitle": "महारानी कैब जयपुर",
    "categoryName": "Car rental agency",
    "address": "Plot no.2, Gurunanak Colony, Rajhans Colony, Tripolia Bazar, Brahampuri, Jaipur, Rajasthan 302002, India",
    "neighborhood": "Gurunanak Colony, Rajhans Colony, Tripolia Bazar, Brahampuri",
    "street": "Plot no.2",
    "city": "Jaipur",
    "postalCode": "302002",
    "state": "Rajasthan",
    "countryCode": "IN",
    "website": "https://maharanicabjaipur.com/",
    "phone": "+919828381224",
    "phoneUnformatted": "+919828381224",
    "location": {
      "lat": 26.9331741,
      "lng": 75.8227243
    },
    "totalScore": 5,
    "permanentlyClosed": false,
    "temporarilyClosed": false,
    "placeId": "ChIJT_6z5TyxbTkRgYqCPqZ4cOM",
    "categories": [
      "Car rental agency",
      "Car leasing service",
      "Taxi service",
      "Minibus taxi service",
      "Sightseeing tour agency",
      "Tour operator"
    ],
    "reviewsCount": 2987,
    "imagesCount": 285,
    "openingHours": [],
    "imageUrl": "https://media.indianluxurycars.com/google/09e78a8c7897ef1542349ea73d492ac732e979e9a4ad2adffb1542fee14aa78b.jpg",
    "url": "https://www.google.com/maps/search/?api=1&query=Maharani%20Cab%20Jaipur%20-%20Taxi%20%26%20Cab%20Service%20in%20Jaipur&query_place_id=ChIJT_6z5TyxbTkRgYqCPqZ4cOM"
  },
  {
    "title": "Mahindra K S Motors - MI Road",
    "subTitle": "के एस मोटर्स प्राइवेट लिमिटेड",
    "categoryName": "Car dealer",
    "address": "National Motors Building, Government Hostel Crossing, Mirza Ismail Rd, near Amrapur Darbar, Sindhi Camp, Jaipur, Rajasthan 302001, India",
    "neighborhood": "Sindhi Camp",
    "street": "National Motors Building, Government Hostel Crossing, Mirza Ismail Rd, near Amrapur Darbar",
    "city": "Jaipur",
    "postalCode": "302001",
    "state": "Rajasthan",
    "countryCode": "IN",
    "website": "http://www.ksmotorsmahindra.com/",
    "phone": "+917574808728",
    "phoneUnformatted": "+917574808728",
    "location": {
      "lat": 26.9182433,
      "lng": 75.8009779
    },
    "totalScore": 4.6,
    "permanentlyClosed": false,
    "temporarilyClosed": false,
    "placeId": "ChIJy27rztK1bTkRrvrE958J-xE",
    "categories": [
      "Car dealer"
    ],
    "reviewsCount": 3283,
    "imagesCount": 724,
    "openingHours": [
      {
        "day": "Monday",
        "hours": "9:30 AM to 7 PM"
      },
      {
        "day": "Tuesday",
        "hours": "9:30 AM to 7 PM"
      },
      {
        "day": "Wednesday",
        "hours": "9:30 AM to 7 PM"
      },
      {
        "day": "Thursday",
        "hours": "9:30 AM to 7 PM"
      },
      {
        "day": "Friday",
        "hours": "9:30 AM to 7 PM"
      },
      {
        "day": "Saturday",
        "hours": "9:30 AM to 7 PM"
      },
      {
        "day": "Sunday",
        "hours": "Closed"
      }
    ],
    "imageUrl": "https://media.indianluxurycars.com/google/d91387446f58c36f4044d97e30356041e176d6ee6279ba3aae269666d6aa25e3.jpg",
    "url": "https://www.google.com/maps/search/?api=1&query=Mahindra%20K%20S%20Motors%20-%20MI%20Road&query_place_id=ChIJy27rztK1bTkRrvrE958J-xE"
  },
  {
    "title": "Nagori Travels -",
    "subTitle": "नागोरी ट्रेवल्स",
    "categoryName": "Car rental agency",
    "address": "Shop No. 9, WR7M+5XW, Agra Rd, near Ankur Cinema Hall, Ghat Gate, Amratpuri, Transport Nagar, Jaipur, Rajasthan 302003, India",
    "neighborhood": "Ghat Gate, Amratpuri, Transport Nagar",
    "street": "Shop No. 9, WR7M+5XW, Agra Rd, near Ankur Cinema Hall",
    "city": "Jaipur",
    "postalCode": "302003",
    "state": "Rajasthan",
    "countryCode": "IN",
    "website": "https://www.nagoritravels.in/",
    "phone": "+919887399507",
    "phoneUnformatted": "+919887399507",
    "location": {
      "lat": 26.9129951,
      "lng": 75.8349907
    },
    "totalScore": 4.9,
    "permanentlyClosed": false,
    "temporarilyClosed": false,
    "placeId": "ChIJNRk7LR-3bTkRQvfBC7tZV5Q",
    "categories": [
      "Car rental agency",
      "Bus charter",
      "Bus company",
      "Bus tour agency",
      "Car leasing service",
      "Travel agency",
      "Minibus taxi service",
      "Transportation service"
    ],
    "reviewsCount": 292,
    "imagesCount": 171,
    "openingHours": [
      {
        "day": "Monday",
        "hours": "Open 24 hours"
      },
      {
        "day": "Tuesday",
        "hours": "Open 24 hours"
      },
      {
        "day": "Wednesday",
        "hours": "Open 24 hours"
      },
      {
        "day": "Thursday",
        "hours": "Open 24 hours"
      },
      {
        "day": "Friday",
        "hours": "Open 24 hours"
      },
      {
        "day": "Saturday",
        "hours": "Open 24 hours"
      },
      {
        "day": "Sunday",
        "hours": "Open 24 hours"
      }
    ],
    "imageUrl": "https://media.indianluxurycars.com/google/3b3dbdd9fbcf183b690716e92f835b5a94ab3985f6b656d907adf947393cff54.jpg",
    "url": "https://www.google.com/maps/search/?api=1&query=Nagori%20Travels%20-&query_place_id=ChIJNRk7LR-3bTkRQvfBC7tZV5Q"
  },
  {
    "title": "Near Me Car Rental - self drive cars in jaipur, jaipur airport car rental car for rent or car on rent jaipur car rental",
    "subTitle": "नियर में कार रेंटल - सेल्फ ड्राइव कार्स इन जयपुर, जयपुर एयरपोर्ट कार रेंटल कार फॉर रेंट ओर कार ऑन रेंट जयपुर कार रेंटल",
    "categoryName": "Car rental agency",
    "address": "Railway, Station Rd, Kanti Nagar, Gopalbari, Jaipur, Rajasthan 302006, India",
    "neighborhood": "Kanti Nagar, Gopalbari",
    "street": "Railway, Station Rd",
    "city": "Jaipur",
    "postalCode": "302006",
    "state": "Rajasthan",
    "countryCode": "IN",
    "website": "https://nearmecarrental.gmbwale.com/",
    "phone": "+919602503889",
    "phoneUnformatted": "+919602503889",
    "location": {
      "lat": 26.9214654,
      "lng": 75.7962463
    },
    "totalScore": 5,
    "permanentlyClosed": false,
    "temporarilyClosed": false,
    "placeId": "ChIJ6_QqECKzbTkRaa970Kx8XVI",
    "categories": [
      "Car rental agency",
      "Car leasing service"
    ],
    "reviewsCount": 10,
    "imagesCount": 4,
    "openingHours": [
      {
        "day": "Monday",
        "hours": "Open 24 hours"
      },
      {
        "day": "Tuesday",
        "hours": "Open 24 hours"
      },
      {
        "day": "Wednesday",
        "hours": "Open 24 hours"
      },
      {
        "day": "Thursday",
        "hours": "Open 24 hours"
      },
      {
        "day": "Friday",
        "hours": "Open 24 hours"
      },
      {
        "day": "Saturday",
        "hours": "Open 24 hours"
      },
      {
        "day": "Sunday",
        "hours": "Open 24 hours"
      }
    ],
    "imageUrl": "https://media.indianluxurycars.com/google/3c242d83ff50ef9fbc93ab36a62cb31ed18dcce2b9ee5518d5c4fcc917ccc79e.jpg",
    "url": "https://www.google.com/maps/search/?api=1&query=Near%20Me%20Car%20Rental%20-%20self%20drive%20cars%20in%20jaipur%2C%20jaipur%20airport%20car%20rental%20car%20for%20rent%20or%20car%20on%20rent%20jaipur%20car%20rental&query_place_id=ChIJ6_QqECKzbTkRaa970Kx8XVI"
  },
  {
    "title": "Om Toyota",
    "subTitle": "ओम टोयोटा",
    "categoryName": "Car dealer",
    "address": "Block A, M I Road, Om Tower, Shop No-1-5, Ma, Mirza Ismail Rd, Jaipur, Rajasthan 302001, India",
    "neighborhood": "Gopalbari",
    "street": "Block A, M I Road, Om Tower, Shop No-1-5, Ma, Mirza Ismail Rd",
    "city": "Jaipur",
    "postalCode": "302001",
    "state": "Rajasthan",
    "countryCode": "IN",
    "website": "http://toyota-kirloskar.co.in/",
    "phone": "+919001891992",
    "phoneUnformatted": "+919001891992",
    "location": {
      "lat": 26.9181731,
      "lng": 75.7999701
    },
    "totalScore": 4.4,
    "permanentlyClosed": false,
    "temporarilyClosed": false,
    "placeId": "ChIJqQzlQwe0bTkRRPakSdoDARI",
    "categories": [
      "Car dealer",
      "Toyota dealer"
    ],
    "reviewsCount": 436,
    "imagesCount": 139,
    "openingHours": [
      {
        "day": "Monday",
        "hours": "10 AM to 7 PM"
      },
      {
        "day": "Tuesday",
        "hours": "10 AM to 7 PM"
      },
      {
        "day": "Wednesday",
        "hours": "10 AM to 7 PM"
      },
      {
        "day": "Thursday",
        "hours": "10 AM to 7 PM"
      },
      {
        "day": "Friday",
        "hours": "10 AM to 7 PM"
      },
      {
        "day": "Saturday",
        "hours": "10 AM to 7 PM"
      },
      {
        "day": "Sunday",
        "hours": "Closed"
      }
    ],
    "imageUrl": "https://media.indianluxurycars.com/google/1265f5ea8fa2389cfe0fad5f8abca4f99b7b8d676abcc6f62124c434051aec32.jpg",
    "url": "https://www.google.com/maps/search/?api=1&query=Om%20Toyota&query_place_id=ChIJqQzlQwe0bTkRRPakSdoDARI"
  },
  {
    "title": "Palace of Wheels",
    "subTitle": "पैलेस ऑफ़ व्हील्स",
    "categoryName": "Car dealer",
    "address": "B-24, Govind Marg, Gurunanakpura, Tilak Nagar, Jaipur, Rajasthan 302004, India",
    "neighborhood": "Gurunanakpura, Tilak Nagar",
    "street": "B-24, Govind Marg",
    "city": "Jaipur",
    "postalCode": "302004",
    "state": "Rajasthan",
    "countryCode": "IN",
    "location": {
      "lat": 26.8979669,
      "lng": 75.823198
    },
    "totalScore": 4.6,
    "permanentlyClosed": false,
    "temporarilyClosed": false,
    "placeId": "ChIJvyxGXv-3bTkRmVzG_53lqkI",
    "categories": [
      "Car dealer",
      "Auto repair shop",
      "Used car dealer"
    ],
    "reviewsCount": 109,
    "imagesCount": 276,
    "openingHours": [
      {
        "day": "Monday",
        "hours": "11 AM to 7:30 PM"
      },
      {
        "day": "Tuesday",
        "hours": "11 AM to 7:30 PM"
      },
      {
        "day": "Wednesday",
        "hours": "11 AM to 7:30 PM"
      },
      {
        "day": "Thursday",
        "hours": "11 AM to 7:30 PM"
      },
      {
        "day": "Friday",
        "hours": "11 AM to 7:30 PM"
      },
      {
        "day": "Saturday",
        "hours": "11 AM to 7:30 PM"
      },
      {
        "day": "Sunday",
        "hours": "12 to 6 PM"
      }
    ],
    "imageUrl": "https://media.indianluxurycars.com/google/252f3acf9a61283e30208ec138382b1cb268432e6fb1b5c18291279e9a4fe786.jpg",
    "url": "https://www.google.com/maps/search/?api=1&query=Palace%20of%20Wheels&query_place_id=ChIJvyxGXv-3bTkRmVzG_53lqkI"
  },
  {
    "title": "Pinkcity Cabs",
    "subTitle": "पिंक्सिटी कैब्स",
    "categoryName": "Car rental agency",
    "address": "Shop No 1. Basement, Metro Station, near Sindhi Camp, Vivek Nagar, Kanti Nagar, Sindhi Camp, Jaipur, Rajasthan 302006, India",
    "neighborhood": "Vivek Nagar, Kanti Nagar, Sindhi Camp",
    "street": "Shop No 1. Basement, Metro Station, near Sindhi Camp",
    "city": "Jaipur",
    "postalCode": "302006",
    "state": "Rajasthan",
    "countryCode": "IN",
    "website": "http://www.pinkcitycabs.com/",
    "phone": "+919828286040",
    "phoneUnformatted": "+919828286040",
    "location": {
      "lat": 26.9228856,
      "lng": 75.7993878
    },
    "permanentlyClosed": false,
    "temporarilyClosed": false,
    "placeId": "ChIJXaNakf6zbTkRF8X6wrOqQt4",
    "categories": [
      "Car rental agency",
      "Car leasing service",
      "Taxi service",
      "Minibus taxi service",
      "Sightseeing tour agency",
      "Tour operator",
      "Tourist information center",
      "Transportation service",
      "Travel agency"
    ],
    "imagesCount": 5,
    "openingHours": [],
    "imageUrl": "https://media.indianluxurycars.com/google/5ebf580ee3fa6b1d9fb3a536d2353eb6161d883599b4c0fcaac4bdcffd6149ed.jpg",
    "url": "https://www.google.com/maps/search/?api=1&query=Pinkcity%20Cabs&query_place_id=ChIJXaNakf6zbTkRF8X6wrOqQt4"
  },
  {
    "title": "Prime Adventure Tour",
    "subTitle": "प्राइम एडवेंचर टूर",
    "categoryName": "Car rental agency",
    "address": "Club Mahindra, Amer Rd, Kagdiwara, Brahampuri, Jaipur, Rajasthan 302001, India",
    "neighborhood": "Kagdiwara, Brahampuri",
    "street": "Club Mahindra, Amer Rd",
    "city": "Jaipur",
    "postalCode": "302001",
    "state": "Rajasthan",
    "countryCode": "IN",
    "website": "https://www.primeadventuretours.com/",
    "phone": "+919772336888",
    "phoneUnformatted": "+919772336888",
    "location": {
      "lat": 26.9440656,
      "lng": 75.8389724
    },
    "totalScore": 5,
    "permanentlyClosed": false,
    "temporarilyClosed": false,
    "placeId": "ChIJHeWpUwe0bTkRgZfzgvR-NGw",
    "categories": [
      "Car rental agency",
      "Bus tour agency",
      "Car leasing service",
      "Taxi service",
      "Chauffeur service",
      "Sightseeing tour agency",
      "Tour operator",
      "Tourist attraction",
      "Travel agency"
    ],
    "reviewsCount": 406,
    "imagesCount": 87,
    "openingHours": [],
    "imageUrl": "https://media.indianluxurycars.com/google/3466052b017feeb6ebb68781593cad850678ed9765585cbde1cd594b12096806.jpg",
    "url": "https://www.google.com/maps/search/?api=1&query=Prime%20Adventure%20Tour&query_place_id=ChIJHeWpUwe0bTkRgZfzgvR-NGw"
  },
  {
    "title": "R K TOUR AND TRAVELS",
    "subTitle": "आर के टूर एंड ट्रैवल्स",
    "categoryName": "Car leasing service",
    "address": "Tonk Fatak Rd, Sachivalaya Colony, Adarsh Bazar, Barkat Nagar, Lalkothi, Jaipur, Rajasthan 302015, India",
    "neighborhood": "Sachivalaya Colony, Adarsh Bazar, Barkat Nagar, Lalkothi",
    "street": "Tonk Fatak Rd",
    "city": "Jaipur",
    "postalCode": "302015",
    "state": "Rajasthan",
    "countryCode": "IN",
    "website": "https://rktourjaipur.com/",
    "phone": "+919680140180",
    "phoneUnformatted": "+919680140180",
    "location": {
      "lat": 26.8791805,
      "lng": 75.7922718
    },
    "totalScore": 5,
    "permanentlyClosed": false,
    "temporarilyClosed": false,
    "placeId": "ChIJ37wYJAC1bTkRGKbFFFO9A5I",
    "categories": [
      "Car leasing service",
      "Bus tour agency",
      "Taxi service",
      "Minibus taxi service",
      "Sightseeing tour agency",
      "Transportation service",
      "Travel agency",
      "Van rental agency"
    ],
    "reviewsCount": 18,
    "imagesCount": 86,
    "openingHours": [],
    "imageUrl": "https://media.indianluxurycars.com/google/23bb78fb2930a97159873c1056d5721ad48fc35f3b6081fe55ea1de0dee635e0.jpg",
    "url": "https://www.google.com/maps/search/?api=1&query=R%20K%20TOUR%20AND%20TRAVELS&query_place_id=ChIJ37wYJAC1bTkRGKbFFFO9A5I"
  },
  {
    "title": "Rajasthan Cab",
    "subTitle": "राजस्थान कैब",
    "categoryName": "Car leasing service",
    "address": "Shop No. 4, Gayatri Sadan, AC-4, Sawai Jai Singh Hwy, Bani Park, Jaipur, Rajasthan 302016, India",
    "neighborhood": "Bani Park",
    "street": "Shop No. 4, Gayatri Sadan, AC-4, Sawai Jai Singh Hwy",
    "city": "Jaipur",
    "postalCode": "302016",
    "state": "Rajasthan",
    "countryCode": "IN",
    "website": "https://www.rajasthancab.com/",
    "phone": "+919358811941",
    "phoneUnformatted": "+919358811941",
    "location": {
      "lat": 26.9272968,
      "lng": 75.7906359
    },
    "totalScore": 4.7,
    "permanentlyClosed": false,
    "temporarilyClosed": false,
    "placeId": "ChIJj_S-LRSzbTkRJs8Vn0YJlIw",
    "categories": [
      "Car leasing service",
      "Airport shuttle service",
      "Balloon ride tour agency",
      "Bus tour agency",
      "Taxi service",
      "Minibus taxi service",
      "Sightseeing tour agency",
      "Tour operator",
      "Tourist attraction",
      "Travel agency"
    ],
    "reviewsCount": 336,
    "imagesCount": 205,
    "openingHours": [],
    "imageUrl": "https://media.indianluxurycars.com/google/5ffeed12e77bcd38078a6a13585d1a0a5b48c1ca7e52352bfc6712c95f600cd7.png",
    "url": "https://www.google.com/maps/search/?api=1&query=Rajasthan%20Cab&query_place_id=ChIJj_S-LRSzbTkRJs8Vn0YJlIw"
  },
  {
    "title": "Rajasthan Tour Taxi",
    "subTitle": "राजस्थान टूर टैक्सी",
    "categoryName": "Car rental agency",
    "address": "G-11, Sansar Chandra Rd, opp. Veer Castle Hotel, near Hotel Mansingh, Jalupura, Jaipur, Rajasthan 302001, India",
    "neighborhood": "Jalupura",
    "street": "G-11, Sansar Chandra Rd, opp. Veer Castle Hotel, near Hotel Mansingh",
    "city": "Jaipur",
    "postalCode": "302001",
    "state": "Rajasthan",
    "countryCode": "IN",
    "website": "https://www.rajasthantourtaxi.com/",
    "phone": "+919314165249",
    "phoneUnformatted": "+919314165249",
    "location": {
      "lat": 26.9255799,
      "lng": 75.8080104
    },
    "totalScore": 5,
    "permanentlyClosed": false,
    "temporarilyClosed": false,
    "placeId": "ChIJ5XFLnX2xbTkRkwHPxgKaMvI",
    "categories": [
      "Car rental agency",
      "Car leasing service",
      "Sightseeing tour agency",
      "Historical place museum",
      "Taxi service",
      "Tour operator",
      "Transportation service",
      "Travel agency"
    ],
    "reviewsCount": 355,
    "imagesCount": 333,
    "openingHours": [
      {
        "day": "Monday",
        "hours": "Open 24 hours"
      },
      {
        "day": "Tuesday",
        "hours": "Open 24 hours"
      },
      {
        "day": "Wednesday",
        "hours": "Open 24 hours"
      },
      {
        "day": "Thursday",
        "hours": "Open 24 hours"
      },
      {
        "day": "Friday",
        "hours": "Open 24 hours"
      },
      {
        "day": "Saturday",
        "hours": "Open 24 hours"
      },
      {
        "day": "Sunday",
        "hours": "Open 24 hours"
      }
    ],
    "imageUrl": "https://media.indianluxurycars.com/google/23445888057049f12860242db79255cdc8097bbd03f4f373ca975c7bb79abece.jpg",
    "url": "https://www.google.com/maps/search/?api=1&query=Rajasthan%20Tour%20Taxi&query_place_id=ChIJ5XFLnX2xbTkRkwHPxgKaMvI"
  },
  {
    "title": "Rajputana Cab",
    "subTitle": "राजपुताना कैब",
    "categoryName": "Car leasing service",
    "address": "Plot No - 35, Vivek Nagar Near Sindhi Camp Bus Stand & Railway Station, Jaipur, Rajasthan 302006, India",
    "neighborhood": "Vivek Nagar, Kanti Nagar, Sindhi Camp",
    "street": "Plot No - 35, Vivek Nagar Near Sindhi Camp Bus Stand & Railway Station",
    "city": "Jaipur",
    "postalCode": "302006",
    "state": "Rajasthan",
    "countryCode": "IN",
    "website": "https://www.rajputanacab.in/",
    "phone": "+919119175050",
    "phoneUnformatted": "+919119175050",
    "location": {
      "lat": 26.923541,
      "lng": 75.7994947
    },
    "totalScore": 4.1,
    "permanentlyClosed": false,
    "temporarilyClosed": false,
    "placeId": "ChIJP9nJPXmzbTkR_InQEAHBa_g",
    "categories": [
      "Car leasing service",
      "Taxi service",
      "Minibus taxi service",
      "Sightseeing tour agency",
      "Tour agency",
      "Tour operator",
      "Tourist attraction",
      "Tourist information center",
      "Travel agency"
    ],
    "reviewsCount": 111,
    "imagesCount": 7,
    "openingHours": [],
    "imageUrl": "https://media.indianluxurycars.com/google/c1f5875039251a370f1c6d9a9acc99f9921f9c83ec1de5792e35c882d7a1951f.jpg",
    "url": "https://www.google.com/maps/search/?api=1&query=Rajputana%20Cab&query_place_id=ChIJP9nJPXmzbTkR_InQEAHBa_g"
  },
  {
    "title": "Rajputana Tour and Travels",
    "subTitle": "राजपूताना टूर और यात्रा",
    "categoryName": "Car rental agency",
    "address": "Plot No 36, Vivek Nagar, Near Sindhi Camp Bus Stand Metro Station, Jaipur, Rajasthan 302006, India",
    "neighborhood": "Vivek Nagar, Kanti Nagar, Sindhi Camp",
    "street": "Plot No 36, Vivek Nagar, Near Sindhi Camp Bus Stand Metro Station",
    "city": "Jaipur",
    "postalCode": "302006",
    "state": "Rajasthan",
    "countryCode": "IN",
    "website": "http://www.rajputanatourandtravel.com/",
    "phone": "+919214305050",
    "phoneUnformatted": "+919214305050",
    "location": {
      "lat": 26.9235407,
      "lng": 75.7994968
    },
    "totalScore": 4.8,
    "permanentlyClosed": false,
    "temporarilyClosed": false,
    "placeId": "ChIJX71MvPmzbTkRYt3OH-dflEo",
    "categories": [
      "Car rental agency",
      "Car leasing service",
      "Sightseeing tour agency",
      "Taxi service",
      "Tour agency",
      "Tour operator",
      "Tourist information center",
      "Travel agency"
    ],
    "reviewsCount": 1045,
    "imagesCount": 111,
    "openingHours": [
      {
        "day": "Monday",
        "hours": "Open 24 hours"
      },
      {
        "day": "Tuesday",
        "hours": "Open 24 hours"
      },
      {
        "day": "Wednesday",
        "hours": "Open 24 hours"
      },
      {
        "day": "Thursday",
        "hours": "Open 24 hours"
      },
      {
        "day": "Friday",
        "hours": "Open 24 hours"
      },
      {
        "day": "Saturday",
        "hours": "Open 24 hours"
      },
      {
        "day": "Sunday",
        "hours": "Open 24 hours"
      }
    ],
    "imageUrl": "https://media.indianluxurycars.com/google/73a46a2aaa328794af627c0598d2d1649e00ce0ee71fb9df6d0560f9ca8dec78.jpg",
    "url": "https://www.google.com/maps/search/?api=1&query=Rajputana%20Tour%20and%20Travels&query_place_id=ChIJX71MvPmzbTkRYt3OH-dflEo"
  },
  {
    "title": "Rajputana Tours Pvt Ltd",
    "subTitle": "राजपूताना पर्यटन प्रा। लिमिटेड",
    "categoryName": "Car leasing service",
    "address": "G-3, Ground Floor, Shree Mansion, Plot no. G, Kamla Marg, C Scheme, Ashok Nagar, Jaipur, Rajasthan 302001, India",
    "neighborhood": "C Scheme, Ashok Nagar",
    "street": "G-3, Ground Floor, Shree Mansion, Plot no. G, Kamla Marg",
    "city": "Jaipur",
    "postalCode": "302001",
    "state": "Rajasthan",
    "countryCode": "IN",
    "website": "https://rajputanaindiatours.com/",
    "phone": "+919414055932",
    "phoneUnformatted": "+919414055932",
    "location": {
      "lat": 26.913289,
      "lng": 75.8062501
    },
    "totalScore": 4.6,
    "permanentlyClosed": false,
    "temporarilyClosed": false,
    "placeId": "ChIJiZ_LFQK0bTkR3VU-DoZGrmA",
    "categories": [
      "Car leasing service",
      "Tour operator",
      "Sightseeing tour agency",
      "Taxi service",
      "Travel agency"
    ],
    "reviewsCount": 41,
    "imagesCount": 228,
    "openingHours": [
      {
        "day": "Monday",
        "hours": "Open 24 hours"
      },
      {
        "day": "Tuesday",
        "hours": "Open 24 hours"
      },
      {
        "day": "Wednesday",
        "hours": "Open 24 hours"
      },
      {
        "day": "Thursday",
        "hours": "Open 24 hours"
      },
      {
        "day": "Friday",
        "hours": "Open 24 hours"
      },
      {
        "day": "Saturday",
        "hours": "Open 24 hours"
      },
      {
        "day": "Sunday",
        "hours": "Open 24 hours"
      }
    ],
    "imageUrl": "https://media.indianluxurycars.com/google/d33939df14f4dff5fadbb7a84ce6865f79119a313c10623d64ea288dd40dcb58.jpg",
    "url": "https://www.google.com/maps/search/?api=1&query=Rajputana%20Tours%20Pvt%20Ltd&query_place_id=ChIJiZ_LFQK0bTkR3VU-DoZGrmA"
  },
  {
    "title": "Rent a Vintage",
    "subTitle": "रेंट ए विंटेज",
    "categoryName": "Car rental agency",
    "address": "Shop no. 150 Near Ghani Auto M.I Road, Jaipur, Rajasthan 302001, India",
    "neighborhood": "Jayanti Market, New Colony",
    "street": "Shop no. 150 Near Ghani Auto M.I Road",
    "city": "Jaipur",
    "postalCode": "302001",
    "state": "Rajasthan",
    "countryCode": "IN",
    "website": "http://www.rentavintage.in/",
    "phone": "+919414072786",
    "phoneUnformatted": "+919414072786",
    "location": {
      "lat": 26.916467,
      "lng": 75.808242
    },
    "totalScore": 5,
    "permanentlyClosed": false,
    "temporarilyClosed": false,
    "placeId": "ChIJYx92aKq2bTkR2e4dWbUo3O8",
    "categories": [
      "Car rental agency",
      "Car leasing service"
    ],
    "reviewsCount": 17,
    "imagesCount": 31,
    "openingHours": [
      {
        "day": "Monday",
        "hours": "Open 24 hours"
      },
      {
        "day": "Tuesday",
        "hours": "Open 24 hours"
      },
      {
        "day": "Wednesday",
        "hours": "Open 24 hours"
      },
      {
        "day": "Thursday",
        "hours": "Open 24 hours"
      },
      {
        "day": "Friday",
        "hours": "Open 24 hours"
      },
      {
        "day": "Saturday",
        "hours": "Open 24 hours"
      },
      {
        "day": "Sunday",
        "hours": "Open 24 hours"
      }
    ],
    "imageUrl": "https://media.indianluxurycars.com/google/1c2e086811d7a69bc810b0567b63dc334ffb00650614f0401b4016c8b8630e14.jpg",
    "url": "https://www.google.com/maps/search/?api=1&query=Rent%20a%20Vintage&query_place_id=ChIJYx92aKq2bTkR2e4dWbUo3O8"
  },
  {
    "title": "RentooKey Self Drive Car Rental",
    "subTitle": "रेंटूके सेल्फ ड्राइव कार रेंटल",
    "categoryName": "Car rental agency",
    "address": "GP-Central Ground, GANPATI PLAZA, Mirza Ismail Rd, Nangal Jaisabohra, Sindhi Camp, Jaipur, Rajasthan 302001, India",
    "neighborhood": "Nangal Jaisabohra, Sindhi Camp",
    "street": "GP-Central Ground, GANPATI PLAZA, Mirza Ismail Rd",
    "city": "Jaipur",
    "postalCode": "302001",
    "state": "Rajasthan",
    "countryCode": "IN",
    "website": "https://rentookey.in/",
    "phone": "+917734005006",
    "phoneUnformatted": "+917734005006",
    "location": {
      "lat": 26.9196715,
      "lng": 75.7991703
    },
    "totalScore": 4.9,
    "permanentlyClosed": false,
    "temporarilyClosed": false,
    "placeId": "ChIJ40VZsiazbTkRrNUHTi_tvkE",
    "categories": [
      "Car rental agency",
      "Renault dealer"
    ],
    "reviewsCount": 154,
    "imagesCount": 75,
    "openingHours": [
      {
        "day": "Monday",
        "hours": "Open 24 hours"
      },
      {
        "day": "Tuesday",
        "hours": "Open 24 hours"
      },
      {
        "day": "Wednesday",
        "hours": "Open 24 hours"
      },
      {
        "day": "Thursday",
        "hours": "Open 24 hours"
      },
      {
        "day": "Friday",
        "hours": "Open 24 hours"
      },
      {
        "day": "Saturday",
        "hours": "Open 24 hours"
      },
      {
        "day": "Sunday",
        "hours": "Open 24 hours"
      }
    ],
    "imageUrl": "https://media.indianluxurycars.com/google/e97f3a0866a79a7896438b3e6f4ca4e96845236c5df85dfcc5d42ecbcd2cf1c5.jpg",
    "url": "https://www.google.com/maps/search/?api=1&query=RentooKey%20Self%20Drive%20Car%20Rental&query_place_id=ChIJ40VZsiazbTkRrNUHTi_tvkE"
  },
  {
    "title": "Satnam Car Rental - Best Self drive car rental Jaipur | Self Drive Cars | Car Rental | Rent Car Jaipur | Monthly Car Rental.",
    "subTitle": "सतनाम कार रेंटल - बेस्ट सेल्फ ड्राइव कार रेंटल जयपुर | सेल्फ ड्राइव कार्स | कार रेंटल | रेंट कार जयपुर | मंथली कार रेंटल.",
    "categoryName": "Car rental agency",
    "address": "B-145, Sethi Colony, Transport Nagar, Jaipur, Rajasthan 302004, India",
    "neighborhood": "Sethi Colony, Transport Nagar",
    "street": "B-145",
    "city": "Jaipur",
    "postalCode": "302004",
    "state": "Rajasthan",
    "countryCode": "IN",
    "website": "https://www.satnamtravels.in/self-drive.php#",
    "phone": "+917414000073",
    "phoneUnformatted": "+917414000073",
    "location": {
      "lat": 26.9051034,
      "lng": 75.8419221
    },
    "totalScore": 5,
    "permanentlyClosed": false,
    "temporarilyClosed": false,
    "placeId": "ChIJqdGgbum3bTkR27akImvuIhM",
    "categories": [
      "Car rental agency",
      "Car leasing service"
    ],
    "reviewsCount": 141,
    "imagesCount": 19,
    "openingHours": [
      {
        "day": "Monday",
        "hours": "Open 24 hours"
      },
      {
        "day": "Tuesday",
        "hours": "Open 24 hours"
      },
      {
        "day": "Wednesday",
        "hours": "Open 24 hours"
      },
      {
        "day": "Thursday",
        "hours": "Open 24 hours"
      },
      {
        "day": "Friday",
        "hours": "Open 24 hours"
      },
      {
        "day": "Saturday",
        "hours": "Open 24 hours"
      },
      {
        "day": "Sunday",
        "hours": "Open 24 hours"
      }
    ],
    "imageUrl": "https://media.indianluxurycars.com/google/1b9c315b434b5ba4486f529def847a50493dfb11e52c1b0118b77466ab736337.jpg",
    "url": "https://www.google.com/maps/search/?api=1&query=Satnam%20Car%20Rental%20-%20Best%20Self%20drive%20car%20rental%20Jaipur%20%7C%20Self%20Drive%20Cars%20%7C%20Car%20Rental%20%7C%20Rent%20Car%20Jaipur%20%7C%20Monthly%20Car%20Rental.&query_place_id=ChIJqdGgbum3bTkR27akImvuIhM"
  },
  {
    "title": "Satnam Travels - Toyota Vellfire | Tempo Traveller | Luxury Cars | Volvo Bus | Innova Crysta | Taxi | Cab Hire in Jaipur",
    "subTitle": "सतनाम ट्रेवल्स",
    "categoryName": "Car rental agency",
    "address": "Shop No 33 Sethi Colony, Sethi Colony, Transport Nagar, Jaipur, Rajasthan 302004, India",
    "neighborhood": "Sethi Colony, Transport Nagar",
    "street": "Shop No 33 Sethi Colony",
    "city": "Jaipur",
    "postalCode": "302004",
    "state": "Rajasthan",
    "countryCode": "IN",
    "website": "https://www.satnamtravels.in/",
    "phone": "+917414000073",
    "phoneUnformatted": "+917414000073",
    "location": {
      "lat": 26.9061531,
      "lng": 75.8412319
    },
    "totalScore": 4.6,
    "permanentlyClosed": false,
    "temporarilyClosed": false,
    "placeId": "ChIJexSXr8S2bTkRnW4Y6cNUnUc",
    "categories": [
      "Car rental agency",
      "Car leasing service",
      "Taxi service"
    ],
    "reviewsCount": 151,
    "imagesCount": 180,
    "openingHours": [],
    "imageUrl": "https://media.indianluxurycars.com/google/ada5c708fe286c24d2ffb92ad5ee840b5fb78737442bcb601fccaeca66d076b1.jpg",
    "url": "https://www.google.com/maps/search/?api=1&query=Satnam%20Travels%20-%20Toyota%20Vellfire%20%7C%20Tempo%20Traveller%20%7C%20Luxury%20Cars%20%7C%20Volvo%20Bus%20%7C%20Innova%20Crysta%20%7C%20Taxi%20%7C%20Cab%20Hire%20in%20Jaipur&query_place_id=ChIJexSXr8S2bTkRnW4Y6cNUnUc"
  },
  {
    "title": "Shri Ram Car Bazar – 2nd Hand, Used & Old Car Dealers in Jaipur | Buy Second Hand Cars",
    "subTitle": "श्री राम कार बाजार",
    "categoryName": "Used car dealer",
    "address": "15 Sindhi Colony, Opp Pink Square Mall, Sat Sai College Road Janata Colony, Adarsh Nagar, Jaipur, Rajasthan 302004, India",
    "neighborhood": "Adarsh Nagar",
    "street": "15 Sindhi Colony, Opp Pink Square Mall, Sat Sai College Road Janata Colony",
    "city": "Jaipur",
    "postalCode": "302004",
    "state": "Rajasthan",
    "countryCode": "IN",
    "phone": "+918829988887",
    "phoneUnformatted": "+918829988887",
    "location": {
      "lat": 26.9008794,
      "lng": 75.8389329
    },
    "totalScore": 3.7,
    "permanentlyClosed": false,
    "temporarilyClosed": false,
    "placeId": "ChIJKT_gh8K2bTkRk1vL7_ZZDJ8",
    "categories": [
      "Used car dealer",
      "Car dealer"
    ],
    "reviewsCount": 42,
    "imagesCount": 3,
    "openingHours": [
      {
        "day": "Monday",
        "hours": "9 AM to 7 PM"
      },
      {
        "day": "Tuesday",
        "hours": "9 AM to 7 PM"
      },
      {
        "day": "Wednesday",
        "hours": "9 AM to 7 PM"
      },
      {
        "day": "Thursday",
        "hours": "9 AM to 7 PM"
      },
      {
        "day": "Friday",
        "hours": "9 AM to 7 PM"
      },
      {
        "day": "Saturday",
        "hours": "9 AM to 7 PM"
      },
      {
        "day": "Sunday",
        "hours": "9 AM to 3 AM"
      }
    ],
    "imageUrl": "https://media.indianluxurycars.com/google/c10f3fd2ac6c34f542b826c1d9e5b8dc966b9aceabb1d1e5a0134a81eaf7cb0a.jpg",
    "url": "https://www.google.com/maps/search/?api=1&query=Shri%20Ram%20Car%20Bazar%20%E2%80%93%202nd%20Hand%2C%20Used%20%26%20Old%20Car%20Dealers%20in%20Jaipur%20%7C%20Buy%20Second%20Hand%20Cars&query_place_id=ChIJKT_gh8K2bTkRk1vL7_ZZDJ8"
  },
  {
    "title": "Singh Car's",
    "subTitle": "सिंह कार्स",
    "categoryName": "Car dealer",
    "address": "104, Gurunanakpura, Tilak Nagar, Jaipur, Rajasthan 302004, India",
    "neighborhood": "Gurunanakpura, Tilak Nagar",
    "street": "104",
    "city": "Jaipur",
    "postalCode": "302004",
    "state": "Rajasthan",
    "countryCode": "IN",
    "phone": "+919887511466",
    "phoneUnformatted": "+919887511466",
    "location": {
      "lat": 26.896192,
      "lng": 75.824526
    },
    "totalScore": 4.8,
    "permanentlyClosed": false,
    "temporarilyClosed": false,
    "placeId": "ChIJN4SH1pW2bTkRR0z2UqpgYXs",
    "categories": [
      "Car dealer"
    ],
    "reviewsCount": 16,
    "imagesCount": 4,
    "openingHours": [
      {
        "day": "Monday",
        "hours": "10 AM to 9 PM"
      },
      {
        "day": "Tuesday",
        "hours": "10 AM to 9 PM"
      },
      {
        "day": "Wednesday",
        "hours": "10 AM to 9 PM"
      },
      {
        "day": "Thursday",
        "hours": "10 AM to 9 PM"
      },
      {
        "day": "Friday",
        "hours": "10 AM to 9 PM"
      },
      {
        "day": "Saturday",
        "hours": "10 AM to 9 PM"
      },
      {
        "day": "Sunday",
        "hours": "10 AM to 9 PM"
      }
    ],
    "imageUrl": "https://media.indianluxurycars.com/google/ea701f4b31c3ed7361be20167c1a2ada8ca8a8479a71fd31a8d23d5ed37b9c3d.jpg",
    "url": "https://www.google.com/maps/search/?api=1&query=Singh%20Car's&query_place_id=ChIJN4SH1pW2bTkRR0z2UqpgYXs"
  },
  {
    "title": "Sofia Tour & Travels – Best Travel Agency | Taxi Service | Tour Operator | Car Rental in Jaipur",
    "subTitle": "सोफिया टूर & ट्रैवल्स - बेस्ट ट्रैवल एजेंसी | टैक्सी सर्विस | टूर ऑपरेटर | कार रेंटल इन जयपुर",
    "categoryName": "Car rental agency",
    "address": "NBC Rd, near Badru Khati Ki Tall, Hasanpura A, Hasanpura, Jaipur, Rajasthan 302006, India",
    "neighborhood": "Hasanpura A, Hasanpura",
    "street": "NBC Rd, near Badru Khati Ki Tall",
    "city": "Jaipur",
    "postalCode": "302006",
    "state": "Rajasthan",
    "countryCode": "IN",
    "website": "http://www.sofiatourandtravels.com/",
    "phone": "+919828043857",
    "phoneUnformatted": "+919828043857",
    "location": {
      "lat": 26.917247,
      "lng": 75.7823463
    },
    "totalScore": 4.9,
    "permanentlyClosed": false,
    "temporarilyClosed": false,
    "placeId": "ChIJAQAAX3W0bTkR__kvrmXv5D8",
    "categories": [
      "Car rental agency",
      "Sightseeing tour agency",
      "Taxi service",
      "Tour agency",
      "Tour operator",
      "Tourist attraction",
      "Tourist information center",
      "Travel agency"
    ],
    "reviewsCount": 91,
    "imagesCount": 111,
    "openingHours": [
      {
        "day": "Monday",
        "hours": "Open 24 hours"
      },
      {
        "day": "Tuesday",
        "hours": "Open 24 hours"
      },
      {
        "day": "Wednesday",
        "hours": "Open 24 hours"
      },
      {
        "day": "Thursday",
        "hours": "Open 24 hours"
      },
      {
        "day": "Friday",
        "hours": "Open 24 hours"
      },
      {
        "day": "Saturday",
        "hours": "Open 24 hours"
      },
      {
        "day": "Sunday",
        "hours": "Open 24 hours"
      }
    ],
    "imageUrl": "https://media.indianluxurycars.com/google/0696974755ab38d0d5c8b184e15e4f9faeb84218f57439eeba814ffbfe05114a.jpg",
    "url": "https://www.google.com/maps/search/?api=1&query=Sofia%20Tour%20%26%20Travels%20%E2%80%93%20Best%20Travel%20Agency%20%7C%20Taxi%20Service%20%7C%20Tour%20Operator%20%7C%20Car%20Rental%20in%20Jaipur&query_place_id=ChIJAQAAX3W0bTkR__kvrmXv5D8"
  },
  {
    "title": "Sonu Tour & Travels",
    "subTitle": "सोनू टूर & ट्रैवल्स",
    "categoryName": "Car rental agency",
    "address": "Old Bus Stand, Old Ramgarh Mod, Shankar Nagar, Jaipur, Rajasthan 302002, India",
    "neighborhood": "Shankar Nagar",
    "street": "Old Bus Stand, Old Ramgarh Mod",
    "city": "Jaipur",
    "postalCode": "302002",
    "state": "Rajasthan",
    "countryCode": "IN",
    "phone": "+919460471757",
    "phoneUnformatted": "+919460471757",
    "location": {
      "lat": 26.943906,
      "lng": 75.840707
    },
    "totalScore": 4.3,
    "permanentlyClosed": false,
    "temporarilyClosed": false,
    "placeId": "ChIJW3CrtzmxbTkR5aPoInkACxc",
    "categories": [
      "Car rental agency",
      "Bus company",
      "Bus ticket agency",
      "Bus tour agency",
      "Car leasing service",
      "Travel agency",
      "Minibus taxi service",
      "Sightseeing tour agency",
      "Taxi service",
      "Tour operator"
    ],
    "reviewsCount": 22,
    "imagesCount": 7,
    "openingHours": [
      {
        "day": "Monday",
        "hours": "Open 24 hours"
      },
      {
        "day": "Tuesday",
        "hours": "Open 24 hours"
      },
      {
        "day": "Wednesday",
        "hours": "Open 24 hours"
      },
      {
        "day": "Thursday",
        "hours": "Open 24 hours"
      },
      {
        "day": "Friday",
        "hours": "Open 24 hours"
      },
      {
        "day": "Saturday",
        "hours": "Open 24 hours"
      },
      {
        "day": "Sunday",
        "hours": "Open 24 hours"
      }
    ],
    "imageUrl": "https://media.indianluxurycars.com/google/8ef3b7beb396c9297fd08374582f5aad3987d804aadd6c9bf136675edf9e3da4.jpg",
    "url": "https://www.google.com/maps/search/?api=1&query=Sonu%20Tour%20%26%20Travels&query_place_id=ChIJW3CrtzmxbTkR5aPoInkACxc"
  },
  {
    "title": "Swastik car",
    "subTitle": "स्वस्तिक कार",
    "categoryName": "Used car dealer",
    "address": "Govind Marg, near DISCOUNT FASHION HUB, opp. Dashera Maidan, Raja Park, Jaipur, Rajasthan 302004, India",
    "neighborhood": "Raja Park",
    "street": "Govind Marg, near DISCOUNT FASHION HUB, opp. Dashera Maidan",
    "city": "Jaipur",
    "postalCode": "302004",
    "state": "Rajasthan",
    "countryCode": "IN",
    "phone": "+919929984777",
    "phoneUnformatted": "+919929984777",
    "location": {
      "lat": 26.8968903,
      "lng": 75.8313343
    },
    "totalScore": 3.2,
    "permanentlyClosed": false,
    "temporarilyClosed": false,
    "placeId": "ChIJ9eUG_uq2bTkRAbYTRExlRkc",
    "categories": [
      "Used car dealer",
      "Auto auction",
      "Auto broker",
      "Car dealer",
      "Car wash",
      "Race car dealer",
      "Second hand store",
      "Smart Car dealer"
    ],
    "reviewsCount": 28,
    "imagesCount": 72,
    "openingHours": [
      {
        "day": "Monday",
        "hours": "10 AM to 8 PM"
      },
      {
        "day": "Tuesday",
        "hours": "10 AM to 8 PM"
      },
      {
        "day": "Wednesday",
        "hours": "10 AM to 8 PM"
      },
      {
        "day": "Thursday",
        "hours": "10 AM to 8 PM"
      },
      {
        "day": "Friday",
        "hours": "10 AM to 8 PM"
      },
      {
        "day": "Saturday",
        "hours": "10 AM to 8 PM"
      },
      {
        "day": "Sunday",
        "hours": "10 AM to 8 PM"
      }
    ],
    "imageUrl": "https://media.indianluxurycars.com/google/6bb8c526c29ee9f0b9d66f1a45efbd32b5e3860c7c78cfe63afca494fd01448d.jpg",
    "url": "https://www.google.com/maps/search/?api=1&query=Swastik%20car&query_place_id=ChIJ9eUG_uq2bTkRAbYTRExlRkc"
  },
  {
    "title": "Tempo Traveller Jaipur",
    "subTitle": "टेम्पो ट्रैवलर जयपुर",
    "categoryName": "Car rental agency",
    "address": "B-96 anandpuri, near nayla house,moti doongri road, Jaipur, Rajasthan 302004, India",
    "neighborhood": "Gangawal Park, Adarsh Nagar",
    "street": "B-96 anandpuri, near nayla house,moti doongri road",
    "city": "Jaipur",
    "postalCode": "302004",
    "state": "Rajasthan",
    "countryCode": "IN",
    "phone": "+917014952847",
    "phoneUnformatted": "+917014952847",
    "location": {
      "lat": 26.9046515,
      "lng": 75.8218088
    },
    "totalScore": 4.7,
    "permanentlyClosed": false,
    "temporarilyClosed": false,
    "placeId": "ChIJKRYNhLu2bTkRXRDIKzx83Yc",
    "categories": [
      "Car rental agency",
      "Bus tour agency",
      "Tour agency",
      "Sightseeing tour agency",
      "Tour operator",
      "Travel agency",
      "Van rental agency"
    ],
    "reviewsCount": 15,
    "imagesCount": 21,
    "openingHours": [
      {
        "day": "Monday",
        "hours": "8 AM to 12 am"
      },
      {
        "day": "Tuesday",
        "hours": "8 AM to 12 am"
      },
      {
        "day": "Wednesday",
        "hours": "8 AM to 12 am"
      },
      {
        "day": "Thursday",
        "hours": "8 AM to 12 am"
      },
      {
        "day": "Friday",
        "hours": "8 AM to 12 am"
      },
      {
        "day": "Saturday",
        "hours": "8 AM to 12 am"
      },
      {
        "day": "Sunday",
        "hours": "8 AM to 12 am"
      }
    ],
    "imageUrl": "https://media.indianluxurycars.com/google/2d33c378c2bfa2b80734813803743f0a401e47a8efdc9f1ca00bbc67ac0ea563.jpg",
    "url": "https://www.google.com/maps/search/?api=1&query=Tempo%20Traveller%20Jaipur&query_place_id=ChIJKRYNhLu2bTkRXRDIKzx83Yc"
  },
  {
    "title": "The Royal Car",
    "subTitle": "रॉयल कार",
    "categoryName": "Car dealer",
    "address": "Near Geeta Bhawan, Anand Puri, Bees Dukan, Adarsh Nagar, Jaipur, Rajasthan 302004, India",
    "neighborhood": "Anand Puri, Bees Dukan, Adarsh Nagar",
    "street": "Near Geeta Bhawan",
    "city": "Jaipur",
    "postalCode": "302004",
    "state": "Rajasthan",
    "countryCode": "IN",
    "phone": "+919549990999",
    "phoneUnformatted": "+919549990999",
    "location": {
      "lat": 26.9020891,
      "lng": 75.8267754
    },
    "permanentlyClosed": false,
    "temporarilyClosed": false,
    "placeId": "ChIJS_Uo-b62bTkRKRK9MTXwTPc",
    "categories": [
      "Car dealer"
    ],
    "imagesCount": 3,
    "openingHours": [
      {
        "day": "Monday",
        "hours": "10 AM to 8 PM"
      },
      {
        "day": "Tuesday",
        "hours": "10 AM to 8 PM"
      },
      {
        "day": "Wednesday",
        "hours": "10 AM to 8 PM"
      },
      {
        "day": "Thursday",
        "hours": "10 AM to 8 PM"
      },
      {
        "day": "Friday",
        "hours": "10 AM to 8 PM"
      },
      {
        "day": "Saturday",
        "hours": "10 AM to 8 PM"
      },
      {
        "day": "Sunday",
        "hours": "10 AM to 8 PM"
      }
    ],
    "imageUrl": "https://media.indianluxurycars.com/google/bba45ec301d87b911d92a076dfbbc07bc7f746373d85bc4cb5be903b713e427f.jpg",
    "url": "https://www.google.com/maps/search/?api=1&query=The%20Royal%20Car&query_place_id=ChIJS_Uo-b62bTkRKRK9MTXwTPc"
  },
  {
    "title": "Tours and Taxi in Jaipur",
    "subTitle": "टूर्स एंड टैक्सी इन जयपुर",
    "categoryName": "Car leasing service",
    "address": "251, Devi Marg, Bani Park, Jaipur, Rajasthan 302006, India",
    "neighborhood": "Bani Park",
    "street": "251, Devi Marg",
    "city": "Jaipur",
    "postalCode": "302006",
    "state": "Rajasthan",
    "countryCode": "IN",
    "phone": "+919001366095",
    "phoneUnformatted": "+919001366095",
    "location": {
      "lat": 26.9268536,
      "lng": 75.7900544
    },
    "totalScore": 4.8,
    "permanentlyClosed": false,
    "temporarilyClosed": false,
    "placeId": "ChIJV0f5Mw6zbTkRap_Lw2ruEuM",
    "categories": [
      "Car leasing service",
      "Tour agency",
      "Tour operator",
      "Tourist information center"
    ],
    "reviewsCount": 10,
    "imagesCount": 5,
    "openingHours": [
      {
        "day": "Monday",
        "hours": "9 AM to 10:30 PM"
      },
      {
        "day": "Tuesday",
        "hours": "9 AM to 10:30 PM"
      },
      {
        "day": "Wednesday",
        "hours": "9 AM to 10:30 PM"
      },
      {
        "day": "Thursday",
        "hours": "9 AM to 10:30 PM"
      },
      {
        "day": "Friday",
        "hours": "9 AM to 10:30 PM"
      },
      {
        "day": "Saturday",
        "hours": "9 AM to 10:30 PM"
      },
      {
        "day": "Sunday",
        "hours": "9 AM to 10:30 PM"
      }
    ],
    "imageUrl": "https://media.indianluxurycars.com/google/c8754e1335e0d49eae7a3bd5ad525aef1a370dc342eab43f2e66bba1821e6968.jpg",
    "url": "https://www.google.com/maps/search/?api=1&query=Tours%20and%20Taxi%20in%20Jaipur&query_place_id=ChIJV0f5Mw6zbTkRap_Lw2ruEuM"
  },
  {
    "title": "Travel Recipes LLP",
    "subTitle": "ट्रैवल रेसिपीज एल एल पी",
    "categoryName": "Car rental agency",
    "address": "B-11, Vijay Nagar-II, Kartarpura Phatak, Kartarpura, Tonk Phatak, Jaipur, Rajasthan 302006, India",
    "neighborhood": "Vijay Nagar-II, Kartarpura Phatak, Kartarpura, Tonk Phatak",
    "street": "B-11",
    "city": "Jaipur",
    "postalCode": "302006",
    "state": "Rajasthan",
    "countryCode": "IN",
    "website": "https://indiatravelrecipes.com/",
    "phone": "+919828968886",
    "phoneUnformatted": "+919828968886",
    "location": {
      "lat": 26.8886736,
      "lng": 75.7875489
    },
    "totalScore": 5,
    "permanentlyClosed": false,
    "temporarilyClosed": false,
    "placeId": "ChIJ26M5wHy1bTkRMf2vElvHR8U",
    "categories": [
      "Car rental agency",
      "Tour operator",
      "Taxi service",
      "Travel agency"
    ],
    "reviewsCount": 1,
    "imagesCount": 9,
    "openingHours": [
      {
        "day": "Monday",
        "hours": "9:30 AM to 6:30 PM"
      },
      {
        "day": "Tuesday",
        "hours": "9:30 AM to 6:30 PM"
      },
      {
        "day": "Wednesday",
        "hours": "9:30 AM to 6:30 PM"
      },
      {
        "day": "Thursday",
        "hours": "9:30 AM to 6:30 PM"
      },
      {
        "day": "Friday",
        "hours": "9:30 AM to 6:30 PM"
      },
      {
        "day": "Saturday",
        "hours": "9:30 AM to 6:30 PM"
      },
      {
        "day": "Sunday",
        "hours": "Closed"
      }
    ],
    "imageUrl": "https://media.indianluxurycars.com/google/2ec1e02f0e7341f9f4256ea9e81b3445f1242135eb6a63e5b02200880e214160.jpg",
    "url": "https://www.google.com/maps/search/?api=1&query=Travel%20Recipes%20LLP&query_place_id=ChIJ26M5wHy1bTkRMf2vElvHR8U"
  },
  {
    "title": "Travel To Jaipur",
    "subTitle": "टैक्सी सर्विस",
    "categoryName": "Car rental agency",
    "address": "Motilal Atal Rd, Sindhi Camp, Jaipur, Rajasthan 302001, India",
    "neighborhood": "Sindhi Camp",
    "street": "Motilal Atal Rd",
    "city": "Jaipur",
    "postalCode": "302001",
    "state": "Rajasthan",
    "countryCode": "IN",
    "website": "https://www.traveltojaipur.com/",
    "phone": "+919929192974",
    "phoneUnformatted": "+919929192974",
    "location": {
      "lat": 26.9202398,
      "lng": 75.7985069
    },
    "totalScore": 4.8,
    "permanentlyClosed": false,
    "temporarilyClosed": false,
    "placeId": "ChIJN81-jPizbTkRYtfzp84ika0",
    "categories": [
      "Car rental agency",
      "Car leasing service",
      "Sightseeing tour agency",
      "Taxi service",
      "Tour agency",
      "Tour operator",
      "Travel agency"
    ],
    "reviewsCount": 124,
    "imagesCount": 138,
    "openingHours": [
      {
        "day": "Monday",
        "hours": "7 AM to 11 PM"
      },
      {
        "day": "Tuesday",
        "hours": "7 AM to 11 PM"
      },
      {
        "day": "Wednesday",
        "hours": "7 AM to 11 PM"
      },
      {
        "day": "Thursday",
        "hours": "7 AM to 11 PM"
      },
      {
        "day": "Friday",
        "hours": "7 AM to 11 PM"
      },
      {
        "day": "Saturday",
        "hours": "7 AM to 11 PM"
      },
      {
        "day": "Sunday",
        "hours": "7 AM to 11 PM"
      }
    ],
    "imageUrl": "https://media.indianluxurycars.com/google/00999ff57dda959fb318aee00faf38336e7e9702e0ea6fa4ff338a1988715492.jpg",
    "url": "https://www.google.com/maps/search/?api=1&query=Travel%20To%20Jaipur&query_place_id=ChIJN81-jPizbTkRYtfzp84ika0"
  },
  {
    "title": "TVS - KS Motors Pvt Ltd",
    "subTitle": "टीवीएस - केएस मोटर्स",
    "categoryName": "Motorcycle dealer",
    "address": "National Motor Building, Mirza Ismail Rd, opposite Police Home Guard Office, Jaipur, Rajasthan 302001, India",
    "neighborhood": "Sindhi Camp",
    "street": "National Motor Building, Mirza Ismail Rd, opposite Police Home Guard Office",
    "city": "Jaipur",
    "postalCode": "302001",
    "state": "Rajasthan",
    "countryCode": "IN",
    "website": "https://dealers.tvsmotor.com/tvs-motors/tvs-ks-motors-pvt-ltd-two-wheeler-dealer-showroom-mi-road-jaipur-133719/Home?utm_source=locator&utm_medium=googleplaces",
    "phone": "+918824887261",
    "phoneUnformatted": "+918824887261",
    "location": {
      "lat": 26.9183366,
      "lng": 75.8013846
    },
    "totalScore": 4,
    "permanentlyClosed": false,
    "temporarilyClosed": false,
    "placeId": "ChIJ5dpOSAe0bTkRE20GhBjfgKA",
    "categories": [
      "Motorcycle dealer",
      "Motor scooter dealer",
      "Motor vehicle dealer",
      "Motorcycle shop"
    ],
    "reviewsCount": 1059,
    "imagesCount": 168,
    "openingHours": [
      {
        "day": "Monday",
        "hours": "9:30 AM to 6:30 PM"
      },
      {
        "day": "Tuesday",
        "hours": "9:30 AM to 6:30 PM"
      },
      {
        "day": "Wednesday",
        "hours": "9:30 AM to 6:30 PM"
      },
      {
        "day": "Thursday",
        "hours": "9:30 AM to 6:30 PM"
      },
      {
        "day": "Friday",
        "hours": "9:30 AM to 6:30 PM"
      },
      {
        "day": "Saturday",
        "hours": "9:30 AM to 6:30 PM"
      },
      {
        "day": "Sunday",
        "hours": "9:30 AM to 6:30 PM"
      }
    ],
    "imageUrl": "https://media.indianluxurycars.com/google/76cde82531b8fd34e582f3c02f27e6760d1db74e38dec5e5f21775fea0a08b9a.jpg",
    "url": "https://www.google.com/maps/search/?api=1&query=TVS%20-%20KS%20Motors%20Pvt%20Ltd&query_place_id=ChIJ5dpOSAe0bTkRE20GhBjfgKA"
  },
  {
    "title": "Universal Tours",
    "subTitle": "यूनिवर्सल टूर्स",
    "categoryName": "Car rental agency",
    "address": "shree paras travel, 12, opposite Sangam Hotel Polovictry, Sindhi Camp, Jaipur, Rajasthan 302001, India",
    "neighborhood": "Sindhi Camp",
    "street": "shree paras travel, 12, opposite Sangam Hotel Polovictry",
    "city": "Jaipur",
    "postalCode": "302001",
    "state": "Rajasthan",
    "countryCode": "IN",
    "phone": "+918503027210",
    "phoneUnformatted": "+918503027210",
    "location": {
      "lat": 26.920697,
      "lng": 75.7981542
    },
    "totalScore": 5,
    "permanentlyClosed": false,
    "temporarilyClosed": true,
    "placeId": "ChIJf4yTceOzbTkRZ_6Au4oBjVo",
    "categories": [
      "Car rental agency",
      "Car leasing service",
      "Sightseeing tour agency",
      "Tour agency",
      "Tour operator",
      "Travel agency"
    ],
    "reviewsCount": 29,
    "imagesCount": 8,
    "openingHours": [],
    "imageUrl": "https://media.indianluxurycars.com/google/359b1621fb55f073d0648274006225d7e75d6f4c36931b40db45f5ec85438ca9.jpg",
    "url": "https://www.google.com/maps/search/?api=1&query=Universal%20Tours&query_place_id=ChIJf4yTceOzbTkRZ_6Au4oBjVo"
  },
  {
    "title": "V Care Tours",
    "subTitle": "वि केयर टूर्स",
    "categoryName": "Car rental agency",
    "address": "3rd Floor, Sun N Moon Chambers, 303, near Ajmer Puliya, Gopalbari, Jaipur, Rajasthan 302001, India",
    "neighborhood": "Gopalbari",
    "street": "3rd Floor, Sun N Moon Chambers, 303, near Ajmer Puliya",
    "city": "Jaipur",
    "postalCode": "302001",
    "state": "Rajasthan",
    "countryCode": "IN",
    "website": "https://www.carhireinrajasthan.com/",
    "phone": "+919314066669",
    "phoneUnformatted": "+919314066669",
    "location": {
      "lat": 26.9142457,
      "lng": 75.7913334
    },
    "totalScore": 4.8,
    "permanentlyClosed": false,
    "temporarilyClosed": false,
    "placeId": "ChIJHdDkm7AIazkR-AnjNTVPMkc",
    "categories": [
      "Car rental agency",
      "Bus tour agency",
      "Car leasing service",
      "Travel agency",
      "Sightseeing tour agency",
      "Taxi service",
      "Tour operator",
      "Tourist information center",
      "Van rental agency"
    ],
    "reviewsCount": 48,
    "imagesCount": 322,
    "openingHours": [
      {
        "day": "Monday",
        "hours": "10 AM to 8 PM"
      },
      {
        "day": "Tuesday",
        "hours": "10 AM to 6 PM"
      },
      {
        "day": "Wednesday",
        "hours": "10 AM to 8 PM"
      },
      {
        "day": "Thursday",
        "hours": "10 AM to 8 PM"
      },
      {
        "day": "Friday",
        "hours": "10 AM to 8 PM"
      },
      {
        "day": "Saturday",
        "hours": "8 AM to 9 PM"
      },
      {
        "day": "Sunday",
        "hours": "12 to 4 PM"
      }
    ],
    "imageUrl": "https://media.indianluxurycars.com/google/1f2e59f9d85a20ac77ccef39c675f0a270a697fe845df9adb73a28ac3b5665a7.jpg",
    "url": "https://www.google.com/maps/search/?api=1&query=V%20Care%20Tours&query_place_id=ChIJHdDkm7AIazkR-AnjNTVPMkc"
  },
  {
    "title": "Varsha Cab service - Jaipur",
    "subTitle": "वर्षा टैक्सी",
    "categoryName": "Car leasing service",
    "address": "Plot No.6, Kali Das Marg, Near inox, Sindhi Colony, Bani Park, Jaipur, Rajasthan 302016, India",
    "neighborhood": "Sindhi Colony, Bani Park",
    "street": "Plot No.6, Kali Das Marg, Near inox",
    "city": "Jaipur",
    "postalCode": "302016",
    "state": "Rajasthan",
    "countryCode": "IN",
    "website": "http://www.cabserviceinjaipur.com/",
    "phone": "+918890825040",
    "phoneUnformatted": "+918890825040",
    "location": {
      "lat": 26.9337591,
      "lng": 75.7918882
    },
    "totalScore": 4.6,
    "permanentlyClosed": false,
    "temporarilyClosed": false,
    "placeId": "ChIJKxnv5O6zbTkR11WQQ0kV2ZA",
    "categories": [
      "Car leasing service",
      "Taxi service",
      "Sightseeing tour agency",
      "Tour agency"
    ],
    "reviewsCount": 439,
    "imagesCount": 5,
    "openingHours": [],
    "imageUrl": "https://media.indianluxurycars.com/google/6b26f4f9cbded77edb54a28aa0705d9230abb377b3c6d6a0b47acb554e4123c6.jpg",
    "url": "https://www.google.com/maps/search/?api=1&query=Varsha%20Cab%20service%20-%20Jaipur&query_place_id=ChIJKxnv5O6zbTkR11WQQ0kV2ZA"
  },
  {
    "title": "Vintage Cars On Rent",
    "subTitle": "विंटेज कार्स ऑन रेंट",
    "categoryName": "Car rental agency",
    "address": "Char Darwaja, Chokdi Gangapol, Jaipur, Rajasthan 302002, India",
    "neighborhood": "Char Darwaja, Chokdi Gangapol",
    "city": "Jaipur",
    "postalCode": "302002",
    "state": "Rajasthan",
    "countryCode": "IN",
    "website": "http://www.vintagecarsonrent.com/",
    "phone": "+917737234772",
    "phoneUnformatted": "+917737234772",
    "location": {
      "lat": 26.9293661,
      "lng": 75.8370639
    },
    "totalScore": 4.9,
    "permanentlyClosed": false,
    "temporarilyClosed": false,
    "placeId": "ChIJX52bbMyxbTkR7wQ_4eh9BDQ",
    "categories": [
      "Car rental agency",
      "Car leasing service",
      "Event management company",
      "Photo shop",
      "Rolls-Royce dealer",
      "Wedding planner",
      "Wedding service"
    ],
    "reviewsCount": 119,
    "imagesCount": 518,
    "openingHours": [
      {
        "day": "Monday",
        "hours": "6 AM to 11 PM"
      },
      {
        "day": "Tuesday",
        "hours": "6 AM to 11 PM"
      },
      {
        "day": "Wednesday",
        "hours": "6 AM to 11 PM"
      },
      {
        "day": "Thursday",
        "hours": "6 AM to 11 PM"
      },
      {
        "day": "Friday",
        "hours": "6 AM to 11 PM"
      },
      {
        "day": "Saturday",
        "hours": "6 AM to 11 PM"
      },
      {
        "day": "Sunday",
        "hours": "6 AM to 11 PM"
      }
    ],
    "imageUrl": "https://media.indianluxurycars.com/google/1e52c0bb4b5041ba282f5908007433f3d6ecd446d85484bbdeea0df7692be3af.jpg",
    "url": "https://www.google.com/maps/search/?api=1&query=Vintage%20Cars%20On%20Rent&query_place_id=ChIJX52bbMyxbTkR7wQ_4eh9BDQ"
  },
  {
    "title": "Visit Rajasthan Tour",
    "subTitle": "विजिट राजस्थान टूर",
    "categoryName": "Car rental agency",
    "address": "A-26, Fateh Singh Market, opp. Hotel Rajputana Sheraton, near Railway Station, Jaipur, Rajasthan 302006, India",
    "neighborhood": "Gopalbari",
    "street": "A-26, Fateh Singh Market, opp. Hotel Rajputana Sheraton, near Railway Station",
    "city": "Jaipur",
    "postalCode": "302006",
    "state": "Rajasthan",
    "countryCode": "IN",
    "website": "http://www.visitrajasthantour.com/",
    "phone": "+919829290331",
    "phoneUnformatted": "+919829290331",
    "location": {
      "lat": 26.9184214,
      "lng": 75.7918977
    },
    "totalScore": 4.9,
    "permanentlyClosed": false,
    "temporarilyClosed": false,
    "placeId": "ChIJdVgNgXa0bTkRR1LlEnQPNRc",
    "categories": [
      "Car rental agency",
      "Car leasing service",
      "Sightseeing tour agency",
      "Taxi service",
      "Tour agency",
      "Tour operator",
      "Tourist information center",
      "Travel agency"
    ],
    "reviewsCount": 216,
    "imagesCount": 37,
    "openingHours": [
      {
        "day": "Monday",
        "hours": "7 AM to 11:30 PM"
      },
      {
        "day": "Tuesday",
        "hours": "7 AM to 11:30 PM"
      },
      {
        "day": "Wednesday",
        "hours": "7 AM to 11:30 PM"
      },
      {
        "day": "Thursday",
        "hours": "7 AM to 11:30 PM"
      },
      {
        "day": "Friday",
        "hours": "7 AM to 11:30 PM"
      },
      {
        "day": "Saturday",
        "hours": "7 AM to 11:30 PM"
      },
      {
        "day": "Sunday",
        "hours": "7 AM to 11:30 PM"
      }
    ],
    "imageUrl": "https://media.indianluxurycars.com/google/7c64f2b76988a8024951b390955404bbe270f0fc91df4f6928c65004f835d9d1.jpg",
    "url": "https://www.google.com/maps/search/?api=1&query=Visit%20Rajasthan%20Tour&query_place_id=ChIJdVgNgXa0bTkRR1LlEnQPNRc"
  },
  {
    "title": "Wedding Car Rental Jaipur",
    "subTitle": "वेडिंग कार रेंटल जयपुर",
    "categoryName": "Car rental agency",
    "address": "D, Whispering Palms, 302 III Floor, 42, Subhash Marg, Jaipur, Rajasthan 302001, India",
    "neighborhood": "C Scheme, Ashok Nagar",
    "street": "D, Whispering Palms, 302 III Floor, 42, Subhash Marg",
    "city": "Jaipur",
    "postalCode": "302001",
    "state": "Rajasthan",
    "countryCode": "IN",
    "website": "https://weddingcarrentaljaipur.com/",
    "phone": "+919351910007",
    "phoneUnformatted": "+919351910007",
    "location": {
      "lat": 26.9109597,
      "lng": 75.8012213
    },
    "permanentlyClosed": false,
    "temporarilyClosed": false,
    "placeId": "ChIJMw_G0_RnHWUR6CcIkgtKdbI",
    "categories": [
      "Car rental agency"
    ],
    "imagesCount": 2,
    "openingHours": [
      {
        "day": "Monday",
        "hours": "9 AM to 10 PM"
      },
      {
        "day": "Tuesday",
        "hours": "9 AM to 10 PM"
      },
      {
        "day": "Wednesday",
        "hours": "9 AM to 10 PM"
      },
      {
        "day": "Thursday",
        "hours": "9 AM to 10 PM"
      },
      {
        "day": "Friday",
        "hours": "9 AM to 10 PM"
      },
      {
        "day": "Saturday",
        "hours": "9 AM to 10 PM"
      },
      {
        "day": "Sunday",
        "hours": "9 AM to 10 PM"
      }
    ],
    "imageUrl": "https://media.indianluxurycars.com/google/473d21166dc9e80f58baba3459f749c4874b050832840fd358bf3c6d48f023de.jpg",
    "url": "https://www.google.com/maps/search/?api=1&query=Wedding%20Car%20Rental%20Jaipur&query_place_id=ChIJMw_G0_RnHWUR6CcIkgtKdbI"
  },
  {
    "title": "Win Tours India",
    "subTitle": "पश्चिमी भारत प्रकृति पर्यटन।",
    "categoryName": "Car rental agency",
    "address": "F-1,1st Floor, Jatta Shankar Apartment,Subhash Marg, `C` Scheme Jaipur,RJ, 302001, Chaitanya Marg, Ashok Nagar, Jaipur, Rajasthan 302001, India",
    "neighborhood": "C Scheme, Ashok Nagar",
    "street": "F-1,1st Floor, Jatta Shankar Apartment,Subhash Marg, `C` Scheme Jaipur,RJ, 302001, Chaitanya Marg",
    "city": "Jaipur",
    "postalCode": "302001",
    "state": "Rajasthan",
    "countryCode": "IN",
    "website": "https://wintoursindia.com/",
    "phone": "+911412220509",
    "phoneUnformatted": "+911412220509",
    "location": {
      "lat": 26.908706,
      "lng": 75.799866
    },
    "totalScore": 4.6,
    "permanentlyClosed": false,
    "temporarilyClosed": false,
    "placeId": "ChIJyxK8vgS0bTkR_h5og16TRC4",
    "categories": [
      "Car rental agency",
      "Travel agency",
      "Tour agency",
      "Tour operator",
      "Tourist attraction"
    ],
    "reviewsCount": 56,
    "imagesCount": 112,
    "openingHours": [
      {
        "day": "Monday",
        "hours": "10 AM to 6 PM"
      },
      {
        "day": "Tuesday",
        "hours": "10 AM to 6 PM"
      },
      {
        "day": "Wednesday",
        "hours": "10 AM to 6 PM"
      },
      {
        "day": "Thursday",
        "hours": "10 AM to 6 PM"
      },
      {
        "day": "Friday",
        "hours": "10 AM to 6 PM"
      },
      {
        "day": "Saturday",
        "hours": "10 AM to 6 PM"
      },
      {
        "day": "Sunday",
        "hours": "Closed"
      }
    ],
    "imageUrl": "https://media.indianluxurycars.com/google/a9cb4f7a4f29abe7faab759746322911e5c9e04c9558167a5f9be25de66e130a.png",
    "url": "https://www.google.com/maps/search/?api=1&query=Win%20Tours%20India&query_place_id=ChIJyxK8vgS0bTkR_h5og16TRC4"
  },
  {
    "title": "Yash Holiday Maker",
    "subTitle": "यश हॉलिडे मेकर",
    "categoryName": "Car leasing service",
    "address": "near, Indira Verma Colony B 8398, pani ki tank circle, Shastri Nagar, Jaipur, Rajasthan 302016, India",
    "neighborhood": "Shastri Nagar",
    "street": "near, Indira Verma Colony B 8398, pani ki tank circle",
    "city": "Jaipur",
    "postalCode": "302016",
    "state": "Rajasthan",
    "countryCode": "IN",
    "website": "http://www.yashholidaymaker.in/",
    "phone": "+918107402215",
    "phoneUnformatted": "+918107402215",
    "location": {
      "lat": 26.9383461,
      "lng": 75.8031821
    },
    "totalScore": 5,
    "permanentlyClosed": false,
    "temporarilyClosed": false,
    "placeId": "ChIJx_pIPuazbTkRtQsNMTjRips",
    "categories": [
      "Car leasing service",
      "Travel agency",
      "Event management company",
      "Hotel",
      "Tour operator",
      "Tourist information center"
    ],
    "reviewsCount": 68,
    "imagesCount": 77,
    "openingHours": [],
    "imageUrl": "https://media.indianluxurycars.com/google/0aa74f38a487aa8f8c31ec8375f893120b2e73bc7f68bbbc2e73b1cf9e0508b4.jpg",
    "url": "https://www.google.com/maps/search/?api=1&query=Yash%20Holiday%20Maker&query_place_id=ChIJx_pIPuazbTkRtQsNMTjRips"
  },
  {
    "title": "Zoomcar",
    "subTitle": "झूमकर",
    "categoryName": "Car rental agency",
    "address": "WQ9R+J2Q, Jaipur Railway Station, Metro Station Parking, Jaipur, Rajasthan 302006, India",
    "neighborhood": "Gopalbari",
    "street": "WQ9R+J2Q, Jaipur Railway Station, Metro Station Parking",
    "city": "Jaipur",
    "postalCode": "302006",
    "state": "Rajasthan",
    "countryCode": "IN",
    "website": "https://www.zoomcar.com/jaipur/",
    "phone": "+9118601239666",
    "phoneUnformatted": "+9118601239666",
    "location": {
      "lat": 26.9190772,
      "lng": 75.7901163
    },
    "totalScore": 3.4,
    "permanentlyClosed": false,
    "temporarilyClosed": false,
    "placeId": "ChIJJzLX5fWzbTkRrj67DDPEHPg",
    "categories": [
      "Car rental agency"
    ],
    "reviewsCount": 145,
    "imagesCount": 35,
    "openingHours": [
      {
        "day": "Monday",
        "hours": "Open 24 hours"
      },
      {
        "day": "Tuesday",
        "hours": "Open 24 hours"
      },
      {
        "day": "Wednesday",
        "hours": "Open 24 hours"
      },
      {
        "day": "Thursday",
        "hours": "Open 24 hours"
      },
      {
        "day": "Friday",
        "hours": "Open 24 hours"
      },
      {
        "day": "Saturday",
        "hours": "Open 24 hours"
      },
      {
        "day": "Sunday",
        "hours": "Open 24 hours"
      }
    ],
    "imageUrl": "https://media.indianluxurycars.com/google/40000238521b5fbf6ec0cc5895cbc496c0d770a8ef691fb7883a53feb2012f10.jpg",
    "url": "https://www.google.com/maps/search/?api=1&query=Zoomcar&query_place_id=ChIJJzLX5fWzbTkRrj67DDPEHPg"
  }
]
