[
  {
    "title": "Aram Travels",
    "subTitle": "આરામ ટ્રાવેલ્સ",
    "categoryName": "Car leasing service",
    "address": "Pandit Nehru Marg, Mohan Nagar, Indradeep Society, Jamnagar, Gujarat 361002, India",
    "neighborhood": "Mohan Nagar, Indradeep Society",
    "street": "Pandit Nehru Marg",
    "city": "Jamnagar",
    "postalCode": "361002",
    "state": "Gujarat",
    "countryCode": "IN",
    "website": "http://www.aramtravels.com/",
    "phone": "+919825225975",
    "phoneUnformatted": "+919825225975",
    "location": {
      "lat": 22.481481,
      "lng": 70.061088
    },
    "totalScore": 4.9,
    "permanentlyClosed": false,
    "temporarilyClosed": false,
    "placeId": "ChIJJ18fiqhqVzkRJyvvimnDf8k",
    "categories": [
      "Car leasing service",
      "Car rental agency",
      "Taxi service"
    ],
    "reviewsCount": 329,
    "imagesCount": 105,
    "openingHours": [
      {
        "day": "Monday",
        "hours": "Open 24 hours"
      },
      {
        "day": "Tuesday",
        "hours": "Open 24 hours"
      },
      {
        "day": "Wednesday",
        "hours": "Open 24 hours"
      },
      {
        "day": "Thursday",
        "hours": "Open 24 hours"
      },
      {
        "day": "Friday",
        "hours": "Open 24 hours"
      },
      {
        "day": "Saturday",
        "hours": "Open 24 hours"
      },
      {
        "day": "Sunday",
        "hours": "Open 24 hours"
      }
    ],
    "imageUrl": "https://media.indianluxurycars.com/google/6be0eb3912dff5ed6e5fd081b1586973ccc2ead64f2c216d3f0a31f206d5e441.jpg",
    "url": "https://www.google.com/maps/search/?api=1&query=Aram%20Travels&query_place_id=ChIJJ18fiqhqVzkRJyvvimnDf8k"
  },
  {
    "title": "Deep Travels",
    "subTitle": "દીપ ટ્રાવેલ્સ",
    "categoryName": "Car rental agency",
    "address": "Shop No. 133, DKV COLLEGE, Cross Road Complex, Pandit Nehru Marg, Indradeep Society, Jamnagar, Gujarat 361002, India",
    "neighborhood": "Indradeep Society",
    "street": "Shop No. 133, DKV COLLEGE, Cross Road Complex, Pandit Nehru Marg",
    "city": "Jamnagar",
    "postalCode": "361002",
    "state": "Gujarat",
    "countryCode": "IN",
    "phone": "+919898493001",
    "phoneUnformatted": "+919898493001",
    "location": {
      "lat": 22.4808471,
      "lng": 70.0617731
    },
    "totalScore": 3,
    "permanentlyClosed": false,
    "temporarilyClosed": false,
    "placeId": "ChIJxxSgm6hqVzkRiphdJqa1_X0",
    "categories": [
      "Car rental agency",
      "Taxi service"
    ],
    "reviewsCount": 34,
    "imagesCount": 7,
    "openingHours": [
      {
        "day": "Monday",
        "hours": "Open 24 hours"
      },
      {
        "day": "Tuesday",
        "hours": "Open 24 hours"
      },
      {
        "day": "Wednesday",
        "hours": "Open 24 hours"
      },
      {
        "day": "Thursday",
        "hours": "Open 24 hours"
      },
      {
        "day": "Friday",
        "hours": "Open 24 hours"
      },
      {
        "day": "Saturday",
        "hours": "Open 24 hours"
      },
      {
        "day": "Sunday",
        "hours": "Open 24 hours"
      }
    ],
    "imageUrl": "https://media.indianluxurycars.com/google/6ad8f81c17f9b4f62c0e732c843a7c8095e2933e46284c95043af1ca571fd023.jpg",
    "url": "https://www.google.com/maps/search/?api=1&query=Deep%20Travels&query_place_id=ChIJxxSgm6hqVzkRiphdJqa1_X0"
  },
  {
    "title": "Giriraj Yatra Sangh",
    "categoryName": "Car rental agency",
    "address": "Ratanbiy masjid, Chandi Bazar, Kadiawad, Jamnagar, Gujarat 361006, India",
    "neighborhood": "Chandi Bazar, Kadiawad",
    "street": "Ratanbiy masjid",
    "city": "Jamnagar",
    "postalCode": "361006",
    "state": "Gujarat",
    "countryCode": "IN",
    "phone": "+912882557744",
    "phoneUnformatted": "+912882557744",
    "location": {
      "lat": 22.4656639,
      "lng": 70.0773689
    },
    "totalScore": 3.4,
    "permanentlyClosed": false,
    "temporarilyClosed": false,
    "placeId": "ChIJ456marlqVzkR2dJufTIXqls",
    "categories": [
      "Car rental agency"
    ],
    "reviewsCount": 16,
    "imagesCount": 5,
    "openingHours": [
      {
        "day": "Monday",
        "hours": "Open 24 hours"
      },
      {
        "day": "Tuesday",
        "hours": "Open 24 hours"
      },
      {
        "day": "Wednesday",
        "hours": "Open 24 hours"
      },
      {
        "day": "Thursday",
        "hours": "Open 24 hours"
      },
      {
        "day": "Friday",
        "hours": "Open 24 hours"
      },
      {
        "day": "Saturday",
        "hours": "Open 24 hours"
      },
      {
        "day": "Sunday",
        "hours": "Open 24 hours"
      }
    ],
    "imageUrl": "https://media.indianluxurycars.com/google/2b0805dd58715a4fb388aba3142ab08b6b0a888f04d4cfa42b5be235de9bf7bc.jpg",
    "url": "https://www.google.com/maps/search/?api=1&query=Giriraj%20Yatra%20Sangh&query_place_id=ChIJ456marlqVzkR2dJufTIXqls"
  },
  {
    "title": "Janak Travels",
    "subTitle": "જનક ટ્રાવેલ્સ",
    "categoryName": "Car rental agency",
    "address": "9 patel colony nehru nagar, 9, Rd Number 3, Nehrunagar, Patel Colony, Jamnagar, Gujarat 361008, India",
    "neighborhood": "Nehrunagar, Patel Colony",
    "street": "9 patel colony nehru nagar, 9, Rd Number 3",
    "city": "Jamnagar",
    "postalCode": "361008",
    "state": "Gujarat",
    "countryCode": "IN",
    "website": "http://janaktravels.com/",
    "location": {
      "lat": 22.4872782,
      "lng": 70.0591934
    },
    "permanentlyClosed": false,
    "temporarilyClosed": false,
    "placeId": "ChIJ5XMzWQtBVzkRr7pXO7_d1t4",
    "categories": [
      "Car rental agency",
      "Airport shuttle service",
      "Taxi service",
      "Tour operator",
      "Tourist information center",
      "Travel agency"
    ],
    "imagesCount": 11,
    "openingHours": [],
    "imageUrl": "https://media.indianluxurycars.com/google/fd3efd1ad24827303e4522e58fbaad85c552164ce3558c0507b5c00dcf5fac2e.jpg",
    "url": "https://www.google.com/maps/search/?api=1&query=Janak%20Travels&query_place_id=ChIJ5XMzWQtBVzkRr7pXO7_d1t4"
  },
  {
    "title": "myTVS - Platinum Motors Jamnnagar",
    "categoryName": "Car repair and maintenance service",
    "address": "Platinum motors, Four Wheeler Services C-17B/18,M.P. Shah Municipal Indus Estate, Saru Section Rd, Jamnagar, Gujarat 361002, India",
    "neighborhood": "Mahavir Society, Park Colony",
    "street": "Platinum motors, Four Wheeler Services C-17B/18,M.P. Shah Municipal Indus Estate, Saru Section Rd",
    "city": "Jamnagar",
    "postalCode": "361002",
    "state": "Gujarat",
    "countryCode": "IN",
    "website": "https://mytvs.in/",
    "phone": "+919727177777",
    "phoneUnformatted": "+919727177777",
    "location": {
      "lat": 22.4795905,
      "lng": 70.051062
    },
    "totalScore": 5,
    "permanentlyClosed": false,
    "temporarilyClosed": false,
    "placeId": "ChIJQ6C56IJrVzkRgXcS9X2g3u8",
    "categories": [
      "Car repair and maintenance service",
      "Auto body shop",
      "Mechanic",
      "Oil change service",
      "Parking garage"
    ],
    "reviewsCount": 2,
    "imagesCount": 7,
    "openingHours": [
      {
        "day": "Monday",
        "hours": "9:30 AM to 6:30 PM"
      },
      {
        "day": "Tuesday",
        "hours": "9:30 AM to 6:30 PM"
      },
      {
        "day": "Wednesday",
        "hours": "9:30 AM to 6:30 PM"
      },
      {
        "day": "Thursday",
        "hours": "9:30 AM to 6:30 PM"
      },
      {
        "day": "Friday",
        "hours": "9:30 AM to 6:30 PM"
      },
      {
        "day": "Saturday",
        "hours": "9:30 AM to 6:30 PM"
      },
      {
        "day": "Sunday",
        "hours": "Closed"
      }
    ],
    "imageUrl": "https://media.indianluxurycars.com/google/afcef6a1d65cd899fb9653d0cdc674bf21b44b5acefaffb471514a9b02a276e5.jpg",
    "url": "https://www.google.com/maps/search/?api=1&query=myTVS%20-%20Platinum%20Motors%20Jamnnagar&query_place_id=ChIJQ6C56IJrVzkRgXcS9X2g3u8"
  },
  {
    "title": "NEHAL TRAVELS",
    "subTitle": "નેહલ ટ્રાવેલ્સ",
    "categoryName": "Car leasing service",
    "address": "Shop No. 7, Pandit Nehru Marg, Indradeep Society, Jamnagar, Gujarat 361006, India",
    "neighborhood": "Indradeep Society",
    "street": "Shop No. 7, Pandit Nehru Marg",
    "city": "Jamnagar",
    "postalCode": "361006",
    "state": "Gujarat",
    "countryCode": "IN",
    "website": "http://www.nehal-travels.com/",
    "phone": "+919904229263",
    "phoneUnformatted": "+919904229263",
    "location": {
      "lat": 22.4748634,
      "lng": 70.0674795
    },
    "totalScore": 4.4,
    "permanentlyClosed": false,
    "temporarilyClosed": false,
    "placeId": "ChIJfYtdpKRqVzkRf-yPsgQayMY",
    "categories": [
      "Car leasing service",
      "Taxi service"
    ],
    "reviewsCount": 8,
    "imagesCount": 7,
    "openingHours": [],
    "imageUrl": "https://media.indianluxurycars.com/google/129e68942df2570f5f1554ffe8115d23646f115fb1edc912f6ada80b2ab31318.jpg",
    "url": "https://www.google.com/maps/search/?api=1&query=NEHAL%20TRAVELS&query_place_id=ChIJfYtdpKRqVzkRf-yPsgQayMY"
  },
  {
    "title": "Ocean car spa & Detailing Branch-1 ( All types of Car Detailing Studio)",
    "categoryName": "Car wash",
    "address": "near, new hudko j-26, Shak Market Rd, Ranjit Nagar, Summair Club Road, Jamnagar, Gujarat 361006, India",
    "neighborhood": "Ranjit Nagar, Summair Club Road",
    "street": "near, new hudko j-26, Shak Market Rd",
    "city": "Jamnagar",
    "postalCode": "361006",
    "state": "Gujarat",
    "countryCode": "IN",
    "phone": "+917778866972",
    "phoneUnformatted": "+917778866972",
    "location": {
      "lat": 22.4649635,
      "lng": 70.0532574
    },
    "totalScore": 4.8,
    "permanentlyClosed": false,
    "temporarilyClosed": false,
    "placeId": "ChIJhRR90WlrVzkRTzwelZ45S_Q",
    "categories": [
      "Car wash"
    ],
    "reviewsCount": 299,
    "imagesCount": 103,
    "openingHours": [
      {
        "day": "Monday",
        "hours": "9 AM to 9:30 PM"
      },
      {
        "day": "Tuesday",
        "hours": "9 AM to 9:30 PM"
      },
      {
        "day": "Wednesday",
        "hours": "9 AM to 9:30 PM"
      },
      {
        "day": "Thursday",
        "hours": "9 AM to 9:30 PM"
      },
      {
        "day": "Friday",
        "hours": "9 AM to 9:30 PM"
      },
      {
        "day": "Saturday",
        "hours": "9 AM to 9:30 PM"
      },
      {
        "day": "Sunday",
        "hours": "9 AM to 9:30 PM"
      }
    ],
    "imageUrl": "https://media.indianluxurycars.com/google/009d2336634488c009d5d5fc9ddcfc37fba0b861af6fbe70288a7ef0d05c10fa.jpg",
    "url": "https://www.google.com/maps/search/?api=1&query=Ocean%20car%20spa%20%26%20Detailing%20Branch-1%20(%20All%20types%20of%20Car%20Detailing%20Studio)&query_place_id=ChIJhRR90WlrVzkRTzwelZ45S_Q"
  },
  {
    "title": "Ocean Car Spa & Detailing Branch-2",
    "categoryName": "Car wash",
    "address": "Hirji Mistry Rd, behind Navanagar Bank, opp. Pranami Globle School, Nand Dham Society, Jamnagar, Gujarat 361006, India",
    "neighborhood": "Nand Dham Society",
    "street": "Hirji Mistry Rd, behind Navanagar Bank, opp. Pranami Globle School",
    "city": "Jamnagar",
    "postalCode": "361006",
    "state": "Gujarat",
    "countryCode": "IN",
    "phone": "+917778866972",
    "phoneUnformatted": "+917778866972",
    "location": {
      "lat": 22.4603152,
      "lng": 70.0548495
    },
    "totalScore": 4.9,
    "permanentlyClosed": false,
    "temporarilyClosed": false,
    "placeId": "ChIJZylUq1lrVzkRFcZOJ3d0iEY",
    "categories": [
      "Car wash"
    ],
    "reviewsCount": 118,
    "imagesCount": 73,
    "openingHours": [
      {
        "day": "Monday",
        "hours": "9 AM to 9:30 PM"
      },
      {
        "day": "Tuesday",
        "hours": "9 AM to 9:30 PM"
      },
      {
        "day": "Wednesday",
        "hours": "9 AM to 9:30 PM"
      },
      {
        "day": "Thursday",
        "hours": "9 AM to 9:30 PM"
      },
      {
        "day": "Friday",
        "hours": "9 AM to 9:30 PM"
      },
      {
        "day": "Saturday",
        "hours": "9 AM to 9:30 PM"
      },
      {
        "day": "Sunday",
        "hours": "9 AM to 9:30 PM"
      }
    ],
    "imageUrl": "https://media.indianluxurycars.com/google/81a4ca8cac2707721302f16d743edd3f9846754d38479b2ecaccd2ce46bc2c27.jpg",
    "url": "https://www.google.com/maps/search/?api=1&query=Ocean%20Car%20Spa%20%26%20Detailing%20Branch-2&query_place_id=ChIJZylUq1lrVzkRFcZOJ3d0iEY"
  },
  {
    "title": "Shree Khodiyar Travels",
    "subTitle": "શ્રી ખોડિયાર ટ્રાવેલ્સ",
    "categoryName": "Car rental agency",
    "address": "80 Feet Rd, near telephone exchange, B/H, Khodiyar Colony, Jamnagar, Gujarat 361002, India",
    "neighborhood": "B/H, Khodiyar Colony",
    "street": "80 Feet Rd, near telephone exchange",
    "city": "Jamnagar",
    "postalCode": "361002",
    "state": "Gujarat",
    "countryCode": "IN",
    "phone": "+918140394595",
    "phoneUnformatted": "+918140394595",
    "location": {
      "lat": 22.4666673,
      "lng": 70.0450295
    },
    "totalScore": 4.8,
    "permanentlyClosed": false,
    "temporarilyClosed": false,
    "placeId": "ChIJwUUPrTEVVzkRUJ33W2WmPk8",
    "categories": [
      "Car rental agency",
      "Bus company",
      "Bus tour agency",
      "Car leasing service",
      "Handicapped transportation service",
      "Leasing service",
      "Minibus taxi service",
      "Taxi service",
      "Tour operator"
    ],
    "reviewsCount": 359,
    "imagesCount": 162,
    "openingHours": [
      {
        "day": "Monday",
        "hours": "Open 24 hours"
      },
      {
        "day": "Tuesday",
        "hours": "Open 24 hours"
      },
      {
        "day": "Wednesday",
        "hours": "Open 24 hours"
      },
      {
        "day": "Thursday",
        "hours": "Open 24 hours"
      },
      {
        "day": "Friday",
        "hours": "Open 24 hours"
      },
      {
        "day": "Saturday",
        "hours": "Open 24 hours"
      },
      {
        "day": "Sunday",
        "hours": "Open 24 hours"
      }
    ],
    "imageUrl": "https://media.indianluxurycars.com/google/d1d723ac0dea150b3f0fd4d438ca7650c72863e69a08737aa15e464ee6910945.jpg",
    "url": "https://www.google.com/maps/search/?api=1&query=Shree%20Khodiyar%20Travels&query_place_id=ChIJwUUPrTEVVzkRUJ33W2WmPk8"
  }
]
