[
  {
    "title": "A K Rides Self drive",
    "subTitle": "ए के राइड्स सेल्फ ड्राइव",
    "categoryName": "Car rental agency",
    "address": "Line no-23, Mohan Complex, 520, H N Rd, near Hotel Grand, Phase 8, Kasidih, Sakchi, Jamshedpur, Jharkhand 831011, India",
    "neighborhood": "Phase 8, Kasidih, Sakchi",
    "street": "Line no-23, Mohan Complex, 520, H N Rd, near Hotel Grand",
    "city": "Jamshedpur",
    "postalCode": "831011",
    "state": "Jharkhand",
    "countryCode": "IN",
    "phone": "+916201373658",
    "phoneUnformatted": "+916201373658",
    "location": {
      "lat": 22.8269306,
      "lng": 86.1731657
    },
    "totalScore": 5,
    "permanentlyClosed": false,
    "temporarilyClosed": false,
    "placeId": "ChIJweiF663l9TkRCqA-eMzngTE",
    "categories": [
      "Car rental agency",
      "Car leasing service"
    ],
    "reviewsCount": 170,
    "imagesCount": 37,
    "openingHours": [
      {
        "day": "Monday",
        "hours": "Open 24 hours"
      },
      {
        "day": "Tuesday",
        "hours": "Open 24 hours"
      },
      {
        "day": "Wednesday",
        "hours": "Open 24 hours"
      },
      {
        "day": "Thursday",
        "hours": "Open 24 hours"
      },
      {
        "day": "Friday",
        "hours": "Open 24 hours"
      },
      {
        "day": "Saturday",
        "hours": "Open 24 hours"
      },
      {
        "day": "Sunday",
        "hours": "Open 24 hours"
      }
    ],
    "imageUrl": "https://media.indianluxurycars.com/google/e2f548e05cb0515d149e6ced2226225af50f7d7e6ad0fcffda0f68ca16b1a21c.jpg",
    "url": "https://www.google.com/maps/search/?api=1&query=A%20K%20Rides%20Self%20drive&query_place_id=ChIJweiF663l9TkRCqA-eMzngTE"
  },
  {
    "title": "A.M.R SELF DRIVE Car Rental",
    "subTitle": "ए.म.र सेल्फ ड्राइव कार रेंटल",
    "categoryName": "Car rental agency",
    "address": "Bhuiyadih, Bhalubasa, Jamshedpur, Jharkhand 831009, India",
    "neighborhood": "Bhuiyadih, Bhalubasa",
    "city": "Jamshedpur",
    "postalCode": "831009",
    "state": "Jharkhand",
    "countryCode": "IN",
    "phone": "+919546437276",
    "phoneUnformatted": "+919546437276",
    "location": {
      "lat": 22.8043152,
      "lng": 86.2165397
    },
    "totalScore": 4.5,
    "permanentlyClosed": false,
    "temporarilyClosed": false,
    "placeId": "ChIJ7RB1qTbj9TkR_zFE3kalfdk",
    "categories": [
      "Car rental agency"
    ],
    "reviewsCount": 154,
    "imagesCount": 12,
    "openingHours": [
      {
        "day": "Monday",
        "hours": "Open 24 hours"
      },
      {
        "day": "Tuesday",
        "hours": "Open 24 hours"
      },
      {
        "day": "Wednesday",
        "hours": "Open 24 hours"
      },
      {
        "day": "Thursday",
        "hours": "Open 24 hours"
      },
      {
        "day": "Friday",
        "hours": "Open 24 hours"
      },
      {
        "day": "Saturday",
        "hours": "Open 24 hours"
      },
      {
        "day": "Sunday",
        "hours": "Open 24 hours"
      }
    ],
    "imageUrl": "https://media.indianluxurycars.com/google/db98a8f0470952752529d0f12c00069ace86f1c2ce7466033d2dcc5c44be58d5.jpg",
    "url": "https://www.google.com/maps/search/?api=1&query=A.M.R%20SELF%20DRIVE%20Car%20Rental&query_place_id=ChIJ7RB1qTbj9TkR_zFE3kalfdk"
  },
  {
    "title": "Aman motors",
    "subTitle": "अमन मोटर्स",
    "categoryName": "Used car dealer",
    "address": "14, P Rd, South Park, Bistupur, Jamshedpur, Jharkhand 831001, India",
    "neighborhood": "South Park, Bistupur",
    "street": "14, P Rd",
    "city": "Jamshedpur",
    "postalCode": "831001",
    "state": "Jharkhand",
    "countryCode": "IN",
    "website": "https://amanmotorsjsr.in/",
    "phone": "+919939152880",
    "phoneUnformatted": "+919939152880",
    "location": {
      "lat": 22.7905684,
      "lng": 86.1820914
    },
    "totalScore": 5,
    "permanentlyClosed": false,
    "temporarilyClosed": false,
    "placeId": "ChIJKbSMSiTj9TkRoQZp_m4sjko",
    "categories": [
      "Used car dealer"
    ],
    "reviewsCount": 152,
    "imagesCount": 6,
    "openingHours": [
      {
        "day": "Monday",
        "hours": "9 AM to 7 PM"
      },
      {
        "day": "Tuesday",
        "hours": "9 AM to 7 PM"
      },
      {
        "day": "Wednesday",
        "hours": "9 AM to 7 PM"
      },
      {
        "day": "Thursday",
        "hours": "9 AM to 7 PM"
      },
      {
        "day": "Friday",
        "hours": "9 AM to 7 PM"
      },
      {
        "day": "Saturday",
        "hours": "9 AM to 7 PM"
      },
      {
        "day": "Sunday",
        "hours": "9 AM to 7 PM"
      }
    ],
    "imageUrl": "https://media.indianluxurycars.com/google/2e6314c3e96be3dd6314ae5e7c0303b467889e90617284ab6da9c5a2d1f3bd26.jpg",
    "url": "https://www.google.com/maps/search/?api=1&query=Aman%20motors&query_place_id=ChIJKbSMSiTj9TkRoQZp_m4sjko"
  },
  {
    "title": "ANU TRAVELS",
    "subTitle": "अनु ट्रैवल्स",
    "categoryName": "Car leasing service",
    "address": "B/2, Saini Enclave, Flat No, Aditypur Chowk, Jamshedpur, Jharkhand 831013, India",
    "neighborhood": "Aditypur Chowk, Mango",
    "street": "B/2, Saini Enclave, Flat No",
    "city": "Jamshedpur",
    "postalCode": "831013",
    "state": "Jharkhand",
    "countryCode": "IN",
    "website": "https://anu-travel.in/",
    "phone": "+916203743017",
    "phoneUnformatted": "+916203743017",
    "location": {
      "lat": 22.8403125,
      "lng": 86.2057537
    },
    "totalScore": 5,
    "permanentlyClosed": false,
    "temporarilyClosed": false,
    "placeId": "ChIJT3naPo7l9TkR71iP9t6T-1w",
    "categories": [
      "Car leasing service",
      "Bus tour agency",
      "Minibus taxi service",
      "Taxi service"
    ],
    "reviewsCount": 15,
    "imagesCount": 1,
    "openingHours": [
      {
        "day": "Monday",
        "hours": "Open 24 hours"
      },
      {
        "day": "Tuesday",
        "hours": "Open 24 hours"
      },
      {
        "day": "Wednesday",
        "hours": "Open 24 hours"
      },
      {
        "day": "Thursday",
        "hours": "Open 24 hours"
      },
      {
        "day": "Friday",
        "hours": "Open 24 hours"
      },
      {
        "day": "Saturday",
        "hours": "Open 24 hours"
      },
      {
        "day": "Sunday",
        "hours": "Open 24 hours"
      }
    ],
    "imageUrl": "https://media.indianluxurycars.com/google/c0b7115c9a810e5b0999eda5a69de65e7793b9feec67762fac9f48fa6adf4cd3.jpg",
    "url": "https://www.google.com/maps/search/?api=1&query=ANU%20TRAVELS&query_place_id=ChIJT3naPo7l9TkR71iP9t6T-1w"
  },
  {
    "title": "Arihant Auto Bazar- Used Car Dealer - Second Hand Car Dealer - Sale & Purchase Car In Jamshedpur",
    "subTitle": "अरिहंत ऑटो बाजार",
    "categoryName": "Used car dealer",
    "address": "Khasmahal, More, Golpahari, Chowk, Jamshedpur, Jharkhand 831002, India",
    "neighborhood": "Golpahari, Chowk",
    "street": "Khasmahal, More",
    "city": "Jamshedpur",
    "postalCode": "831002",
    "state": "Jharkhand",
    "countryCode": "IN",
    "website": "https://www.facebook.com/pages/Arihant-Auto-Bazaar/180680215924485",
    "phone": "+917870070007",
    "phoneUnformatted": "+917870070007",
    "location": {
      "lat": 22.7635541,
      "lng": 86.2041145
    },
    "totalScore": 3.8,
    "permanentlyClosed": false,
    "temporarilyClosed": false,
    "placeId": "ChIJm9guEs389TkRd28bQ4qcxmc",
    "categories": [
      "Used car dealer",
      "Car dealer",
      "Used motorcycle dealer"
    ],
    "reviewsCount": 66,
    "imagesCount": 55,
    "openingHours": [
      {
        "day": "Monday",
        "hours": "10 AM to 10 PM"
      },
      {
        "day": "Tuesday",
        "hours": "10 AM to 10 PM"
      },
      {
        "day": "Wednesday",
        "hours": "10 AM to 10 PM"
      },
      {
        "day": "Thursday",
        "hours": "10 AM to 10 PM"
      },
      {
        "day": "Friday",
        "hours": "10 AM to 10 PM"
      },
      {
        "day": "Saturday",
        "hours": "10 AM to 10 PM"
      },
      {
        "day": "Sunday",
        "hours": "10 AM to 10 PM"
      }
    ],
    "imageUrl": "https://media.indianluxurycars.com/google/b4cd5fa6ef6cecf19134b4431533beb912af1e88a09f54e6157124d1bd70ad83.png",
    "url": "https://www.google.com/maps/search/?api=1&query=Arihant%20Auto%20Bazar-%20Used%20Car%20Dealer%20-%20Second%20Hand%20Car%20Dealer%20-%20Sale%20%26%20Purchase%20Car%20In%20Jamshedpur&query_place_id=ChIJm9guEs389TkRd28bQ4qcxmc"
  },
  {
    "title": "CAR CRAFT -Best Car Accessories Shop In Jamshedpur|Car Seat Cover Manufacturer|Car Modification|Car Android System",
    "subTitle": "कार क्राफ्ट -बेस्ट कार एसेसरिज शॉप इन जमशेदपुर|कार सीट कवर मैन्युफैक्चरर|कार मोडिफिकेशन|कार एंड्रॉयड सिस्टम",
    "categoryName": "Car accessories store",
    "address": "Sandil Niwas, Straight Mile Rd, opposite Kaavya Orthopedic Hospital, Rajendra Nagar, Baradwari, Jamshedpur, Jharkhand 831001, India",
    "neighborhood": "Rajendra Nagar, Baradwari",
    "street": "Sandil Niwas, Straight Mile Rd, opposite Kaavya Orthopedic Hospital",
    "city": "Jamshedpur",
    "postalCode": "831001",
    "state": "Jharkhand",
    "countryCode": "IN",
    "website": "https://car-craft-best-car.grexa.site/",
    "phone": "+917050642415",
    "phoneUnformatted": "+917050642415",
    "location": {
      "lat": 22.8049562,
      "lng": 86.211845
    },
    "totalScore": 4.8,
    "permanentlyClosed": false,
    "temporarilyClosed": false,
    "placeId": "ChIJvUYhxXfj9TkRoaLj6S5zlak",
    "categories": [
      "Car accessories store"
    ],
    "reviewsCount": 47,
    "imagesCount": 128,
    "openingHours": [
      {
        "day": "Monday",
        "hours": "9:30 AM to 8:30 PM"
      },
      {
        "day": "Tuesday",
        "hours": "9:30 AM to 8:30 PM"
      },
      {
        "day": "Wednesday",
        "hours": "9:30 AM to 8:30 PM"
      },
      {
        "day": "Thursday",
        "hours": "9:30 AM to 8:30 PM"
      },
      {
        "day": "Friday",
        "hours": "9:30 AM to 8:30 PM"
      },
      {
        "day": "Saturday",
        "hours": "9:30 AM to 8:30 PM"
      },
      {
        "day": "Sunday",
        "hours": "9:30 AM to 8:30 PM"
      }
    ],
    "imageUrl": "https://media.indianluxurycars.com/google/b589434808dd5fc083247f91fd05a950a21dc8810bea686e48c76985c3f8cfa3.jpg",
    "url": "https://www.google.com/maps/search/?api=1&query=CAR%20CRAFT%20-Best%20Car%20Accessories%20Shop%20In%20Jamshedpur%7CCar%20Seat%20Cover%20Manufacturer%7CCar%20Modification%7CCar%20Android%20System&query_place_id=ChIJvUYhxXfj9TkRoaLj6S5zlak"
  },
  {
    "title": "Car house",
    "subTitle": "कार हाउस",
    "categoryName": "Car dealer",
    "address": "Office no-9, Pancharenu Apartment, South Park, Bistupur, Jamshedpur, Jharkhand 831001, India",
    "neighborhood": "South Park, Bistupur",
    "street": "Office no-9, Pancharenu Apartment",
    "city": "Jamshedpur",
    "postalCode": "831001",
    "state": "Jharkhand",
    "countryCode": "IN",
    "phone": "+917004362537",
    "phoneUnformatted": "+917004362537",
    "location": {
      "lat": 22.7885899,
      "lng": 86.1815739
    },
    "totalScore": 5,
    "permanentlyClosed": false,
    "temporarilyClosed": false,
    "placeId": "ChIJ12hSuijj9TkRuuZ1V45L3K8",
    "categories": [
      "Car dealer"
    ],
    "reviewsCount": 3,
    "imagesCount": 6,
    "openingHours": [
      {
        "day": "Monday",
        "hours": "10 AM to 8 PM"
      },
      {
        "day": "Tuesday",
        "hours": "10 AM to 8 PM"
      },
      {
        "day": "Wednesday",
        "hours": "10 AM to 8 PM"
      },
      {
        "day": "Thursday",
        "hours": "10 AM to 8 PM"
      },
      {
        "day": "Friday",
        "hours": "10 AM to 8 PM"
      },
      {
        "day": "Saturday",
        "hours": "10 AM to 8 PM"
      },
      {
        "day": "Sunday",
        "hours": "Closed"
      }
    ],
    "imageUrl": "https://media.indianluxurycars.com/google/764fa6faa20fb2c88162fe0c32c1cdd03e014565316b5eb5cd8ba81d993a3177.jpg",
    "url": "https://www.google.com/maps/search/?api=1&query=Car%20house&query_place_id=ChIJ12hSuijj9TkRuuZ1V45L3K8"
  },
  {
    "title": "CARS24 - Talbros Motors | Sell Used Cars in Jamshedpur",
    "subTitle": "कार्स24 - टालब्रोस मोटर्स | सेल यूज्ड कार्स इन जमशेदपुर",
    "categoryName": "Used car dealer",
    "address": "Jain Petrol Pump Campus, R K, New Kalimati Rd, near Howrah Bridge, Punjabi Refugee Colony, Sakchi, Jamshedpur, Jharkhand 831001, India",
    "neighborhood": "Punjabi Refugee Colony, Sakchi",
    "street": "Jain Petrol Pump Campus, R K, New Kalimati Rd, near Howrah Bridge",
    "city": "Jamshedpur",
    "postalCode": "831001",
    "state": "Jharkhand",
    "countryCode": "IN",
    "website": "https://www.cars24.com/",
    "phone": "+918929759586",
    "phoneUnformatted": "+918929759586",
    "location": {
      "lat": 22.7977591,
      "lng": 86.2112058
    },
    "totalScore": 4.2,
    "permanentlyClosed": false,
    "temporarilyClosed": false,
    "placeId": "ChIJOXgzQ2bj9TkR-U3zSxu93J0",
    "categories": [
      "Used car dealer",
      "Audi dealer",
      "BMW dealer",
      "Car finance and loan company",
      "Honda dealer",
      "Hyundai dealer",
      "Jeep dealer",
      "Kia dealer",
      "Suzuki dealer",
      "Toyota dealer"
    ],
    "reviewsCount": 69,
    "imagesCount": 116,
    "openingHours": [
      {
        "day": "Monday",
        "hours": "10 AM to 7 PM"
      },
      {
        "day": "Tuesday",
        "hours": "10 AM to 7 PM"
      },
      {
        "day": "Wednesday",
        "hours": "10 AM to 7 PM"
      },
      {
        "day": "Thursday",
        "hours": "10 AM to 7 PM"
      },
      {
        "day": "Friday",
        "hours": "10 AM to 7 PM"
      },
      {
        "day": "Saturday",
        "hours": "10 AM to 7 PM"
      },
      {
        "day": "Sunday",
        "hours": "10 AM to 7 PM"
      }
    ],
    "imageUrl": "https://media.indianluxurycars.com/google/c9182d926ba3daf36c5acfca41f60457fbf92c2b120cd5824f4de470dae2dd80.jpg",
    "url": "https://www.google.com/maps/search/?api=1&query=CARS24%20-%20Talbros%20Motors%20%7C%20Sell%20Used%20Cars%20in%20Jamshedpur&query_place_id=ChIJOXgzQ2bj9TkR-U3zSxu93J0"
  },
  {
    "title": "Carstar",
    "subTitle": "कारस्टार",
    "categoryName": "Car rental agency",
    "address": "Flat No 105, 2nd Floor, Marrigold Appartment, Daiguttu, Mango, Jamshedpur, Jharkhand 831012, India",
    "neighborhood": "Dahighutu, Mango",
    "street": "Flat No 105, 2nd Floor, Marrigold Appartment, Daiguttu",
    "city": "Jamshedpur",
    "postalCode": "831012",
    "state": "Jharkhand",
    "countryCode": "IN",
    "website": "https://www.carstar.com/",
    "phone": "+919155595944",
    "phoneUnformatted": "+919155595944",
    "location": {
      "lat": 22.8261084,
      "lng": 86.2070416
    },
    "totalScore": 4.9,
    "permanentlyClosed": false,
    "temporarilyClosed": false,
    "placeId": "ChIJ5R1PY2nj9TkR-Um8I7_4WK0",
    "categories": [
      "Car rental agency",
      "Car leasing service",
      "Taxi service",
      "Travel agency"
    ],
    "reviewsCount": 76,
    "imagesCount": 13,
    "openingHours": [],
    "imageUrl": "https://media.indianluxurycars.com/google/553557b5e988f01b66ea63a52c2a1041de0ddc7f9a2d0c1451c7287e2483a882.jpg",
    "url": "https://www.google.com/maps/search/?api=1&query=Carstar&query_place_id=ChIJ5R1PY2nj9TkR-Um8I7_4WK0"
  },
  {
    "title": "Carwale abSure Talbros Motors Used Car Dealer Jamshedpur",
    "subTitle": "करवाले एब्सर टालब्रोस मोटर्स यूज्ड कार डीलर जमशेदपुर",
    "categoryName": "Used car dealer",
    "address": "Golmuri Road Near bhart petrol station howrah, bridge, Sakchi, Jamshedpur, Jharkhand 831003, India",
    "neighborhood": "Cable Town, Sakchi",
    "street": "Golmuri Road Near bhart petrol station howrah, bridge",
    "city": "Jamshedpur",
    "postalCode": "831003",
    "state": "Jharkhand",
    "countryCode": "IN",
    "website": "https://www.carwale.com/hi/used/dealer-showrooms-in-jamshedpur/talbrosmotors/?dealerId=54087",
    "phone": "+918929114827",
    "phoneUnformatted": "+918929114827",
    "location": {
      "lat": 22.7898494,
      "lng": 86.2253236
    },
    "totalScore": 2.5,
    "permanentlyClosed": false,
    "temporarilyClosed": false,
    "placeId": "ChIJCRmIkD3j9TkRRMOeAh9JcNQ",
    "categories": [
      "Used car dealer",
      "Auto broker",
      "Honda dealer",
      "Hyundai dealer",
      "Skoda dealer",
      "Volkswagen dealer"
    ],
    "reviewsCount": 2,
    "imagesCount": 14,
    "openingHours": [
      {
        "day": "Monday",
        "hours": "9 AM to 8 PM"
      },
      {
        "day": "Tuesday",
        "hours": "9 AM to 8 PM"
      },
      {
        "day": "Wednesday",
        "hours": "9 AM to 8 PM"
      },
      {
        "day": "Thursday",
        "hours": "9 AM to 8 PM"
      },
      {
        "day": "Friday",
        "hours": "9 AM to 8 PM"
      },
      {
        "day": "Saturday",
        "hours": "9 AM to 8 PM"
      },
      {
        "day": "Sunday",
        "hours": "9 AM to 8 PM"
      }
    ],
    "imageUrl": "https://media.indianluxurycars.com/google/f63118777aba5dc6204582543cd92542e7aab927a0b27c7750b73f64f7096b7d.jpg",
    "url": "https://www.google.com/maps/search/?api=1&query=Carwale%20abSure%20Talbros%20Motors%20Used%20Car%20Dealer%20Jamshedpur&query_place_id=ChIJCRmIkD3j9TkRRMOeAh9JcNQ"
  },
  {
    "title": "CARZ MALL",
    "subTitle": "कार्ज़ मॉल",
    "categoryName": "Used car dealer",
    "address": "R676+63C, Gandhi Ghat, Jamshedpur, Jharkhand 831001, India",
    "neighborhood": "Gandhi Ghat",
    "street": "R676+63C",
    "city": "Jamshedpur",
    "postalCode": "831001",
    "state": "Jharkhand",
    "countryCode": "IN",
    "phone": "+919801010311",
    "phoneUnformatted": "+919801010311",
    "location": {
      "lat": 22.8131004,
      "lng": 86.210135
    },
    "totalScore": 4.9,
    "permanentlyClosed": false,
    "temporarilyClosed": false,
    "placeId": "ChIJA8zmYwDj9TkRhcm61Uuh-5k",
    "categories": [
      "Used car dealer"
    ],
    "reviewsCount": 63,
    "imagesCount": 44,
    "openingHours": [
      {
        "day": "Monday",
        "hours": "9:30 AM to 6 PM"
      },
      {
        "day": "Tuesday",
        "hours": "Closed"
      },
      {
        "day": "Wednesday",
        "hours": "9:30 AM to 6 PM"
      },
      {
        "day": "Thursday",
        "hours": "9:30 AM to 6 PM"
      },
      {
        "day": "Friday",
        "hours": "9:30 AM to 6 PM"
      },
      {
        "day": "Saturday",
        "hours": "9:30 AM to 6 PM"
      },
      {
        "day": "Sunday",
        "hours": "9:30 AM to 6 PM"
      }
    ],
    "imageUrl": "https://media.indianluxurycars.com/google/08e6dc045550c1885a236d8bc61116165e02170bd9cc87c2ca2b7879941a2b7d.jpg",
    "url": "https://www.google.com/maps/search/?api=1&query=CARZ%20MALL&query_place_id=ChIJA8zmYwDj9TkRhcm61Uuh-5k"
  },
  {
    "title": "CarzSpa - Car Detailing, PPF and Ceramic Coating Studio, Jamshedpur",
    "subTitle": "कार्ज स्पा जमशेदपुर",
    "categoryName": "Car detailing service",
    "address": "Shop No 1-3, Ground Floor, Bumbra Enclaves, Diagonal Rd, opposite Dainik Bhaskar Office, South Park, Bistupur, Jamshedpur, Jharkhand 831001, India",
    "neighborhood": "South Park, Bistupur",
    "street": "Shop No 1-3, Ground Floor, Bumbra Enclaves, Diagonal Rd, opposite Dainik Bhaskar Office",
    "city": "Jamshedpur",
    "postalCode": "831001",
    "state": "Jharkhand",
    "countryCode": "IN",
    "website": "https://studios.carzspa.com/carzspa/jamshedpur/bistupur/carzspa-in-bistupur-jamshedpur--6a6d9087-68a9-446a-accb-74fc4c8ea2ca/home",
    "phone": "+918037759632",
    "phoneUnformatted": "+918037759632",
    "location": {
      "lat": 22.7892044,
      "lng": 86.1826347
    },
    "totalScore": 4.9,
    "permanentlyClosed": false,
    "temporarilyClosed": false,
    "placeId": "ChIJaV4jf2fj9TkRXZ5EN-VQtRc",
    "categories": [
      "Car detailing service",
      "Auto restoration service",
      "Auto window tinting service",
      "Bike wash",
      "Car wash",
      "Vehicle wrapping service"
    ],
    "reviewsCount": 655,
    "imagesCount": 693,
    "openingHours": [
      {
        "day": "Monday",
        "hours": "9:30 AM to 7 PM"
      },
      {
        "day": "Tuesday",
        "hours": "Closed"
      },
      {
        "day": "Wednesday",
        "hours": "9:30 AM to 7 PM"
      },
      {
        "day": "Thursday",
        "hours": "9:30 AM to 7 PM"
      },
      {
        "day": "Friday",
        "hours": "9:30 AM to 7 PM"
      },
      {
        "day": "Saturday",
        "hours": "9:30 AM to 7 PM"
      },
      {
        "day": "Sunday",
        "hours": "9:30 AM to 7 PM"
      }
    ],
    "imageUrl": "https://media.indianluxurycars.com/google/10b7330acf7e0a1f44f6ac977230f7c8f436265ab3467e73490fa62726adb68b.jpg",
    "url": "https://www.google.com/maps/search/?api=1&query=CarzSpa%20-%20Car%20Detailing%2C%20PPF%20and%20Ceramic%20Coating%20Studio%2C%20Jamshedpur&query_place_id=ChIJaV4jf2fj9TkRXZ5EN-VQtRc"
  },
  {
    "title": "CYORIDES:Self drive car in Jamshedpur",
    "subTitle": "सिोराइड्स:सेल्फ ड्राइव कार इन जमशेदपुर",
    "categoryName": "Car rental agency",
    "address": "H/No 91, Q5P8+5XR, 2/2, Road No7, Aditypur 1, Adityapur, Jamshedpur, Jharkhand 831013, India",
    "neighborhood": "Aditypur 1, Adityapur",
    "street": "H/No 91, Q5P8+5XR, 2/2, Road No7",
    "city": "Jamshedpur",
    "postalCode": "831013",
    "state": "Jharkhand",
    "countryCode": "IN",
    "website": "https://cyoride.com/",
    "phone": "+917903128788",
    "phoneUnformatted": "+917903128788",
    "location": {
      "lat": 22.7853587,
      "lng": 86.1673957
    },
    "totalScore": 4.2,
    "permanentlyClosed": false,
    "temporarilyClosed": false,
    "placeId": "ChIJf6LO-pXl9TkRpzH6hCtT9Kw",
    "categories": [
      "Car rental agency"
    ],
    "reviewsCount": 5,
    "imagesCount": 4,
    "openingHours": [
      {
        "day": "Monday",
        "hours": "Open 24 hours"
      },
      {
        "day": "Tuesday",
        "hours": "Open 24 hours"
      },
      {
        "day": "Wednesday",
        "hours": "Open 24 hours"
      },
      {
        "day": "Thursday",
        "hours": "Open 24 hours"
      },
      {
        "day": "Friday",
        "hours": "Open 24 hours"
      },
      {
        "day": "Saturday",
        "hours": "Open 24 hours"
      },
      {
        "day": "Sunday",
        "hours": "Open 24 hours"
      }
    ],
    "imageUrl": "https://media.indianluxurycars.com/google/ea2689ce95fbf2d75ee12433e1374879940b71c31db6a1f5f40d1e65d754320e.jpg",
    "url": "https://www.google.com/maps/search/?api=1&query=CYORIDES%3ASelf%20drive%20car%20in%20Jamshedpur&query_place_id=ChIJf6LO-pXl9TkRpzH6hCtT9Kw"
  },
  {
    "title": "Dreamz Cars",
    "subTitle": "ड्रीम्ज़ कार्स",
    "categoryName": "Used car dealer",
    "address": "Mango, Jamshedpur, Jharkhand 831012, India",
    "neighborhood": "Mango",
    "city": "Jamshedpur",
    "postalCode": "831012",
    "state": "Jharkhand",
    "countryCode": "IN",
    "location": {
      "lat": 22.8384433,
      "lng": 86.2293535
    },
    "totalScore": 5,
    "permanentlyClosed": false,
    "temporarilyClosed": false,
    "placeId": "ChIJEfyvSlPj9TkRLk36Hqg0BPQ",
    "categories": [
      "Used car dealer"
    ],
    "reviewsCount": 1,
    "imagesCount": 4,
    "openingHours": [
      {
        "day": "Monday",
        "hours": "12 to 8 AM, 9 AM to 8 PM"
      },
      {
        "day": "Tuesday",
        "hours": "9 AM to 8 PM"
      },
      {
        "day": "Wednesday",
        "hours": "9 AM to 8 PM"
      },
      {
        "day": "Thursday",
        "hours": "9 AM to 8 PM"
      },
      {
        "day": "Friday",
        "hours": "9 AM to 8 PM"
      },
      {
        "day": "Saturday",
        "hours": "9 AM to 8 PM"
      },
      {
        "day": "Sunday",
        "hours": "9 AM to 12 AM"
      }
    ],
    "imageUrl": "https://media.indianluxurycars.com/google/6b5da0191d7d1ad419dc111a32be257cb94cf78295771dd2de54da53a47b66b8.jpg",
    "url": "https://www.google.com/maps/search/?api=1&query=Dreamz%20Cars&query_place_id=ChIJEfyvSlPj9TkRLk36Hqg0BPQ"
  },
  {
    "title": "DriveOn",
    "subTitle": "ड्राइवों",
    "categoryName": "Car rental agency",
    "address": "Rd, Old Purulia Rd, near M.O Academy, Zakir Nagar, Mango, Jamshedpur, Jharkhand 831020, India",
    "neighborhood": "Zakir Nagar, Mango",
    "street": "Rd, Old Purulia Rd, near M.O Academy",
    "city": "Jamshedpur",
    "postalCode": "831020",
    "state": "Jharkhand",
    "countryCode": "IN",
    "website": "http://www.driveon.co.in/",
    "location": {
      "lat": 22.8351552,
      "lng": 86.2015342
    },
    "totalScore": 4.7,
    "permanentlyClosed": false,
    "temporarilyClosed": false,
    "placeId": "ChIJp4OQClXj9TkRzY1WYkD1pmQ",
    "categories": [
      "Car rental agency"
    ],
    "reviewsCount": 7,
    "imagesCount": 22,
    "openingHours": [
      {
        "day": "Monday",
        "hours": "8 AM to 8 PM"
      },
      {
        "day": "Tuesday",
        "hours": "8 AM to 8 PM"
      },
      {
        "day": "Wednesday",
        "hours": "8 AM to 8 PM"
      },
      {
        "day": "Thursday",
        "hours": "8 AM to 8 PM"
      },
      {
        "day": "Friday",
        "hours": "8 AM to 8 PM"
      },
      {
        "day": "Saturday",
        "hours": "8 AM to 8 PM"
      },
      {
        "day": "Sunday",
        "hours": "8 AM to 8 PM"
      }
    ],
    "imageUrl": "https://media.indianluxurycars.com/google/889552bb8d031f0d5adecf94387ef58f88b9fbe276bffd898b9db3924d629dc8.jpg",
    "url": "https://www.google.com/maps/search/?api=1&query=DriveOn&query_place_id=ChIJp4OQClXj9TkRzY1WYkD1pmQ"
  },
  {
    "title": "GaddiWala Car Rental Service",
    "subTitle": "गाड़ीवाले कार रेंटल सर्विस",
    "categoryName": "Car rental agency",
    "address": "No:- 5, Road, Hari Om Nagar, Dindli Basti, Adityapur, Jamshedpur, Jharkhand 831013, India",
    "neighborhood": "Hari Om Nagar, Dindli Basti, Adityapur",
    "street": "No:- 5, Road",
    "city": "Jamshedpur",
    "postalCode": "831013",
    "state": "Jharkhand",
    "countryCode": "IN",
    "phone": "+919681111072",
    "phoneUnformatted": "+919681111072",
    "location": {
      "lat": 22.7957651,
      "lng": 86.1612028
    },
    "totalScore": 4.3,
    "permanentlyClosed": false,
    "temporarilyClosed": false,
    "placeId": "ChIJR91HDiLl9TkRBmdzh0AXQWo",
    "categories": [
      "Car rental agency"
    ],
    "reviewsCount": 9,
    "imagesCount": 23,
    "openingHours": [
      {
        "day": "Monday",
        "hours": "Open 24 hours"
      },
      {
        "day": "Tuesday",
        "hours": "Open 24 hours"
      },
      {
        "day": "Wednesday",
        "hours": "Open 24 hours"
      },
      {
        "day": "Thursday",
        "hours": "Open 24 hours"
      },
      {
        "day": "Friday",
        "hours": "Open 24 hours"
      },
      {
        "day": "Saturday",
        "hours": "Open 24 hours"
      },
      {
        "day": "Sunday",
        "hours": "Open 24 hours"
      }
    ],
    "imageUrl": "https://media.indianluxurycars.com/google/a17e292fe4bbb67c4eea3aac622e91ae3aa2c6f9ae4a3e55a396b368ce8c2099.jpg",
    "url": "https://www.google.com/maps/search/?api=1&query=GaddiWala%20Car%20Rental%20Service&query_place_id=ChIJR91HDiLl9TkRBmdzh0AXQWo"
  },
  {
    "title": "GURSHA TOUR",
    "subTitle": "गुर्शा टूर",
    "categoryName": "Car rental agency",
    "address": "BLOCK ZONE NO: 3, 18/A - A, TRF Colony, Birsanagar, Jamshedpur, Jharkhand 831019, India",
    "neighborhood": "TRF Colony, Birsanagar",
    "street": "BLOCK ZONE NO: 3, 18/A - A",
    "city": "Jamshedpur",
    "postalCode": "831019",
    "state": "Jharkhand",
    "countryCode": "IN",
    "website": "https://www.gurshatour.com/",
    "location": {
      "lat": 22.7920403,
      "lng": 86.2477786
    },
    "totalScore": 4.8,
    "permanentlyClosed": false,
    "temporarilyClosed": false,
    "placeId": "ChIJnSPav_cI-WER8srNBJQckog",
    "categories": [
      "Car rental agency",
      "Car leasing service",
      "Chauffeur service",
      "Taxi service"
    ],
    "reviewsCount": 50,
    "imagesCount": 1,
    "openingHours": [
      {
        "day": "Monday",
        "hours": "Open 24 hours"
      },
      {
        "day": "Tuesday",
        "hours": "Open 24 hours"
      },
      {
        "day": "Wednesday",
        "hours": "Open 24 hours"
      },
      {
        "day": "Thursday",
        "hours": "Open 24 hours"
      },
      {
        "day": "Friday",
        "hours": "Open 24 hours"
      },
      {
        "day": "Saturday",
        "hours": "Open 24 hours"
      },
      {
        "day": "Sunday",
        "hours": "Open 24 hours"
      }
    ],
    "imageUrl": "https://media.indianluxurycars.com/google/5401196abcdf499681855b43d9c1339d4af4e4a7e3c893af3e754952aa7fd73b.jpg",
    "url": "https://www.google.com/maps/search/?api=1&query=GURSHA%20TOUR&query_place_id=ChIJnSPav_cI-WER8srNBJQckog"
  },
  {
    "title": "Happy Travels",
    "subTitle": "हैप्पी ट्रेवल्स",
    "categoryName": "Car leasing service",
    "address": "Office H.No.-27, Rd 2, Old Purulia Rd, Zakir Nagar, Mango, Jamshedpur, Jharkhand 831012, India",
    "neighborhood": "Zakir Nagar, Mango",
    "street": "Office H.No.-27, Rd 2, Old Purulia Rd",
    "city": "Jamshedpur",
    "postalCode": "831012",
    "state": "Jharkhand",
    "countryCode": "IN",
    "website": "http://taxibookings.in/",
    "phone": "+917488062562",
    "phoneUnformatted": "+917488062562",
    "location": {
      "lat": 22.8260891,
      "lng": 86.1979753
    },
    "totalScore": 4.9,
    "permanentlyClosed": false,
    "temporarilyClosed": false,
    "placeId": "ChIJDYviXNjj9TkRsZQUAriH6go",
    "categories": [
      "Car leasing service",
      "Taxi service",
      "Travel agency"
    ],
    "reviewsCount": 770,
    "imagesCount": 238,
    "openingHours": [],
    "imageUrl": "https://media.indianluxurycars.com/google/5016bf5feafab92a7d6de67c462e79b30a2c177a43739c581fdc22b4b02cb1ea.png",
    "url": "https://www.google.com/maps/search/?api=1&query=Happy%20Travels&query_place_id=ChIJDYviXNjj9TkRsZQUAriH6go"
  },
  {
    "title": "Himanshu Travel's",
    "subTitle": "हिमांशु ट्रैवल'स",
    "categoryName": "Car rental agency",
    "address": "Goushala Nala Rd, Kumar Chowk, Jugsalai, Jamshedpur, Jharkhand 831006, India",
    "neighborhood": "Kumar Chowk, Jugsalai",
    "street": "Goushala Nala Rd",
    "city": "Jamshedpur",
    "postalCode": "831006",
    "state": "Jharkhand",
    "countryCode": "IN",
    "website": "https://www.facebook.com/Himanshu-travels-101081038402273/",
    "phone": "+916201106844",
    "phoneUnformatted": "+916201106844",
    "location": {
      "lat": 22.771998,
      "lng": 86.1901806
    },
    "totalScore": 5,
    "permanentlyClosed": false,
    "temporarilyClosed": false,
    "placeId": "ChIJq_y73YHj9TkRNMnKBbcWWK0",
    "categories": [
      "Car rental agency"
    ],
    "reviewsCount": 1,
    "imagesCount": 4,
    "openingHours": [
      {
        "day": "Monday",
        "hours": "Open 24 hours"
      },
      {
        "day": "Tuesday",
        "hours": "Open 24 hours"
      },
      {
        "day": "Wednesday",
        "hours": "Open 24 hours"
      },
      {
        "day": "Thursday",
        "hours": "Open 24 hours"
      },
      {
        "day": "Friday",
        "hours": "Open 24 hours"
      },
      {
        "day": "Saturday",
        "hours": "Open 24 hours"
      },
      {
        "day": "Sunday",
        "hours": "Open 24 hours"
      }
    ],
    "imageUrl": "https://media.indianluxurycars.com/google/e21b4b945d12c414f4a1d4e6cbe021b427f4dae429cf328d21d4fdab970c2171.jpg",
    "url": "https://www.google.com/maps/search/?api=1&query=Himanshu%20Travel's&query_place_id=ChIJq_y73YHj9TkRNMnKBbcWWK0"
  },
  {
    "title": "Isha Motors",
    "subTitle": "ईशा मोटर्स",
    "categoryName": "Car dealer",
    "address": "Q5QM+RGV, Aashtha Trade Centre, Q. Road, Jamshedpur, Q Rd, near Reliance fresh signature, South Park, Bistupur, Jamshedpur, Jharkhand 831001, India",
    "neighborhood": "South Park, Bistupur",
    "street": "Q5QM+RGV, Aashtha Trade Centre, Q. Road, Jamshedpur, Q Rd, near Reliance fresh signature",
    "city": "Jamshedpur",
    "postalCode": "831001",
    "state": "Jharkhand",
    "countryCode": "IN",
    "phone": "+919334612529",
    "phoneUnformatted": "+919334612529",
    "location": {
      "lat": 22.7896033,
      "lng": 86.183798
    },
    "totalScore": 5,
    "permanentlyClosed": false,
    "temporarilyClosed": false,
    "placeId": "ChIJ8yAuj2fj9TkRf5d-8b6ePqA",
    "categories": [
      "Car dealer"
    ],
    "reviewsCount": 4,
    "imagesCount": 1,
    "openingHours": [
      {
        "day": "Monday",
        "hours": "10 AM to 7:30 PM"
      },
      {
        "day": "Tuesday",
        "hours": "10 AM to 7:30 PM"
      },
      {
        "day": "Wednesday",
        "hours": "10 AM to 7:30 PM"
      },
      {
        "day": "Thursday",
        "hours": "10 AM to 7:30 PM"
      },
      {
        "day": "Friday",
        "hours": "10 AM to 7:30 PM"
      },
      {
        "day": "Saturday",
        "hours": "10 AM to 7:30 PM"
      },
      {
        "day": "Sunday",
        "hours": "10 AM to 7:30 PM"
      }
    ],
    "imageUrl": "https://media.indianluxurycars.com/google/2b863b937613c0cc19f7648fa8ed038f1caed8884b98534aee0eac5f1b68ddd7.jpg",
    "url": "https://www.google.com/maps/search/?api=1&query=Isha%20Motors&query_place_id=ChIJ8yAuj2fj9TkRf5d-8b6ePqA"
  },
  {
    "title": "Jamshedpur Car Bazaar",
    "subTitle": "जमशेदपुर कार बाजार",
    "categoryName": "Car dealer",
    "address": "6 New Planning, Shop Area, New, Kashidih Rd, Sakchi, Jamshedpur, Jharkhand 831001, India",
    "neighborhood": "Sakchi",
    "street": "6 New Planning, Shop Area, New, Kashidih Rd",
    "city": "Jamshedpur",
    "postalCode": "831001",
    "state": "Jharkhand",
    "countryCode": "IN",
    "phone": "+918709843961",
    "phoneUnformatted": "+918709843961",
    "location": {
      "lat": 22.8045519,
      "lng": 86.2129839
    },
    "totalScore": 3.3,
    "permanentlyClosed": false,
    "temporarilyClosed": true,
    "placeId": "ChIJhbr3qQPj9TkR34AufJ-r2h4",
    "categories": [
      "Car dealer",
      "Used car dealer"
    ],
    "reviewsCount": 7,
    "imagesCount": 3,
    "openingHours": [],
    "imageUrl": "https://media.indianluxurycars.com/google/04f9a4b69d9b8f6f4f2d8219ec91da39c29800f22683b4d058c2add9448b32c8.jpg",
    "url": "https://www.google.com/maps/search/?api=1&query=Jamshedpur%20Car%20Bazaar&query_place_id=ChIJhbr3qQPj9TkR34AufJ-r2h4"
  },
  {
    "title": "JSR TAXI",
    "subTitle": "जेएसआर टैक्सी",
    "categoryName": "Car rental agency",
    "address": "Golpahari Main Rd, near Kali Mandir, Golpahari, Parsudih, Jamshedpur, Jharkhand 831002, India",
    "neighborhood": "Golpahari, Parsudih",
    "street": "Golpahari Main Rd, near Kali Mandir",
    "city": "Jamshedpur",
    "postalCode": "831002",
    "state": "Jharkhand",
    "countryCode": "IN",
    "phone": "+916203187507",
    "phoneUnformatted": "+916203187507",
    "location": {
      "lat": 22.7599803,
      "lng": 86.2070463
    },
    "totalScore": 4.9,
    "permanentlyClosed": false,
    "temporarilyClosed": false,
    "placeId": "ChIJsVf5sub99TkRsF46fXHQ4r4",
    "categories": [
      "Car rental agency",
      "Car leasing service",
      "Chauffeur service",
      "Taxi service",
      "Tour operator",
      "Travel agency"
    ],
    "reviewsCount": 72,
    "imagesCount": 40,
    "openingHours": [
      {
        "day": "Monday",
        "hours": "Open 24 hours"
      },
      {
        "day": "Tuesday",
        "hours": "Open 24 hours"
      },
      {
        "day": "Wednesday",
        "hours": "Open 24 hours"
      },
      {
        "day": "Thursday",
        "hours": "Open 24 hours"
      },
      {
        "day": "Friday",
        "hours": "Open 24 hours"
      },
      {
        "day": "Saturday",
        "hours": "Open 24 hours"
      },
      {
        "day": "Sunday",
        "hours": "Open 24 hours"
      }
    ],
    "imageUrl": "https://media.indianluxurycars.com/google/9ec9c3febdc40d4774f012548558a89fc2e5335f4e8ca608f93a1aff4023863f.jpg",
    "url": "https://www.google.com/maps/search/?api=1&query=JSR%20TAXI&query_place_id=ChIJsVf5sub99TkRsF46fXHQ4r4"
  },
  {
    "title": "Kalika Enterprises",
    "subTitle": "कलिका एंटरप्राइजेस",
    "categoryName": "Car rental agency",
    "address": "No.06, No. 31/1/2, kalika Enterprises,Q, Main Rd, Bagbera Colony, Jamshedpur, Jharkhand 831002, India",
    "neighborhood": "Bagbera Colony, Jugsalai",
    "street": "No.06, No. 31/1/2, kalika Enterprises,Q, Main Rd",
    "city": "Jamshedpur",
    "postalCode": "831002",
    "state": "Jharkhand",
    "countryCode": "IN",
    "phone": "+917209690836",
    "phoneUnformatted": "+917209690836",
    "location": {
      "lat": 22.7625231,
      "lng": 86.1877279
    },
    "totalScore": 4.6,
    "permanentlyClosed": false,
    "temporarilyClosed": false,
    "placeId": "ChIJrYZF4HP99TkR_svpbkmwwS8",
    "categories": [
      "Car rental agency",
      "Car leasing service"
    ],
    "reviewsCount": 12,
    "imagesCount": 11,
    "openingHours": [
      {
        "day": "Monday",
        "hours": "Open 24 hours"
      },
      {
        "day": "Tuesday",
        "hours": "Open 24 hours"
      },
      {
        "day": "Wednesday",
        "hours": "Open 24 hours"
      },
      {
        "day": "Thursday",
        "hours": "Open 24 hours"
      },
      {
        "day": "Friday",
        "hours": "Open 24 hours"
      },
      {
        "day": "Saturday",
        "hours": "Open 24 hours"
      },
      {
        "day": "Sunday",
        "hours": "Open 24 hours"
      }
    ],
    "imageUrl": "https://media.indianluxurycars.com/google/b73550a5870ee4575139677c06ac92f67cc4bb2681a155479d1f63c3a8fb1703.jpg",
    "url": "https://www.google.com/maps/search/?api=1&query=Kalika%20Enterprises&query_place_id=ChIJrYZF4HP99TkR_svpbkmwwS8"
  },
  {
    "title": "Maira Travels - Rental Car Services | Local / Outstation / Airport / Car hire for Wedding | Special for Barat Booking.",
    "subTitle": "मायरा ट्रैवल्स - रेंटल कार सर्विसेस | लोकल / आउटस्टेशन / एयरपोर्ट / कार हीरे फॉर वेडिंग | स्पेशल फॉर बारात बुकिंग.",
    "categoryName": "Car rental agency",
    "address": "Road No-9 (w, Old Purulia Rd, Zakir Nagar, Mango, Jamshedpur, Jharkhand 831020, India",
    "neighborhood": "Zakir Nagar, Mango",
    "street": "Road No-9 (w, Old Purulia Rd",
    "city": "Jamshedpur",
    "postalCode": "831020",
    "state": "Jharkhand",
    "countryCode": "IN",
    "website": "http://67f339623a3c1.site123.me/",
    "phone": "+919504720049",
    "phoneUnformatted": "+919504720049",
    "location": {
      "lat": 22.8296933,
      "lng": 86.201348
    },
    "totalScore": 5,
    "permanentlyClosed": false,
    "temporarilyClosed": false,
    "placeId": "ChIJIRNlswHj9TkRDzrrwuNPjfk",
    "categories": [
      "Car rental agency",
      "Car leasing service",
      "Car sharing location",
      "Laundry service",
      "Rental car return location",
      "Taxi service",
      "Travel agency"
    ],
    "reviewsCount": 13,
    "imagesCount": 38,
    "openingHours": [
      {
        "day": "Monday",
        "hours": "Open 24 hours"
      },
      {
        "day": "Tuesday",
        "hours": "Open 24 hours"
      },
      {
        "day": "Wednesday",
        "hours": "Open 24 hours"
      },
      {
        "day": "Thursday",
        "hours": "Open 24 hours"
      },
      {
        "day": "Friday",
        "hours": "Open 24 hours"
      },
      {
        "day": "Saturday",
        "hours": "Open 24 hours"
      },
      {
        "day": "Sunday",
        "hours": "Open 24 hours"
      }
    ],
    "imageUrl": "https://media.indianluxurycars.com/google/7da385e9c043aeb692d2bfa5f89dab9de1f79cfef455e25d17ed5502417801e0.jpg",
    "url": "https://www.google.com/maps/search/?api=1&query=Maira%20Travels%20-%20Rental%20Car%20Services%20%7C%20Local%20%2F%20Outstation%20%2F%20Airport%20%2F%20Car%20hire%20for%20Wedding%20%7C%20Special%20for%20Barat%20Booking.&query_place_id=ChIJIRNlswHj9TkRDzrrwuNPjfk"
  },
  {
    "title": "Maruti Suzuki True Value (Motor World, Jamshedpur, Bhuiyadih)",
    "subTitle": "मारुति सुजुकी ट्रू वैल्यू (मोटर वर्ल्ड, जमशेदपुर, भुईयाडीह)",
    "categoryName": "Used car dealer",
    "address": "Agrico Road, opp. NEW COURT, Bhuiyadih, Sidhgora, Jamshedpur, Jharkhand 831001, India",
    "neighborhood": "Bhuiyadih, Sidhgora",
    "street": "Agrico Road, opp. NEW COURT",
    "city": "Jamshedpur",
    "postalCode": "831001",
    "state": "Jharkhand",
    "countryCode": "IN",
    "website": "https://www.truevalueofbhuiyadih.com/?utm_source=gmb&utm_medium=google&utm_campaign=seo-local",
    "phone": "+918037580588",
    "phoneUnformatted": "+918037580588",
    "location": {
      "lat": 22.8133193,
      "lng": 86.2144846
    },
    "totalScore": 4.9,
    "permanentlyClosed": false,
    "temporarilyClosed": false,
    "placeId": "ChIJfa9AdQDj9TkRM08Uf9ejqkQ",
    "categories": [
      "Used car dealer"
    ],
    "reviewsCount": 419,
    "imagesCount": 40,
    "openingHours": [
      {
        "day": "Monday",
        "hours": "9:30 AM to 6 PM"
      },
      {
        "day": "Tuesday",
        "hours": "9:30 AM to 6 PM"
      },
      {
        "day": "Wednesday",
        "hours": "9:30 AM to 6 PM"
      },
      {
        "day": "Thursday",
        "hours": "9:30 AM to 6 PM"
      },
      {
        "day": "Friday",
        "hours": "9:30 AM to 6 PM"
      },
      {
        "day": "Saturday",
        "hours": "9:30 AM to 6 PM"
      },
      {
        "day": "Sunday",
        "hours": "Closed"
      }
    ],
    "imageUrl": "https://media.indianluxurycars.com/google/771564540d01de95777631730ada6df69519ce13daac7b18cee577863788eeed.jpg",
    "url": "https://www.google.com/maps/search/?api=1&query=Maruti%20Suzuki%20True%20Value%20(Motor%20World%2C%20Jamshedpur%2C%20Bhuiyadih)&query_place_id=ChIJfa9AdQDj9TkRM08Uf9ejqkQ"
  },
  {
    "title": "Mosafir tour and travels pvt LTD company",
    "subTitle": "मुसाफिर टूर एंड ट्रैवल्स पीवीटी एलटीडी कंपनी",
    "categoryName": "Car leasing service",
    "address": "Old Purulia Road, 15, West, Zakir Nagar, Mango, Jamshedpur, Jharkhand 831020, India",
    "neighborhood": "Zakir Nagar, Mango",
    "street": "Old Purulia Road, 15, West",
    "city": "Jamshedpur",
    "postalCode": "831020",
    "state": "Jharkhand",
    "countryCode": "IN",
    "website": "http://www.mosafir.in/",
    "location": {
      "lat": 22.833873,
      "lng": 86.2003824
    },
    "totalScore": 5,
    "permanentlyClosed": false,
    "temporarilyClosed": false,
    "placeId": "ChIJV2ZUjDPj9TkRXgi73Ia5sow",
    "categories": [
      "Car leasing service"
    ],
    "reviewsCount": 17,
    "imagesCount": 39,
    "openingHours": [
      {
        "day": "Monday",
        "hours": "Open 24 hours"
      },
      {
        "day": "Tuesday",
        "hours": "Open 24 hours"
      },
      {
        "day": "Wednesday",
        "hours": "Open 24 hours"
      },
      {
        "day": "Thursday",
        "hours": "Open 24 hours"
      },
      {
        "day": "Friday",
        "hours": "Open 24 hours"
      },
      {
        "day": "Saturday",
        "hours": "Open 24 hours"
      },
      {
        "day": "Sunday",
        "hours": "Open 24 hours"
      }
    ],
    "imageUrl": "https://media.indianluxurycars.com/google/e0582c7b5ed2bb7b886b269d9dd460962f4b166ef9cbbf236d073d253700302b.jpg",
    "url": "https://www.google.com/maps/search/?api=1&query=Mosafir%20tour%20and%20travels%20pvt%20LTD%20company&query_place_id=ChIJV2ZUjDPj9TkRXgi73Ia5sow"
  },
  {
    "title": "New sri sai motors",
    "subTitle": "न्यू श्री साई मोटर्स",
    "categoryName": "Car dealer",
    "address": "Q6W6+3VX, New Kalimati Rd, near Indian petrol pump, garabasa, Sakchi, Jamshedpur, Jharkhand 831003, India",
    "neighborhood": "garabasa, Sakchi",
    "street": "Q6W6+3VX, New Kalimati Rd, near Indian petrol pump",
    "city": "Jamshedpur",
    "postalCode": "831003",
    "state": "Jharkhand",
    "countryCode": "IN",
    "phone": "+918340788248",
    "phoneUnformatted": "+918340788248",
    "location": {
      "lat": 22.7952357,
      "lng": 86.2122431
    },
    "totalScore": 3.9,
    "permanentlyClosed": false,
    "temporarilyClosed": false,
    "placeId": "ChIJ31mJO-3j9TkRFYNUhOwBYRk",
    "categories": [
      "Car dealer"
    ],
    "reviewsCount": 53,
    "imagesCount": 113,
    "openingHours": [
      {
        "day": "Monday",
        "hours": "9 AM to 7 PM"
      },
      {
        "day": "Tuesday",
        "hours": "9 AM to 7 PM"
      },
      {
        "day": "Wednesday",
        "hours": "9 AM to 7 PM"
      },
      {
        "day": "Thursday",
        "hours": "9 AM to 7 PM"
      },
      {
        "day": "Friday",
        "hours": "9 AM to 7 PM"
      },
      {
        "day": "Saturday",
        "hours": "9 AM to 7 PM"
      },
      {
        "day": "Sunday",
        "hours": "9 AM to 7 PM"
      }
    ],
    "imageUrl": "https://media.indianluxurycars.com/google/007efdb4393d742db276d478ac81d42f795738cd17eb946778a3e6c68edcf2e4.jpg",
    "url": "https://www.google.com/maps/search/?api=1&query=New%20sri%20sai%20motors&query_place_id=ChIJ31mJO-3j9TkRFYNUhOwBYRk"
  },
  {
    "title": "Plaza Gents Salon & Luxury Car Rental Service",
    "subTitle": "प्लाजा मर्द सैलून",
    "categoryName": "Car leasing service",
    "address": "831001, Bistupur Market, South Park, Bistupur, Jamshedpur, Jharkhand 831001, India",
    "neighborhood": "Bistupur Market, South Park, Bistupur",
    "street": "831001",
    "city": "Jamshedpur",
    "postalCode": "831001",
    "state": "Jharkhand",
    "countryCode": "IN",
    "location": {
      "lat": 22.7944831,
      "lng": 86.1846068
    },
    "totalScore": 4.1,
    "permanentlyClosed": false,
    "temporarilyClosed": false,
    "placeId": "ChIJKyYsD2bj9TkR4DUskDRQxNY",
    "categories": [
      "Car leasing service",
      "Beauty salon"
    ],
    "reviewsCount": 113,
    "imagesCount": 35,
    "openingHours": [
      {
        "day": "Monday",
        "hours": "7 AM to 11 PM"
      },
      {
        "day": "Tuesday",
        "hours": "7 AM to 11 PM"
      },
      {
        "day": "Wednesday",
        "hours": "7 AM to 11 PM"
      },
      {
        "day": "Thursday",
        "hours": "7 AM to 3 PM"
      },
      {
        "day": "Friday",
        "hours": "7 AM to 11 PM"
      },
      {
        "day": "Saturday",
        "hours": "7 AM to 11 PM"
      },
      {
        "day": "Sunday",
        "hours": "7 AM to 11 PM"
      }
    ],
    "imageUrl": "https://media.indianluxurycars.com/google/fb25fe79dca6c8ad345fcc70fb5e5a3c42ae6706d04430619b0dfc950308a2bd.jpg",
    "url": "https://www.google.com/maps/search/?api=1&query=Plaza%20Gents%20Salon%20%26%20Luxury%20Car%20Rental%20Service&query_place_id=ChIJKyYsD2bj9TkR4DUskDRQxNY"
  },
  {
    "title": "QUICK CAB TRAVEL",
    "subTitle": "क्विक कैब ट्रैवल",
    "categoryName": "Car leasing service",
    "address": "no. 26, noor colony, road, Old Purulia Rd, Azad Nagar, Mango, Jamshedpur, Jharkhand 831020, India",
    "neighborhood": "Azad Nagar, Mango",
    "street": "no. 26, noor colony, road, Old Purulia Rd",
    "city": "Jamshedpur",
    "postalCode": "831020",
    "state": "Jharkhand",
    "countryCode": "IN",
    "website": "https://quickcabtravel.in/",
    "phone": "+917779919772",
    "phoneUnformatted": "+917779919772",
    "location": {
      "lat": 22.8379593,
      "lng": 86.2020473
    },
    "totalScore": 4.8,
    "permanentlyClosed": false,
    "temporarilyClosed": false,
    "placeId": "ChIJ_TaszC7j9TkRqatpZUedVOI",
    "categories": [
      "Car leasing service",
      "Taxi service"
    ],
    "reviewsCount": 24,
    "imagesCount": 14,
    "openingHours": [
      {
        "day": "Monday",
        "hours": "Open 24 hours"
      },
      {
        "day": "Tuesday",
        "hours": "Open 24 hours"
      },
      {
        "day": "Wednesday",
        "hours": "Open 24 hours"
      },
      {
        "day": "Thursday",
        "hours": "Open 24 hours"
      },
      {
        "day": "Friday",
        "hours": "Open 24 hours"
      },
      {
        "day": "Saturday",
        "hours": "Open 24 hours"
      },
      {
        "day": "Sunday",
        "hours": "Open 24 hours"
      }
    ],
    "imageUrl": "https://media.indianluxurycars.com/google/4e33f1efa9c250c40f93e31af8715e47a3fdf99a3f19da80b096f1b2e3b5bea1.jpg",
    "url": "https://www.google.com/maps/search/?api=1&query=QUICK%20CAB%20TRAVEL&query_place_id=ChIJ_TaszC7j9TkRqatpZUedVOI"
  },
  {
    "title": "ROYAL AUTO EXCHANGE",
    "subTitle": "रॉयल ऑटो एक्सचेंज",
    "categoryName": "Used car dealer",
    "address": "216, New Kalimati Rd, near howrah Bridge, Hirasingh Bagan, Sakchi, Jamshedpur, Jharkhand 831007, India",
    "neighborhood": "Hirasingh Bagan, Sakchi",
    "street": "216, New Kalimati Rd, near howrah Bridge",
    "city": "Jamshedpur",
    "postalCode": "831007",
    "state": "Jharkhand",
    "countryCode": "IN",
    "website": "https://m.youtube.com/channel/UCz_rmqOjch5scUSVGT0z1pw",
    "phone": "+919931176666",
    "phoneUnformatted": "+919931176666",
    "location": {
      "lat": 22.7984778,
      "lng": 86.2106603
    },
    "totalScore": 5,
    "permanentlyClosed": false,
    "temporarilyClosed": false,
    "placeId": "ChIJfySfi63j9TkRfPspanJjAag",
    "categories": [
      "Used car dealer",
      "Financial consultant",
      "Insurance agency"
    ],
    "reviewsCount": 5,
    "imagesCount": 193,
    "openingHours": [
      {
        "day": "Monday",
        "hours": "10 AM to 7 PM"
      },
      {
        "day": "Tuesday",
        "hours": "10 AM to 7 PM"
      },
      {
        "day": "Wednesday",
        "hours": "10 AM to 7 PM"
      },
      {
        "day": "Thursday",
        "hours": "10 AM to 7 PM"
      },
      {
        "day": "Friday",
        "hours": "10 AM to 7 PM"
      },
      {
        "day": "Saturday",
        "hours": "10 AM to 7 PM"
      },
      {
        "day": "Sunday",
        "hours": "10 AM to 7 PM"
      }
    ],
    "imageUrl": "https://media.indianluxurycars.com/google/b0a66facbf321437e258eafd6700474b8f57b42620e72ca94c18e48271c7535c.jpg",
    "url": "https://www.google.com/maps/search/?api=1&query=ROYAL%20AUTO%20EXCHANGE&query_place_id=ChIJfySfi63j9TkRfPspanJjAag"
  },
  {
    "title": "sanvariya Seth Self Drive Cars in Jamshedpur",
    "subTitle": "सांवरिया सेठ सेल्फ ड्राइव कार्स इन जमशेदपुर",
    "categoryName": "Car rental agency",
    "address": "House no - 32/2, Ground Floor, Vastu Vihar, Gaur Basti, Mango, Jamshedpur, Jharkhand 831012, India",
    "neighborhood": "Gaur Basti, Mango",
    "street": "House no - 32/2, Ground Floor, Vastu Vihar",
    "city": "Jamshedpur",
    "postalCode": "831012",
    "state": "Jharkhand",
    "countryCode": "IN",
    "phone": "+917759036359",
    "phoneUnformatted": "+917759036359",
    "location": {
      "lat": 22.8168057,
      "lng": 86.2183331
    },
    "totalScore": 4.7,
    "permanentlyClosed": false,
    "temporarilyClosed": false,
    "placeId": "ChIJn7agwnTj9TkR2mhCH7oFXBg",
    "categories": [
      "Car rental agency",
      "Car leasing service"
    ],
    "reviewsCount": 219,
    "imagesCount": 18,
    "openingHours": [
      {
        "day": "Monday",
        "hours": "Open 24 hours"
      },
      {
        "day": "Tuesday",
        "hours": "Open 24 hours"
      },
      {
        "day": "Wednesday",
        "hours": "Open 24 hours"
      },
      {
        "day": "Thursday",
        "hours": "Open 24 hours"
      },
      {
        "day": "Friday",
        "hours": "Open 24 hours"
      },
      {
        "day": "Saturday",
        "hours": "Open 24 hours"
      },
      {
        "day": "Sunday",
        "hours": "Open 24 hours"
      }
    ],
    "imageUrl": "https://media.indianluxurycars.com/google/b151a9e706f9ca705f31bfd95577163ff79ccf6293018868bcce57752c4d0bb3.jpg",
    "url": "https://www.google.com/maps/search/?api=1&query=sanvariya%20Seth%20Self%20Drive%20Cars%20in%20Jamshedpur&query_place_id=ChIJn7agwnTj9TkR2mhCH7oFXBg"
  },
  {
    "title": "Sardar ji Dhami Tour & Travels",
    "subTitle": "सरदार जी धामी टूर & ट्रैवल्स",
    "categoryName": "Car leasing service",
    "address": "Shop Number 15, Market Complex, Vaatika Green City, Mango, Jamshedpur, Jharkhand 831012, India",
    "neighborhood": "Vaatika Green City, Mango",
    "street": "Shop Number 15, Market Complex",
    "city": "Jamshedpur",
    "postalCode": "831012",
    "state": "Jharkhand",
    "countryCode": "IN",
    "phone": "+917320033092",
    "phoneUnformatted": "+917320033092",
    "location": {
      "lat": 22.8353679,
      "lng": 86.2279039
    },
    "totalScore": 4.6,
    "permanentlyClosed": false,
    "temporarilyClosed": false,
    "placeId": "ChIJEw9Ptrzj9TkRluTscmHf_V4",
    "categories": [
      "Car leasing service"
    ],
    "reviewsCount": 36,
    "imagesCount": 54,
    "openingHours": [
      {
        "day": "Monday",
        "hours": "Open 24 hours"
      },
      {
        "day": "Tuesday",
        "hours": "Open 24 hours"
      },
      {
        "day": "Wednesday",
        "hours": "Open 24 hours"
      },
      {
        "day": "Thursday",
        "hours": "Open 24 hours"
      },
      {
        "day": "Friday",
        "hours": "Open 24 hours"
      },
      {
        "day": "Saturday",
        "hours": "Open 24 hours"
      },
      {
        "day": "Sunday",
        "hours": "Open 24 hours"
      }
    ],
    "imageUrl": "https://media.indianluxurycars.com/google/578de2a6c985ad36534d98505b88fc623bba99d8a4041ef8ff3a722210ee374b.jpg",
    "url": "https://www.google.com/maps/search/?api=1&query=Sardar%20ji%20Dhami%20Tour%20%26%20Travels&query_place_id=ChIJEw9Ptrzj9TkRluTscmHf_V4"
  },
  {
    "title": "Shree Sai Motors",
    "subTitle": "श्री साई मोटर्स",
    "categoryName": "Used car dealer",
    "address": "CC-6, Awadh Tower Sighgora, Main Rd, beside Arogyan Hospital Post, Agrico, Jamshedpur, Jharkhand 831009, India",
    "neighborhood": "Agrico",
    "street": "CC-6, Awadh Tower Sighgora, Main Rd, beside Arogyan Hospital Post",
    "city": "Jamshedpur",
    "postalCode": "831009",
    "state": "Jharkhand",
    "countryCode": "IN",
    "phone": "+919709112233",
    "phoneUnformatted": "+919709112233",
    "location": {
      "lat": 22.800278,
      "lng": 86.2314859
    },
    "totalScore": 4,
    "permanentlyClosed": false,
    "temporarilyClosed": false,
    "placeId": "ChIJSxM13O3i9TkR6k6r2fdhIfk",
    "categories": [
      "Used car dealer"
    ],
    "reviewsCount": 74,
    "imagesCount": 16,
    "openingHours": [
      {
        "day": "Monday",
        "hours": "9 AM to 9 PM"
      },
      {
        "day": "Tuesday",
        "hours": "9 AM to 9 PM"
      },
      {
        "day": "Wednesday",
        "hours": "9 AM to 9 PM"
      },
      {
        "day": "Thursday",
        "hours": "9 AM to 9 PM"
      },
      {
        "day": "Friday",
        "hours": "9 AM to 9 PM"
      },
      {
        "day": "Saturday",
        "hours": "9 AM to 9 PM"
      },
      {
        "day": "Sunday",
        "hours": "9 AM to 9 PM"
      }
    ],
    "imageUrl": "https://media.indianluxurycars.com/google/268669231165ef272e59cbca68a5425eba633f9157c891e0d766234349e0e52c.jpg",
    "url": "https://www.google.com/maps/search/?api=1&query=Shree%20Sai%20Motors&query_place_id=ChIJSxM13O3i9TkR6k6r2fdhIfk"
  },
  {
    "title": "Tatanagar car rental",
    "subTitle": "टाटानगर कार रेंटल",
    "categoryName": "Car rental agency",
    "address": "railways, Station Rd, Khasmahal, chok, Jamshedpur, Jharkhand 831002, India",
    "neighborhood": "Khasmahal, chok",
    "street": "railways, Station Rd",
    "city": "Jamshedpur",
    "postalCode": "831002",
    "state": "Jharkhand",
    "countryCode": "IN",
    "website": "https://www.facebook.com/profile.php?id=100005839053914&mibextid=ZbWKwL",
    "phone": "+919525965013",
    "phoneUnformatted": "+919525965013",
    "location": {
      "lat": 22.7621972,
      "lng": 86.2037589
    },
    "totalScore": 5,
    "permanentlyClosed": false,
    "temporarilyClosed": false,
    "placeId": "ChIJ9RfaPQDj9TkRtNdk6uut9qk",
    "categories": [
      "Car rental agency",
      "Car leasing service"
    ],
    "reviewsCount": 15,
    "imagesCount": 18,
    "openingHours": [
      {
        "day": "Monday",
        "hours": "Open 24 hours"
      },
      {
        "day": "Tuesday",
        "hours": "Open 24 hours"
      },
      {
        "day": "Wednesday",
        "hours": "Open 24 hours"
      },
      {
        "day": "Thursday",
        "hours": "Open 24 hours"
      },
      {
        "day": "Friday",
        "hours": "Open 24 hours"
      },
      {
        "day": "Saturday",
        "hours": "Open 24 hours"
      },
      {
        "day": "Sunday",
        "hours": "Open 24 hours"
      }
    ],
    "imageUrl": "https://media.indianluxurycars.com/google/da8af5d1c5e04766d12aec5f98a90c574d1dc72668915a56e15cefcb084eb589.jpg",
    "url": "https://www.google.com/maps/search/?api=1&query=Tatanagar%20car%20rental&query_place_id=ChIJ9RfaPQDj9TkRtNdk6uut9qk"
  },
  {
    "title": "THAKURJI TRAVELS & CARRIER",
    "subTitle": "ठाकुरजी ट्रैवल्स & कैरियर",
    "categoryName": "Car rental agency",
    "address": "Charkhamba building, 24, above SBI ATM, Khasmahal, Jugsalai, Jamshedpur, Jharkhand 831002, India",
    "neighborhood": "Khasmahal, Jugsalai",
    "street": "Charkhamba building, 24, above SBI ATM",
    "city": "Jamshedpur",
    "postalCode": "831002",
    "state": "Jharkhand",
    "countryCode": "IN",
    "website": "http://www.thakurjitravels.com/",
    "phone": "+918278243651",
    "phoneUnformatted": "+918278243651",
    "location": {
      "lat": 22.7569965,
      "lng": 86.2027736
    },
    "totalScore": 4.7,
    "permanentlyClosed": false,
    "temporarilyClosed": false,
    "placeId": "ChIJl8gTA7T89TkR04LmG9SA5OU",
    "categories": [
      "Car rental agency",
      "Taxi service",
      "Travel agency"
    ],
    "reviewsCount": 219,
    "imagesCount": 36,
    "openingHours": [],
    "imageUrl": "https://media.indianluxurycars.com/google/af322dcc3a323a8fcc750a8bcd8dfebc2bc45b8c0b47ef3249d42997b6210312.jpg",
    "url": "https://www.google.com/maps/search/?api=1&query=THAKURJI%20TRAVELS%20%26%20CARRIER&query_place_id=ChIJl8gTA7T89TkR04LmG9SA5OU"
  },
  {
    "title": "Unique motors",
    "subTitle": "यूनिक मोटर्स",
    "categoryName": "Used car dealer",
    "address": "infront of campus adda, masjid road, SNP Area, Ambagan, Sakchi, Jamshedpur, Jharkhand 831001, India",
    "neighborhood": "SNP Area, Ambagan, Sakchi",
    "street": "infront of campus adda, masjid road",
    "city": "Jamshedpur",
    "postalCode": "831001",
    "state": "Jharkhand",
    "countryCode": "IN",
    "location": {
      "lat": 22.8066321,
      "lng": 86.2035774
    },
    "totalScore": 5,
    "permanentlyClosed": false,
    "temporarilyClosed": false,
    "placeId": "ChIJT5Ze4Y7j9TkRpfwcrCryh28",
    "categories": [
      "Used car dealer"
    ],
    "reviewsCount": 3,
    "imagesCount": 25,
    "openingHours": [
      {
        "day": "Monday",
        "hours": "10 AM to 8 PM"
      },
      {
        "day": "Tuesday",
        "hours": "Closed"
      },
      {
        "day": "Wednesday",
        "hours": "10 AM to 8 PM"
      },
      {
        "day": "Thursday",
        "hours": "10 AM to 8 PM"
      },
      {
        "day": "Friday",
        "hours": "10 AM to 8 PM"
      },
      {
        "day": "Saturday",
        "hours": "10 AM to 7 PM"
      },
      {
        "day": "Sunday",
        "hours": "Closed"
      }
    ],
    "imageUrl": "https://media.indianluxurycars.com/google/0187763db7bc746d81baa990009d2d40f882ed24b40b5d0348e6c13e617f3313.jpg",
    "url": "https://www.google.com/maps/search/?api=1&query=Unique%20motors&query_place_id=ChIJT5Ze4Y7j9TkRpfwcrCryh28"
  },
  {
    "title": "Varmine Cab Services",
    "subTitle": "वर्मिन कैब सर्विसेस",
    "categoryName": "Car rental agency",
    "address": "Bus Stand, Gandhi Ghat, Mango, Jamshedpur, Jharkhand 831001, India",
    "neighborhood": "Gandhi Ghat, Mango",
    "street": "Bus Stand",
    "city": "Jamshedpur",
    "postalCode": "831001",
    "state": "Jharkhand",
    "countryCode": "IN",
    "phone": "+918252890051",
    "phoneUnformatted": "+918252890051",
    "location": {
      "lat": 22.8155102,
      "lng": 86.2112668
    },
    "totalScore": 4.8,
    "permanentlyClosed": false,
    "temporarilyClosed": false,
    "placeId": "ChIJB3Vb_Yjj9TkRTBdNe8-3QlE",
    "categories": [
      "Car rental agency",
      "Car leasing service",
      "Chauffeur service",
      "Taxi service",
      "Van rental agency"
    ],
    "reviewsCount": 39,
    "imagesCount": 19,
    "openingHours": [
      {
        "day": "Monday",
        "hours": "Open 24 hours"
      },
      {
        "day": "Tuesday",
        "hours": "Open 24 hours"
      },
      {
        "day": "Wednesday",
        "hours": "Open 24 hours"
      },
      {
        "day": "Thursday",
        "hours": "Open 24 hours"
      },
      {
        "day": "Friday",
        "hours": "Open 24 hours"
      },
      {
        "day": "Saturday",
        "hours": "Open 24 hours"
      },
      {
        "day": "Sunday",
        "hours": "Open 24 hours"
      }
    ],
    "imageUrl": "https://media.indianluxurycars.com/google/56b6950a1c90f81b99c838d45118f6f0997ced72e3d7a3df41d0bd94c477e125.png",
    "url": "https://www.google.com/maps/search/?api=1&query=Varmine%20Cab%20Services&query_place_id=ChIJB3Vb_Yjj9TkRTBdNe8-3QlE"
  },
  {
    "title": "Vintage wedding car",
    "subTitle": "विंटेज वेडिंग कार",
    "categoryName": "Car leasing service",
    "address": "Line No. 1, Tuiladungri, Golmuri, Jamshedpur, Jharkhand 831003, India",
    "neighborhood": "Tuiladungri, Golmuri",
    "street": "Line No. 1",
    "city": "Jamshedpur",
    "postalCode": "831003",
    "state": "Jharkhand",
    "countryCode": "IN",
    "phone": "+919835325599",
    "phoneUnformatted": "+919835325599",
    "location": {
      "lat": 22.792312,
      "lng": 86.2200953
    },
    "totalScore": 4.9,
    "permanentlyClosed": false,
    "temporarilyClosed": false,
    "placeId": "ChIJNUI2WADj9TkRo2DlIL8JPWg",
    "categories": [
      "Car leasing service"
    ],
    "reviewsCount": 10,
    "imagesCount": 12,
    "openingHours": [
      {
        "day": "Monday",
        "hours": "9 AM to 5 PM"
      },
      {
        "day": "Tuesday",
        "hours": "9 AM to 5 PM"
      },
      {
        "day": "Wednesday",
        "hours": "9 AM to 5 PM"
      },
      {
        "day": "Thursday",
        "hours": "9 AM to 5 PM"
      },
      {
        "day": "Friday",
        "hours": "9 AM to 5 PM"
      },
      {
        "day": "Saturday",
        "hours": "9 AM to 5 PM"
      },
      {
        "day": "Sunday",
        "hours": "9 AM to 5 PM"
      }
    ],
    "imageUrl": "https://media.indianluxurycars.com/google/dbf68a012bb1900794a6a9ae39bcf6824591e1ab233a6ee7caee382791a2c8a3.jpg",
    "url": "https://www.google.com/maps/search/?api=1&query=Vintage%20wedding%20car&query_place_id=ChIJNUI2WADj9TkRo2DlIL8JPWg"
  },
  {
    "title": "VIP Travels - Bus Service in Jamshedpur, Car Rental and Best Travel Agency in Jamshedpur",
    "subTitle": "वीआईपी ट्रेवल्स",
    "categoryName": "Car rental agency",
    "address": "126, Sanjay Rd, SNP Area, Ambagan, Sakchi, Jamshedpur, Jharkhand 831001, India",
    "neighborhood": "SNP Area, Ambagan, Sakchi",
    "street": "126, Sanjay Rd",
    "city": "Jamshedpur",
    "postalCode": "831001",
    "state": "Jharkhand",
    "countryCode": "IN",
    "website": "https://viptravelsindia.com/",
    "phone": "+919334812901",
    "phoneUnformatted": "+919334812901",
    "location": {
      "lat": 22.8083166,
      "lng": 86.2027344
    },
    "totalScore": 4.5,
    "permanentlyClosed": false,
    "temporarilyClosed": false,
    "placeId": "ChIJb4QbEAnj9TkRtT4GAAJ5Kio",
    "categories": [
      "Car rental agency",
      "Car leasing service",
      "Travel agency"
    ],
    "reviewsCount": 37,
    "imagesCount": 53,
    "openingHours": [
      {
        "day": "Monday",
        "hours": "9 AM to 9 PM"
      },
      {
        "day": "Tuesday",
        "hours": "9 AM to 9 PM"
      },
      {
        "day": "Wednesday",
        "hours": "9 AM to 9 PM"
      },
      {
        "day": "Thursday",
        "hours": "9 AM to 9 PM"
      },
      {
        "day": "Friday",
        "hours": "9 AM to 9 PM"
      },
      {
        "day": "Saturday",
        "hours": "9 AM to 9 PM"
      },
      {
        "day": "Sunday",
        "hours": "9 AM to 9 PM"
      }
    ],
    "imageUrl": "https://media.indianluxurycars.com/google/6ceedc4c6aad0ee3c2f34e85ec052328dc5dbb5e15e52ded1c043d13b050f55e.png",
    "url": "https://www.google.com/maps/search/?api=1&query=VIP%20Travels%20-%20Bus%20Service%20in%20Jamshedpur%2C%20Car%20Rental%20and%20Best%20Travel%20Agency%20in%20Jamshedpur&query_place_id=ChIJb4QbEAnj9TkRtT4GAAJ5Kio"
  },
  {
    "title": "Yash Travels",
    "subTitle": "यश ट्रैवल्स",
    "categoryName": "Car rental agency",
    "address": "Vidyapati Nagar, Baridih, Jamshedpur, Jharkhand 831017, India",
    "neighborhood": "Vidyapati Nagar, Baridih",
    "city": "Jamshedpur",
    "postalCode": "831017",
    "state": "Jharkhand",
    "countryCode": "IN",
    "website": "https://yash-travels.grexa.site/",
    "phone": "+919304749724",
    "phoneUnformatted": "+919304749724",
    "location": {
      "lat": 22.7969877,
      "lng": 86.2393312
    },
    "totalScore": 5,
    "permanentlyClosed": false,
    "temporarilyClosed": false,
    "placeId": "ChIJc8P81rDj9TkROIW6MicZBH8",
    "categories": [
      "Car rental agency",
      "Car leasing service",
      "Travel agency",
      "Taxi service",
      "Tour agency"
    ],
    "reviewsCount": 67,
    "imagesCount": 20,
    "openingHours": [
      {
        "day": "Monday",
        "hours": "Open 24 hours"
      },
      {
        "day": "Tuesday",
        "hours": "Open 24 hours"
      },
      {
        "day": "Wednesday",
        "hours": "Open 24 hours"
      },
      {
        "day": "Thursday",
        "hours": "Open 24 hours"
      },
      {
        "day": "Friday",
        "hours": "Open 24 hours"
      },
      {
        "day": "Saturday",
        "hours": "Open 24 hours"
      },
      {
        "day": "Sunday",
        "hours": "Open 24 hours"
      }
    ],
    "imageUrl": "https://media.indianluxurycars.com/google/ca8fd9feffb5feb50b813e845fdcf245d79b81988e9380284e9fea8d6011c78b.jpg",
    "url": "https://www.google.com/maps/search/?api=1&query=Yash%20Travels&query_place_id=ChIJc8P81rDj9TkROIW6MicZBH8"
  }
]
