[
  {
    "title": "A.F cars",
    "subTitle": "ए.फ कार्स",
    "categoryName": "Car dealer",
    "address": "133/31, near Kanak marble, O Block, Kidwai Nagar, Kanpur, Uttar Pradesh 208023, India",
    "neighborhood": "O Block, Kidwai Nagar",
    "street": "133/31, near Kanak marble",
    "city": "Kanpur",
    "postalCode": "208023",
    "state": "Uttar Pradesh",
    "countryCode": "IN",
    "phone": "+917007595852",
    "phoneUnformatted": "+917007595852",
    "location": {
      "lat": 26.4377926,
      "lng": 80.3285553
    },
    "totalScore": 3.7,
    "permanentlyClosed": false,
    "temporarilyClosed": false,
    "placeId": "ChIJB9B8uihHnDkRxrM-0lDaQOg",
    "categories": [
      "Car dealer"
    ],
    "reviewsCount": 106,
    "imagesCount": 87,
    "openingHours": [
      {
        "day": "Monday",
        "hours": "10 AM to 7 PM"
      },
      {
        "day": "Tuesday",
        "hours": "10 AM to 7 PM"
      },
      {
        "day": "Wednesday",
        "hours": "10 AM to 7 PM"
      },
      {
        "day": "Thursday",
        "hours": "10 AM to 7 PM"
      },
      {
        "day": "Friday",
        "hours": "10 AM to 7 PM"
      },
      {
        "day": "Saturday",
        "hours": "10 AM to 7 PM"
      },
      {
        "day": "Sunday",
        "hours": "10 AM to 7 PM"
      }
    ],
    "imageUrl": "https://media.indianluxurycars.com/google/544fcd1e1fda020f6ec7a21a066ab3b91871c039e9d6e6554b806479046e442f.jpg",
    "url": "https://www.google.com/maps/search/?api=1&query=A.F%20cars&query_place_id=ChIJB9B8uihHnDkRxrM-0lDaQOg"
  },
  {
    "title": "ABR Taxi Service",
    "categoryName": "Car rental agency",
    "address": "Infront Of Manglam Garden, 476/1850, Arra Rd, KDA Colony, Bingawan, Kanpur, Uttar Pradesh 208021, India",
    "neighborhood": "KDA Colony, Bingawan",
    "street": "Infront Of Manglam Garden, 476/1850, Arra Rd",
    "city": "Kanpur",
    "postalCode": "208021",
    "state": "Uttar Pradesh",
    "countryCode": "IN",
    "website": "http://abrtaxiservice.com/",
    "phone": "+919305871773",
    "phoneUnformatted": "+919305871773",
    "location": {
      "lat": 26.398602,
      "lng": 80.3017605
    },
    "totalScore": 4.9,
    "permanentlyClosed": false,
    "temporarilyClosed": false,
    "placeId": "ChIJ5VzLrEFGnDkRXL_uASXnLL8",
    "categories": [
      "Car rental agency",
      "Car leasing service",
      "Taxi service",
      "Tour agency"
    ],
    "reviewsCount": 68,
    "imagesCount": 1,
    "openingHours": [],
    "imageUrl": "https://media.indianluxurycars.com/google/44c08b29c26f9deb732897f476c134a5fb3b39b032bf5904ac9e7b6ff7a6621e.jpg",
    "url": "https://www.google.com/maps/search/?api=1&query=ABR%20Taxi%20Service&query_place_id=ChIJ5VzLrEFGnDkRXL_uASXnLL8"
  },
  {
    "title": "Aman Travels and Car Rental Center",
    "subTitle": "अमन ट्रैवल्स एंड कार रेंटल सेंटर",
    "categoryName": "Car rental agency",
    "address": "Kali Mathiya, Shastri Nagar, Kanpur, Uttar Pradesh 208005, India",
    "neighborhood": "Kali Mathiya, Shastri Nagar",
    "city": "Kanpur",
    "postalCode": "208005",
    "state": "Uttar Pradesh",
    "countryCode": "IN",
    "location": {
      "lat": 26.466218,
      "lng": 80.3005903
    },
    "totalScore": 4.7,
    "permanentlyClosed": false,
    "temporarilyClosed": false,
    "placeId": "ChIJha7Un4pHnDkR3atN0QUg8Zg",
    "categories": [
      "Car rental agency",
      "Taxi service"
    ],
    "reviewsCount": 38,
    "imagesCount": 31,
    "openingHours": [
      {
        "day": "Monday",
        "hours": "10 AM to 7 PM"
      },
      {
        "day": "Tuesday",
        "hours": "10 AM to 7 PM"
      },
      {
        "day": "Wednesday",
        "hours": "10 AM to 7 PM"
      },
      {
        "day": "Thursday",
        "hours": "10 AM to 7 PM"
      },
      {
        "day": "Friday",
        "hours": "10 AM to 7 PM"
      },
      {
        "day": "Saturday",
        "hours": "10 AM to 7 PM"
      },
      {
        "day": "Sunday",
        "hours": "10 AM to 7 PM"
      }
    ],
    "imageUrl": "https://media.indianluxurycars.com/google/df9a2f1ba32457d9c9d256ecf724ee132d249fb901b476e76233aff00cc8586d.jpg",
    "url": "https://www.google.com/maps/search/?api=1&query=Aman%20Travels%20and%20Car%20Rental%20Center&query_place_id=ChIJha7Un4pHnDkR3atN0QUg8Zg"
  },
  {
    "title": "Amber Car,s",
    "subTitle": "अंबर कार,स",
    "categoryName": "Used car dealer",
    "address": "112 92, Benajhabar Rd, Motilal Swaroop Nagar, Khalasi Line, Swaroop Nagar, Kanpur, Uttar Pradesh 208002, India",
    "neighborhood": "Motilal Swaroop Nagar, Khalasi Line, Swaroop Nagar",
    "street": "112 92, Benajhabar Rd",
    "city": "Kanpur",
    "postalCode": "208002",
    "state": "Uttar Pradesh",
    "countryCode": "IN",
    "phone": "+919335991999",
    "phoneUnformatted": "+919335991999",
    "location": {
      "lat": 26.4791195,
      "lng": 80.3193056
    },
    "totalScore": 4,
    "permanentlyClosed": false,
    "temporarilyClosed": false,
    "placeId": "ChIJ4esYX_c5nDkRvfuk-OLLkPg",
    "categories": [
      "Used car dealer"
    ],
    "reviewsCount": 7,
    "imagesCount": 13,
    "openingHours": [
      {
        "day": "Monday",
        "hours": "12 to 5 AM, 10 AM to 12 AM"
      },
      {
        "day": "Tuesday",
        "hours": "12 to 8 AM, 10 AM to 12 AM"
      },
      {
        "day": "Wednesday",
        "hours": "12 to 8 AM, 10 AM to 12 AM"
      },
      {
        "day": "Thursday",
        "hours": "12 to 8 AM, 10 AM to 12 AM"
      },
      {
        "day": "Friday",
        "hours": "12 to 8 AM, 10 AM to 12 AM"
      },
      {
        "day": "Saturday",
        "hours": "12 to 8 AM, 10 AM to 12 AM"
      },
      {
        "day": "Sunday",
        "hours": "12 to 8 AM, 10 AM to 12 AM"
      }
    ],
    "imageUrl": "https://media.indianluxurycars.com/google/59369a6f690aa39ab536bfa1bece8f517ec32958a6179d986db53dda120db993.jpg",
    "url": "https://www.google.com/maps/search/?api=1&query=Amber%20Car%2Cs&query_place_id=ChIJ4esYX_c5nDkRvfuk-OLLkPg"
  },
  {
    "title": "Ankur kushwaha",
    "subTitle": "अंकुर कुशवाहा",
    "categoryName": "Car rental agency",
    "address": "F6RW+M87, Panki - Kalyanpur Rd, Kharanja, Kalyanpur, Kanpur, Uttar Pradesh 208017, India",
    "neighborhood": "Kharanja, Kalyanpur",
    "street": "F6RW+M87, Panki - Kalyanpur Rd",
    "city": "Kanpur",
    "postalCode": "208017",
    "state": "Uttar Pradesh",
    "countryCode": "IN",
    "location": {
      "lat": 26.4916726,
      "lng": 80.2457983
    },
    "totalScore": 5,
    "permanentlyClosed": false,
    "temporarilyClosed": false,
    "placeId": "ChIJEYqbUwA3nDkR2yfb4SpBUI8",
    "categories": [
      "Car rental agency"
    ],
    "reviewsCount": 3,
    "imagesCount": 3,
    "openingHours": [
      {
        "day": "Monday",
        "hours": "Open 24 hours"
      },
      {
        "day": "Tuesday",
        "hours": "Open 24 hours"
      },
      {
        "day": "Wednesday",
        "hours": "Open 24 hours"
      },
      {
        "day": "Thursday",
        "hours": "Open 24 hours"
      },
      {
        "day": "Friday",
        "hours": "Open 24 hours"
      },
      {
        "day": "Saturday",
        "hours": "Open 24 hours"
      },
      {
        "day": "Sunday",
        "hours": "Closed"
      }
    ],
    "imageUrl": "https://media.indianluxurycars.com/google/0d35465da4a6935f1057875e3c706b0489cbbe8e443b8c219a1460309ff01572.jpg",
    "url": "https://www.google.com/maps/search/?api=1&query=Ankur%20kushwaha&query_place_id=ChIJEYqbUwA3nDkR2yfb4SpBUI8"
  },
  {
    "title": "Baba Car Bazaar",
    "subTitle": "बाबा कार बाज़ार",
    "categoryName": "Car dealer",
    "address": "near Utsav Palace, Shyam Nagar, Kanpur, Uttar Pradesh 208013, India",
    "neighborhood": "Shyam Nagar",
    "street": "near Utsav Palace",
    "city": "Kanpur",
    "postalCode": "208013",
    "state": "Uttar Pradesh",
    "countryCode": "IN",
    "phone": "+918299638480",
    "phoneUnformatted": "+918299638480",
    "location": {
      "lat": 26.4132597,
      "lng": 80.3611547
    },
    "totalScore": 4.3,
    "permanentlyClosed": false,
    "temporarilyClosed": false,
    "placeId": "ChIJb3azTeBHnDkRNNM_61iVQYs",
    "categories": [
      "Car dealer"
    ],
    "reviewsCount": 21,
    "imagesCount": 26,
    "openingHours": [
      {
        "day": "Monday",
        "hours": "9 AM to 8 PM"
      },
      {
        "day": "Tuesday",
        "hours": "9 AM to 8 PM"
      },
      {
        "day": "Wednesday",
        "hours": "9 AM to 8 PM"
      },
      {
        "day": "Thursday",
        "hours": "9 AM to 8 PM"
      },
      {
        "day": "Friday",
        "hours": "9 AM to 8 PM"
      },
      {
        "day": "Saturday",
        "hours": "9 AM to 8 PM"
      },
      {
        "day": "Sunday",
        "hours": "9 AM to 8 PM"
      }
    ],
    "imageUrl": "https://media.indianluxurycars.com/google/dc48679ba0f30f47b8ffda6ece54dadaa954312ed436e6504d52cf4d677dc8bc.jpg",
    "url": "https://www.google.com/maps/search/?api=1&query=Baba%20Car%20Bazaar&query_place_id=ChIJb3azTeBHnDkRNNM_61iVQYs"
  },
  {
    "title": "Best Car Rental Sarvice",
    "subTitle": "बेस्ट कार रेंटल सर्विस",
    "categoryName": "Car rental agency",
    "address": "2D209awasvikas Hunspuram Naubasta, Uttar Pradesh 208011, India",
    "neighborhood": "Kidwai Nagar",
    "street": "2D209awasvikas Hunspuram Naubasta",
    "city": "Kanpur",
    "postalCode": "208011",
    "state": "Uttar Pradesh",
    "countryCode": "IN",
    "phone": "+918574188513",
    "phoneUnformatted": "+918574188513",
    "location": {
      "lat": 26.4327645,
      "lng": 80.3256871
    },
    "totalScore": 4.9,
    "permanentlyClosed": false,
    "temporarilyClosed": false,
    "placeId": "ChIJ_zs_tZ9HnDkRjxAThsszMIg",
    "categories": [
      "Car rental agency",
      "Travel agency"
    ],
    "reviewsCount": 102,
    "imagesCount": 21,
    "openingHours": [
      {
        "day": "Monday",
        "hours": "Open 24 hours"
      },
      {
        "day": "Tuesday",
        "hours": "Open 24 hours"
      },
      {
        "day": "Wednesday",
        "hours": "Open 24 hours"
      },
      {
        "day": "Thursday",
        "hours": "Open 24 hours"
      },
      {
        "day": "Friday",
        "hours": "Open 24 hours"
      },
      {
        "day": "Saturday",
        "hours": "Open 24 hours"
      },
      {
        "day": "Sunday",
        "hours": "Open 24 hours"
      }
    ],
    "imageUrl": "https://media.indianluxurycars.com/google/844f4e27d8c72f1f0e2a513de4735c27da2416faff4678d57a7ade3b8971f4ac.jpg",
    "url": "https://www.google.com/maps/search/?api=1&query=Best%20Car%20Rental%20Sarvice&query_place_id=ChIJ_zs_tZ9HnDkRjxAThsszMIg"
  },
  {
    "title": "Bhavya travels",
    "subTitle": "भव्य ट्रैवल्स",
    "categoryName": "Car rental agency",
    "address": "Shatabdi Rd, Ratanpur Colony, Panki, Kanpur, Uttar Pradesh 208020, India",
    "neighborhood": "Ratanpur Colony, Panki",
    "street": "Shatabdi Rd",
    "city": "Kanpur",
    "postalCode": "208020",
    "state": "Uttar Pradesh",
    "countryCode": "IN",
    "location": {
      "lat": 26.4834711,
      "lng": 80.2303647
    },
    "totalScore": 5,
    "permanentlyClosed": false,
    "temporarilyClosed": false,
    "placeId": "ChIJTc2Yxvw3nDkRbtc9AsY4ylA",
    "categories": [
      "Car rental agency"
    ],
    "reviewsCount": 12,
    "imagesCount": 54,
    "openingHours": [
      {
        "day": "Monday",
        "hours": "Open 24 hours"
      },
      {
        "day": "Tuesday",
        "hours": "Open 24 hours"
      },
      {
        "day": "Wednesday",
        "hours": "Open 24 hours"
      },
      {
        "day": "Thursday",
        "hours": "Open 24 hours"
      },
      {
        "day": "Friday",
        "hours": "Open 24 hours"
      },
      {
        "day": "Saturday",
        "hours": "Open 24 hours"
      },
      {
        "day": "Sunday",
        "hours": "Open 24 hours"
      }
    ],
    "imageUrl": "https://media.indianluxurycars.com/google/1e9af8937a9e4104ab946c26cb5099d168976f0c74f3f8a15676bf009a75433d.jpg",
    "url": "https://www.google.com/maps/search/?api=1&query=Bhavya%20travels&query_place_id=ChIJTc2Yxvw3nDkRbtc9AsY4ylA"
  },
  {
    "title": "BMW Speed Motorwagen | Kanpur",
    "subTitle": "बीएमडब्लू स्पीड मोटरवागन | कानपुर",
    "categoryName": "BMW dealer",
    "address": "Industrial Area, 64, Kalpi Rd, Industrial Estate, Fazalganj Industrial Estate, Fazalganj, Shastri Nagar, Kanpur, Uttar Pradesh 208012, India",
    "neighborhood": "Industrial Estate, Fazalganj Industrial Estate, Fazalganj, Shastri Nagar",
    "street": "Industrial Area, 64, Kalpi Rd",
    "city": "Kanpur",
    "postalCode": "208012",
    "state": "Uttar Pradesh",
    "countryCode": "IN",
    "website": "https://www.bmw-speedmotorwagen.in/",
    "phone": "+917275580001",
    "phoneUnformatted": "+917275580001",
    "location": {
      "lat": 26.4621166,
      "lng": 80.2996709
    },
    "totalScore": 4.1,
    "permanentlyClosed": false,
    "temporarilyClosed": false,
    "placeId": "ChIJh8quLr04nDkRuJinmQV8KKA",
    "categories": [
      "BMW dealer",
      "Car dealer",
      "Car repair and maintenance service",
      "Used car dealer"
    ],
    "reviewsCount": 269,
    "imagesCount": 117,
    "openingHours": [
      {
        "day": "Monday",
        "hours": "10:30 AM to 7:30 PM"
      },
      {
        "day": "Tuesday",
        "hours": "10:30 AM to 7:30 PM"
      },
      {
        "day": "Wednesday",
        "hours": "10:30 AM to 7:30 PM"
      },
      {
        "day": "Thursday",
        "hours": "10:30 AM to 7:30 PM"
      },
      {
        "day": "Friday",
        "hours": "10:30 AM to 7:30 PM"
      },
      {
        "day": "Saturday",
        "hours": "10:30 AM to 7:30 PM"
      },
      {
        "day": "Sunday",
        "hours": "Closed"
      }
    ],
    "imageUrl": "https://media.indianluxurycars.com/google/b128319c249b987dbd487a95de8be8ca011f2c9442035a88421e7263e4b30f91.jpg",
    "url": "https://www.google.com/maps/search/?api=1&query=BMW%20Speed%20Motorwagen%20%7C%20Kanpur&query_place_id=ChIJh8quLr04nDkRuJinmQV8KKA"
  },
  {
    "title": "Car Comforts Car Bazar",
    "subTitle": "कार कोम्फोर्ट्स कार बाजार",
    "categoryName": "Car dealer",
    "address": "Office no- 18, Radiance Town, 7/119, Swaroop Nagar, Kanpur, Uttar Pradesh 208002, India",
    "neighborhood": "Khalasi Line, Swaroop Nagar",
    "street": "Office no- 18, Radiance Town, 7/119",
    "city": "Kanpur",
    "postalCode": "208002",
    "state": "Uttar Pradesh",
    "countryCode": "IN",
    "location": {
      "lat": 26.4834222,
      "lng": 80.3196618
    },
    "totalScore": 5,
    "permanentlyClosed": false,
    "temporarilyClosed": false,
    "placeId": "ChIJMeMuVp45nDkRSxb10jUAzfQ",
    "categories": [
      "Car dealer"
    ],
    "reviewsCount": 10,
    "imagesCount": 25,
    "openingHours": [
      {
        "day": "Monday",
        "hours": "10 AM to 8 PM"
      },
      {
        "day": "Tuesday",
        "hours": "10 AM to 8 PM"
      },
      {
        "day": "Wednesday",
        "hours": "10 AM to 8 PM"
      },
      {
        "day": "Thursday",
        "hours": "10 AM to 8 PM"
      },
      {
        "day": "Friday",
        "hours": "10 AM to 8 PM"
      },
      {
        "day": "Saturday",
        "hours": "10 AM to 8 AM"
      },
      {
        "day": "Sunday",
        "hours": "10:30 AM to 4 AM"
      }
    ],
    "imageUrl": "https://media.indianluxurycars.com/google/c5c4621a06e3a7defb52671b7408df77a67958724e0d82a0d98790a46a67fb58.jpg",
    "url": "https://www.google.com/maps/search/?api=1&query=Car%20Comforts%20Car%20Bazar&query_place_id=ChIJMeMuVp45nDkRSxb10jUAzfQ"
  },
  {
    "title": "CAR HUB KANPUR",
    "subTitle": "कार हब कानपुर",
    "categoryName": "Used car dealer",
    "address": "Plot number 50, near mama PCO, Shyam Nagar, Kanpur, Uttar Pradesh 208015, India",
    "neighborhood": "Shyam Nagar",
    "street": "Plot number 50, near mama PCO",
    "city": "Kanpur",
    "postalCode": "208015",
    "state": "Uttar Pradesh",
    "countryCode": "IN",
    "phone": "+919956007500",
    "phoneUnformatted": "+919956007500",
    "location": {
      "lat": 26.4067508,
      "lng": 80.3724358
    },
    "totalScore": 4.8,
    "permanentlyClosed": false,
    "temporarilyClosed": false,
    "placeId": "ChIJ88TT0I9HnDkR0xPaElmDuLk",
    "categories": [
      "Used car dealer"
    ],
    "reviewsCount": 61,
    "imagesCount": 36,
    "openingHours": [
      {
        "day": "Monday",
        "hours": "9:30 AM to 9:30 PM"
      },
      {
        "day": "Tuesday",
        "hours": "9:30 AM to 9:30 PM"
      },
      {
        "day": "Wednesday",
        "hours": "9:30 AM to 9:30 PM"
      },
      {
        "day": "Thursday",
        "hours": "9:30 AM to 9:30 PM"
      },
      {
        "day": "Friday",
        "hours": "9:30 AM to 9:30 PM"
      },
      {
        "day": "Saturday",
        "hours": "9:30 AM to 9:30 PM"
      },
      {
        "day": "Sunday",
        "hours": "9:30 AM to 9:30 PM"
      }
    ],
    "imageUrl": "https://media.indianluxurycars.com/google/4e06c4540239188e77807738b3720a9f48f8636eb7488b8926929fb959f79d6a.jpg",
    "url": "https://www.google.com/maps/search/?api=1&query=CAR%20HUB%20KANPUR&query_place_id=ChIJ88TT0I9HnDkR0xPaElmDuLk"
  },
  {
    "title": "Cars Avenue",
    "subTitle": "कार्स एवेन्यू",
    "categoryName": "Used car dealer",
    "address": "8/11, Khalasi Line, Arya Nagar, Kanpur, Uttar Pradesh 208002, India",
    "neighborhood": "Khalasi Line, Arya Nagar",
    "street": "8/11",
    "city": "Kanpur",
    "postalCode": "208002",
    "state": "Uttar Pradesh",
    "countryCode": "IN",
    "phone": "+916389252500",
    "phoneUnformatted": "+916389252500",
    "location": {
      "lat": 26.4820592,
      "lng": 80.3255146
    },
    "permanentlyClosed": false,
    "temporarilyClosed": false,
    "placeId": "ChIJPwznEsg5nDkRFyV-7Ot528w",
    "categories": [
      "Used car dealer"
    ],
    "imagesCount": 1,
    "openingHours": [
      {
        "day": "Monday",
        "hours": "11 AM to 8 PM"
      },
      {
        "day": "Tuesday",
        "hours": "11 AM to 8 PM"
      },
      {
        "day": "Wednesday",
        "hours": "11 AM to 8 PM"
      },
      {
        "day": "Thursday",
        "hours": "11 AM to 8 PM"
      },
      {
        "day": "Friday",
        "hours": "11 AM to 8 PM"
      },
      {
        "day": "Saturday",
        "hours": "11 AM to 8 PM"
      },
      {
        "day": "Sunday",
        "hours": "11 AM to 8 PM"
      }
    ],
    "imageUrl": "https://media.indianluxurycars.com/google/adf8a4435b1e3367146b527210c4dcf7235217d163e8db48f9305ab66be6a4a6.jpg",
    "url": "https://www.google.com/maps/search/?api=1&query=Cars%20Avenue&query_place_id=ChIJPwznEsg5nDkRFyV-7Ot528w"
  },
  {
    "title": "CARS24 - Sell Used Cars in Kanpur",
    "subTitle": "कार्स24 - सेल यूज्ड कार्स इन कानपुर",
    "categoryName": "Used car dealer",
    "address": "Civil Lines, Kanpur, Uttar Pradesh 208001, India",
    "neighborhood": "Civil Lines",
    "city": "Kanpur",
    "postalCode": "208001",
    "state": "Uttar Pradesh",
    "countryCode": "IN",
    "website": "https://www.cars24.com/",
    "phone": "+918929759586",
    "phoneUnformatted": "+918929759586",
    "location": {
      "lat": 26.4737466,
      "lng": 80.34813
    },
    "totalScore": 4.3,
    "permanentlyClosed": false,
    "temporarilyClosed": false,
    "placeId": "ChIJfWW9Z8I5nDkRgAswE0ClkIU",
    "categories": [
      "Used car dealer",
      "Audi dealer",
      "BMW dealer",
      "Car finance and loan company",
      "Honda dealer",
      "Hyundai dealer",
      "Jeep dealer",
      "Kia dealer",
      "Suzuki dealer",
      "Toyota dealer"
    ],
    "reviewsCount": 360,
    "imagesCount": 151,
    "openingHours": [
      {
        "day": "Monday",
        "hours": "9:30 AM to 6:30 PM"
      },
      {
        "day": "Tuesday",
        "hours": "9:30 AM to 6:30 PM"
      },
      {
        "day": "Wednesday",
        "hours": "9:30 AM to 6:30 PM"
      },
      {
        "day": "Thursday",
        "hours": "9:30 AM to 6:30 PM"
      },
      {
        "day": "Friday",
        "hours": "9:30 AM to 6:30 PM"
      },
      {
        "day": "Saturday",
        "hours": "9:30 AM to 6:30 PM"
      },
      {
        "day": "Sunday",
        "hours": "9:30 AM to 6:30 PM"
      }
    ],
    "imageUrl": "https://media.indianluxurycars.com/google/18c32416c3ec8f66402867361bd64da9a71ed87f75285d1a560e7c42e33f6df6.jpg",
    "url": "https://www.google.com/maps/search/?api=1&query=CARS24%20-%20Sell%20Used%20Cars%20in%20Kanpur&query_place_id=ChIJfWW9Z8I5nDkRgAswE0ClkIU"
  },
  {
    "title": "City Cab Agency (Best Taxi Service in Kanpur)",
    "subTitle": "सिटी कैब एजेंसी (बेस्ट टैक्सी सर्विस इन कानपुर)",
    "categoryName": "Car leasing service",
    "address": "70B, Panki Katra, Panki, Kanpur, Uttar Pradesh 208020, India",
    "neighborhood": "Panki Katra, Panki",
    "street": "70B",
    "city": "Kanpur",
    "postalCode": "208020",
    "state": "Uttar Pradesh",
    "countryCode": "IN",
    "website": "https://citycabagency.com/",
    "phone": "+919140850482",
    "phoneUnformatted": "+919140850482",
    "location": {
      "lat": 26.4679588,
      "lng": 80.2392281
    },
    "totalScore": 4.9,
    "permanentlyClosed": false,
    "temporarilyClosed": false,
    "placeId": "ChIJdU4Z5Ag3nDkRpV1KVoZ0sXY",
    "categories": [
      "Car leasing service",
      "Airport shuttle service",
      "Taxi service",
      "Minibus taxi service",
      "Tour operator",
      "Transportation service",
      "Travel agency"
    ],
    "reviewsCount": 53,
    "imagesCount": 28,
    "openingHours": [],
    "imageUrl": "https://media.indianluxurycars.com/google/7f45078baa0f8148d017b72a49de61737f963cd6b822d7c837920febdd774b76.jpg",
    "url": "https://www.google.com/maps/search/?api=1&query=City%20Cab%20Agency%20(Best%20Taxi%20Service%20in%20Kanpur)&query_place_id=ChIJdU4Z5Ag3nDkRpV1KVoZ0sXY"
  },
  {
    "title": "Comfy Travels",
    "subTitle": "कॉम्फी ट्रैवल्स",
    "categoryName": "Car rental agency",
    "address": "128/77, Aara Machine Rd, near Prakash & Company, Gopal Nagar, Yashoda Nagar, Kanpur, Uttar Pradesh 208011, India",
    "neighborhood": "Gopal Nagar, Yashoda Nagar",
    "street": "128/77, Aara Machine Rd, near Prakash & Company",
    "city": "Kanpur",
    "postalCode": "208011",
    "state": "Uttar Pradesh",
    "countryCode": "IN",
    "phone": "+918181812012",
    "phoneUnformatted": "+918181812012",
    "location": {
      "lat": 26.4092762,
      "lng": 80.3448881
    },
    "totalScore": 5,
    "permanentlyClosed": false,
    "temporarilyClosed": false,
    "placeId": "ChIJe69TCL1GnDkRaVaqV1OmQiY",
    "categories": [
      "Car rental agency"
    ],
    "reviewsCount": 45,
    "imagesCount": 19,
    "openingHours": [
      {
        "day": "Monday",
        "hours": "Open 24 hours"
      },
      {
        "day": "Tuesday",
        "hours": "Open 24 hours"
      },
      {
        "day": "Wednesday",
        "hours": "Open 24 hours"
      },
      {
        "day": "Thursday",
        "hours": "Open 24 hours"
      },
      {
        "day": "Friday",
        "hours": "Open 24 hours"
      },
      {
        "day": "Saturday",
        "hours": "Open 24 hours"
      },
      {
        "day": "Sunday",
        "hours": "Open 24 hours"
      }
    ],
    "imageUrl": "https://media.indianluxurycars.com/google/42da23b233e4c9c148deb33e023e0cab2821126bcedc9bc05570c370a18f0d23.jpg",
    "url": "https://www.google.com/maps/search/?api=1&query=Comfy%20Travels&query_place_id=ChIJe69TCL1GnDkRaVaqV1OmQiY"
  },
  {
    "title": "Detailing Devils Kanpur (India's Best And Premium Car And Bike Ceramic Coating Company)",
    "subTitle": "डिटेलिंग डेविल्स कानपुर (इंडिया'स बेस्ट एंड प्रीमियम कार एंड बाइक सेरेमिक कोटिंग कंपनी)",
    "categoryName": "Auto restoration service",
    "address": "123/788, Fazalganj Industrial Estate, Fazalganj, Shastri Nagar, Kanpur, Uttar Pradesh 208012, India",
    "neighborhood": "Fazalganj Industrial Estate, Fazalganj, Shastri Nagar",
    "street": "123/788",
    "city": "Kanpur",
    "postalCode": "208012",
    "state": "Uttar Pradesh",
    "countryCode": "IN",
    "website": "https://www.detailingdevils.com/detailing-studios/kanpur",
    "phone": "+917457905555",
    "phoneUnformatted": "+917457905555",
    "location": {
      "lat": 26.4590421,
      "lng": 80.3093305
    },
    "totalScore": 4.5,
    "permanentlyClosed": false,
    "temporarilyClosed": false,
    "placeId": "ChIJkViIm-NHnDkRO0PseH9Pi4c",
    "categories": [
      "Auto restoration service",
      "Auto repair shop",
      "Bike wash",
      "Car dealer"
    ],
    "reviewsCount": 19,
    "imagesCount": 333,
    "openingHours": [
      {
        "day": "Monday",
        "hours": "10 AM to 7 PM"
      },
      {
        "day": "Tuesday",
        "hours": "10 AM to 7 PM"
      },
      {
        "day": "Wednesday",
        "hours": "10 AM to 7 PM"
      },
      {
        "day": "Thursday",
        "hours": "10 AM to 7 PM"
      },
      {
        "day": "Friday",
        "hours": "10 AM to 7 PM"
      },
      {
        "day": "Saturday",
        "hours": "10 AM to 7 PM"
      },
      {
        "day": "Sunday",
        "hours": "10 AM to 7 PM"
      }
    ],
    "imageUrl": "https://media.indianluxurycars.com/google/337341554f7f58fde19b92cd2e4649c5f039a732bf0154be74d7895fcce16d90.jpg",
    "url": "https://www.google.com/maps/search/?api=1&query=Detailing%20Devils%20Kanpur%20(India's%20Best%20And%20Premium%20Car%20And%20Bike%20Ceramic%20Coating%20Company)&query_place_id=ChIJkViIm-NHnDkRO0PseH9Pi4c"
  },
  {
    "title": "Devansh Taxi Service",
    "subTitle": "देवांश टैक्सी सर्विस",
    "categoryName": "Car rental agency",
    "address": "6a/747, Awas Vikas Rd, Hanspuram, Naubasta, Kanpur, Uttar Pradesh 208021, India",
    "neighborhood": "Hanspuram, Naubasta",
    "street": "6a/747, Awas Vikas Rd",
    "city": "Kanpur",
    "postalCode": "208021",
    "state": "Uttar Pradesh",
    "countryCode": "IN",
    "website": "http://www.devanshtaxiservice.in/",
    "phone": "+917861886880",
    "phoneUnformatted": "+917861886880",
    "location": {
      "lat": 26.4007698,
      "lng": 80.3223912
    },
    "totalScore": 4.9,
    "permanentlyClosed": false,
    "temporarilyClosed": false,
    "placeId": "ChIJq5HHhkxHnDkRST344VgtCJI",
    "categories": [
      "Car rental agency",
      "Car leasing service",
      "Travel agency",
      "Minibus taxi service",
      "Taxi service"
    ],
    "reviewsCount": 247,
    "imagesCount": 65,
    "openingHours": [
      {
        "day": "Monday",
        "hours": "Open 24 hours"
      },
      {
        "day": "Tuesday",
        "hours": "Open 24 hours"
      },
      {
        "day": "Wednesday",
        "hours": "Open 24 hours"
      },
      {
        "day": "Thursday",
        "hours": "Open 24 hours"
      },
      {
        "day": "Friday",
        "hours": "Open 24 hours"
      },
      {
        "day": "Saturday",
        "hours": "Open 24 hours"
      },
      {
        "day": "Sunday",
        "hours": "Open 24 hours"
      }
    ],
    "imageUrl": "https://media.indianluxurycars.com/google/03a60c57a68aa363c75d35509fdaa0dd9984900a3bf587778fc8a1e2ad7a59c3.jpg",
    "url": "https://www.google.com/maps/search/?api=1&query=Devansh%20Taxi%20Service&query_place_id=ChIJq5HHhkxHnDkRST344VgtCJI"
  },
  {
    "title": "Devansh Travels",
    "subTitle": "देवांश ट्रैवल्स",
    "categoryName": "Car leasing service",
    "address": "122/550, Shastri Nagar, Kanpur, Uttar Pradesh 208005, India",
    "neighborhood": "Shastri Nagar",
    "street": "122/550",
    "city": "Kanpur",
    "postalCode": "208005",
    "state": "Uttar Pradesh",
    "countryCode": "IN",
    "website": "http://www.devanshcarental.com/",
    "phone": "+916393387757",
    "phoneUnformatted": "+916393387757",
    "location": {
      "lat": 26.4651174,
      "lng": 80.2972461
    },
    "totalScore": 5,
    "permanentlyClosed": false,
    "temporarilyClosed": false,
    "placeId": "ChIJ44sxhSVHnDkRvvyi6SstryA",
    "categories": [
      "Car leasing service"
    ],
    "reviewsCount": 100,
    "imagesCount": 13,
    "openingHours": [
      {
        "day": "Monday",
        "hours": "Open 24 hours"
      },
      {
        "day": "Tuesday",
        "hours": "Open 24 hours"
      },
      {
        "day": "Wednesday",
        "hours": "Open 24 hours"
      },
      {
        "day": "Thursday",
        "hours": "Open 24 hours"
      },
      {
        "day": "Friday",
        "hours": "Open 24 hours"
      },
      {
        "day": "Saturday",
        "hours": "Open 24 hours"
      },
      {
        "day": "Sunday",
        "hours": "Open 24 hours"
      }
    ],
    "imageUrl": "https://media.indianluxurycars.com/google/736d38e9f0bcfc3a7a66d0c3260642006db4f9df41414e58324bc8dec4c7c1e4.jpg",
    "url": "https://www.google.com/maps/search/?api=1&query=Devansh%20Travels&query_place_id=ChIJ44sxhSVHnDkRvvyi6SstryA"
  },
  {
    "title": "Dream Kars Luxury Studio",
    "subTitle": "ड्रीम कार्स लक्जरी स्टूडियो",
    "categoryName": "Car detailing service",
    "address": "112/292, Chat Chauraha, Khalasi Line, Swaroop Nagar, Kanpur, Uttar Pradesh 208002, India",
    "neighborhood": "Chat Chauraha, Khalasi Line, Swaroop Nagar",
    "street": "112/292",
    "city": "Kanpur",
    "postalCode": "208002",
    "state": "Uttar Pradesh",
    "countryCode": "IN",
    "phone": "+919839118118",
    "phoneUnformatted": "+919839118118",
    "location": {
      "lat": 26.4823941,
      "lng": 80.3179634
    },
    "totalScore": 4.7,
    "permanentlyClosed": false,
    "temporarilyClosed": false,
    "placeId": "ChIJcY8hQpY5nDkRlrte6St8raE",
    "categories": [
      "Car detailing service",
      "Auto broker"
    ],
    "reviewsCount": 125,
    "imagesCount": 49,
    "openingHours": [
      {
        "day": "Monday",
        "hours": "10 AM to 8 PM"
      },
      {
        "day": "Tuesday",
        "hours": "10 AM to 8 PM"
      },
      {
        "day": "Wednesday",
        "hours": "10 AM to 8 PM"
      },
      {
        "day": "Thursday",
        "hours": "10 AM to 8 PM"
      },
      {
        "day": "Friday",
        "hours": "10 AM to 8 PM"
      },
      {
        "day": "Saturday",
        "hours": "10 AM to 8 PM"
      },
      {
        "day": "Sunday",
        "hours": "10 AM to 8 PM"
      }
    ],
    "imageUrl": "https://media.indianluxurycars.com/google/ec76ad9010705981ef3765e7a55fa32d57c080b2bfc7007f868e7d0454c4fbe1.jpg",
    "url": "https://www.google.com/maps/search/?api=1&query=Dream%20Kars%20Luxury%20Studio&query_place_id=ChIJcY8hQpY5nDkRlrte6St8raE"
  },
  {
    "title": "Esha Car Bazar - Authorised Dealership of Second Hand Four-Wheeler Vehicles",
    "subTitle": "एशा कार बाजार - ऑथोरिसेड डीलरशिप ऑफ़ सेकंड हैंड फोर-व्हीलर व्हीकल्स",
    "categoryName": "Used car dealer",
    "address": "9, 51, Benajhabar Rd, Benajhabar, Harsh Nagar, Kanpur, Uttar Pradesh 208002, India",
    "neighborhood": "Benajhabar, Harsh Nagar",
    "street": "9, 51, Benajhabar Rd",
    "city": "Kanpur",
    "postalCode": "208002",
    "state": "Uttar Pradesh",
    "countryCode": "IN",
    "phone": "+919336118220",
    "phoneUnformatted": "+919336118220",
    "location": {
      "lat": 26.478,
      "lng": 80.32319
    },
    "totalScore": 2.2,
    "permanentlyClosed": false,
    "temporarilyClosed": false,
    "placeId": "ChIJfQD2IoQ4nDkRwRUSbBembUk",
    "categories": [
      "Used car dealer"
    ],
    "reviewsCount": 12,
    "imagesCount": 8,
    "openingHours": [
      {
        "day": "Monday",
        "hours": "10 AM to 7 PM"
      },
      {
        "day": "Tuesday",
        "hours": "10 AM to 7 PM"
      },
      {
        "day": "Wednesday",
        "hours": "10 AM to 7 PM"
      },
      {
        "day": "Thursday",
        "hours": "10 AM to 7 PM"
      },
      {
        "day": "Friday",
        "hours": "10 AM to 7 PM"
      },
      {
        "day": "Saturday",
        "hours": "10 AM to 7 PM"
      },
      {
        "day": "Sunday",
        "hours": "10 AM to 4 PM"
      }
    ],
    "imageUrl": "https://media.indianluxurycars.com/google/72b4549114e67a8a48414ed8d1daa3e46714d69bf69a4651fecffcb204557425.jpg",
    "url": "https://www.google.com/maps/search/?api=1&query=Esha%20Car%20Bazar%20-%20Authorised%20Dealership%20of%20Second%20Hand%20Four-Wheeler%20Vehicles&query_place_id=ChIJfQD2IoQ4nDkRwRUSbBembUk"
  },
  {
    "title": "India Motors",
    "subTitle": "भारत मोटर्स",
    "categoryName": "Used car dealer",
    "address": "111/436, 80 Feet Rd, Ashok Nagar, Harsh Nagar, Kanpur, Uttar Pradesh 208012, India",
    "neighborhood": "Ashok Nagar, Harsh Nagar",
    "street": "111/436, 80 Feet Rd",
    "city": "Kanpur",
    "postalCode": "208012",
    "state": "Uttar Pradesh",
    "countryCode": "IN",
    "phone": "+919161212121",
    "phoneUnformatted": "+919161212121",
    "location": {
      "lat": 26.4722017,
      "lng": 80.3215428
    },
    "totalScore": 4.4,
    "permanentlyClosed": false,
    "temporarilyClosed": false,
    "placeId": "ChIJUeRxoYA4nDkR1z1YNkgnLJo",
    "categories": [
      "Used car dealer"
    ],
    "reviewsCount": 31,
    "imagesCount": 29,
    "openingHours": [
      {
        "day": "Monday",
        "hours": "11 AM to 8 PM"
      },
      {
        "day": "Tuesday",
        "hours": "11 AM to 8 PM"
      },
      {
        "day": "Wednesday",
        "hours": "11 AM to 8 PM"
      },
      {
        "day": "Thursday",
        "hours": "11 AM to 8 PM"
      },
      {
        "day": "Friday",
        "hours": "11 AM to 8 PM"
      },
      {
        "day": "Saturday",
        "hours": "11 AM to 8 PM"
      },
      {
        "day": "Sunday",
        "hours": "11 AM to 4 PM"
      }
    ],
    "imageUrl": "https://media.indianluxurycars.com/google/118934dd7d4924cde4b668a4ea5db9d4b84ac61a2036a55a4fea5bd608611cfe.jpg",
    "url": "https://www.google.com/maps/search/?api=1&query=India%20Motors&query_place_id=ChIJUeRxoYA4nDkR1z1YNkgnLJo"
  },
  {
    "title": "JP MOTORS",
    "subTitle": "जेपी मोटर्स",
    "categoryName": "Used car dealer",
    "address": "Nirala nagar, Juhi Kalan, Juhi, Kanpur, Uttar Pradesh 208014, India",
    "neighborhood": "Nirala nagar, Juhi Kalan, Juhi",
    "city": "Kanpur",
    "postalCode": "208014",
    "state": "Uttar Pradesh",
    "countryCode": "IN",
    "phone": "+919455552976",
    "phoneUnformatted": "+919455552976",
    "location": {
      "lat": 26.4405513,
      "lng": 80.3108759
    },
    "totalScore": 5,
    "permanentlyClosed": false,
    "temporarilyClosed": false,
    "placeId": "ChIJ-7LzXGpHnDkRb17gKummNe8",
    "categories": [
      "Used car dealer"
    ],
    "reviewsCount": 7,
    "imagesCount": 24,
    "openingHours": [],
    "imageUrl": "https://media.indianluxurycars.com/google/a8c50a8837db56455c6a704e3ce85964bde26a292c36f61e7ead90f37470081a.jpg",
    "url": "https://www.google.com/maps/search/?api=1&query=JP%20MOTORS&query_place_id=ChIJ-7LzXGpHnDkRb17gKummNe8"
  },
  {
    "title": "K.TIWARI.TOUR & TRAVELS",
    "subTitle": "के.तिवारी.टूर & ट्रैवल्स",
    "categoryName": "Car rental agency",
    "address": "98Q4+5MW, Sagarpuri Rd, Galla Mandi, Naubasta, Kanpur, Uttar Pradesh 208021, India",
    "neighborhood": "Galla Mandi, Naubasta",
    "street": "98Q4+5MW, Sagarpuri Rd",
    "city": "Kanpur",
    "postalCode": "208021",
    "state": "Uttar Pradesh",
    "countryCode": "IN",
    "website": "https://ktiwaritourtravels.in/",
    "phone": "+917307152277",
    "phoneUnformatted": "+917307152277",
    "location": {
      "lat": 26.3878781,
      "lng": 80.3067219
    },
    "totalScore": 5,
    "permanentlyClosed": false,
    "temporarilyClosed": false,
    "placeId": "ChIJCxhFH6FHnDkRag73jUm0CYc",
    "categories": [
      "Car rental agency"
    ],
    "reviewsCount": 14,
    "imagesCount": 13,
    "openingHours": [
      {
        "day": "Monday",
        "hours": "Open 24 hours"
      },
      {
        "day": "Tuesday",
        "hours": "Open 24 hours"
      },
      {
        "day": "Wednesday",
        "hours": "Open 24 hours"
      },
      {
        "day": "Thursday",
        "hours": "Open 24 hours"
      },
      {
        "day": "Friday",
        "hours": "Open 24 hours"
      },
      {
        "day": "Saturday",
        "hours": "Open 24 hours"
      },
      {
        "day": "Sunday",
        "hours": "Open 24 hours"
      }
    ],
    "imageUrl": "https://media.indianluxurycars.com/google/129dce598bb242a33dfbc2679a88d04d3d0e3dfbbd61e20443774ea44e362cf6.jpg",
    "url": "https://www.google.com/maps/search/?api=1&query=K.TIWARI.TOUR%20%26%20TRAVELS&query_place_id=ChIJCxhFH6FHnDkRag73jUm0CYc"
  },
  {
    "title": "Kanpur Car Bazar",
    "subTitle": "कानपुर कार बाजार",
    "categoryName": "Car dealer",
    "address": "128/109, Kidwai Nagar, Kanpur, Uttar Pradesh 208011, India",
    "neighborhood": "Kidwai Nagar",
    "street": "128/109",
    "city": "Kanpur",
    "postalCode": "208011",
    "state": "Uttar Pradesh",
    "countryCode": "IN",
    "phone": "+919452317193",
    "phoneUnformatted": "+919452317193",
    "location": {
      "lat": 26.443568,
      "lng": 80.3443908
    },
    "totalScore": 3.1,
    "permanentlyClosed": false,
    "temporarilyClosed": false,
    "placeId": "ChIJ940D2wdHnDkRNB8s-Zba4jM",
    "categories": [
      "Car dealer"
    ],
    "reviewsCount": 9,
    "imagesCount": 5,
    "openingHours": [
      {
        "day": "Monday",
        "hours": "10 AM to 7 PM"
      },
      {
        "day": "Tuesday",
        "hours": "10 AM to 7 PM"
      },
      {
        "day": "Wednesday",
        "hours": "10 AM to 7 PM"
      },
      {
        "day": "Thursday",
        "hours": "10 AM to 7 PM"
      },
      {
        "day": "Friday",
        "hours": "10 AM to 7 PM"
      },
      {
        "day": "Saturday",
        "hours": "10 AM to 7 PM"
      },
      {
        "day": "Sunday",
        "hours": "10 AM to 7 PM"
      }
    ],
    "imageUrl": "https://media.indianluxurycars.com/google/226cc7d98c5069e29e468ca8318c27811495a849be0065627ee3261edf43a14a.jpg",
    "url": "https://www.google.com/maps/search/?api=1&query=Kanpur%20Car%20Bazar&query_place_id=ChIJ940D2wdHnDkRNB8s-Zba4jM"
  },
  {
    "title": "KHATU SHYAM TAXI SERVICE",
    "subTitle": "खाटू श्याम टैक्सी सर्विस",
    "categoryName": "Car rental agency",
    "address": "6/22 A, Parwati Bagla Rd, Permat, Kanpur, Uttar Pradesh 208002, India",
    "neighborhood": "Permat",
    "street": "6/22 A, Parwati Bagla Rd",
    "city": "Kanpur",
    "postalCode": "208002",
    "state": "Uttar Pradesh",
    "countryCode": "IN",
    "website": "https://khatushyamtaxiservice.in/",
    "location": {
      "lat": 26.4900922,
      "lng": 80.3299182
    },
    "totalScore": 4.8,
    "permanentlyClosed": false,
    "temporarilyClosed": false,
    "placeId": "ChIJ518F0YI5nDkRZbYQcAd2xqc",
    "categories": [
      "Car rental agency",
      "Taxi service"
    ],
    "reviewsCount": 243,
    "imagesCount": 42,
    "openingHours": [],
    "imageUrl": "https://media.indianluxurycars.com/google/cfbf2dbcf401c0d6fc1cc17326e177e08923a823caafec05243b4780923e0122.jpg",
    "url": "https://www.google.com/maps/search/?api=1&query=KHATU%20SHYAM%20TAXI%20SERVICE&query_place_id=ChIJ518F0YI5nDkRZbYQcAd2xqc"
  },
  {
    "title": "Luxury Car dry Cleaning",
    "subTitle": "लक्जरी कार ड्राई क्लीनिंग",
    "categoryName": "Car wash",
    "address": "199 Mangla Vihar 1st New, PAC, Line, Kanpur, Uttar Pradesh 208015, India",
    "neighborhood": "PAC, Line",
    "street": "199 Mangla Vihar 1st New",
    "city": "Kanpur",
    "postalCode": "208015",
    "state": "Uttar Pradesh",
    "countryCode": "IN",
    "phone": "+916387895808",
    "phoneUnformatted": "+916387895808",
    "location": {
      "lat": 26.4062787,
      "lng": 80.3734365
    },
    "totalScore": 5,
    "permanentlyClosed": false,
    "temporarilyClosed": false,
    "placeId": "ChIJR7ugi05BnDkRSecBdAbzcCs",
    "categories": [
      "Car wash"
    ],
    "reviewsCount": 5,
    "imagesCount": 16,
    "openingHours": [],
    "imageUrl": "https://media.indianluxurycars.com/google/00e1a619b5b7efe648e6fc6842922176d39bb9e67399abfb4f0b03ed3f342d70.jpg",
    "url": "https://www.google.com/maps/search/?api=1&query=Luxury%20Car%20dry%20Cleaning&query_place_id=ChIJR7ugi05BnDkRSecBdAbzcCs"
  },
  {
    "title": "Luxury Car Spa",
    "subTitle": "लक्जरी कार स्पा",
    "categoryName": "Car wash",
    "address": "Road, E Block, Kidwai Nagar, Kanpur, Uttar Pradesh 208014, India",
    "neighborhood": "E Block, Kidwai Nagar",
    "street": "Road",
    "city": "Kanpur",
    "postalCode": "208014",
    "state": "Uttar Pradesh",
    "countryCode": "IN",
    "location": {
      "lat": 26.43411,
      "lng": 80.3320186
    },
    "permanentlyClosed": false,
    "temporarilyClosed": false,
    "placeId": "ChIJIaYvjQ5HnDkRSwPrJIjc6TQ",
    "categories": [
      "Car wash"
    ],
    "imagesCount": 4,
    "openingHours": [
      {
        "day": "Monday",
        "hours": "7 AM to 7 PM"
      },
      {
        "day": "Tuesday",
        "hours": "7 AM to 7 PM"
      },
      {
        "day": "Wednesday",
        "hours": "7 AM to 7 PM"
      },
      {
        "day": "Thursday",
        "hours": "7 AM to 7 PM"
      },
      {
        "day": "Friday",
        "hours": "7 AM to 7 PM"
      },
      {
        "day": "Saturday",
        "hours": "7 AM to 7 PM"
      },
      {
        "day": "Sunday",
        "hours": "7 AM to 7 PM"
      }
    ],
    "imageUrl": "https://media.indianluxurycars.com/google/4dec6b8e13a5343123769c59fcb2240ad49c52f10f2f25d0053d089570a4d0ae.jpg",
    "url": "https://www.google.com/maps/search/?api=1&query=Luxury%20Car%20Spa&query_place_id=ChIJIaYvjQ5HnDkRSwPrJIjc6TQ"
  },
  {
    "title": "Luxury Royal Audi Car Rental Wedding",
    "subTitle": "लक्जरी रॉयल ऑडी कार रेंटल वेडिंग",
    "categoryName": "Car rental agency",
    "address": "Rupam Chauraha, Zamzam Market, 88/384, Kagzi Mohalla, Colonelganj, Kanpur, Uttar Pradesh 208001, India",
    "neighborhood": "Kagzi Mohalla, Colonelganj",
    "street": "Rupam Chauraha, Zamzam Market, 88/384",
    "city": "Kanpur",
    "postalCode": "208001",
    "state": "Uttar Pradesh",
    "countryCode": "IN",
    "website": "https://www.luxurycarkanpur.com/",
    "phone": "+919369989641",
    "phoneUnformatted": "+919369989641",
    "location": {
      "lat": 26.4682598,
      "lng": 80.337345
    },
    "permanentlyClosed": false,
    "temporarilyClosed": false,
    "placeId": "ChIJU8vmafVHnDkR89FHoFieFNw",
    "categories": [
      "Car rental agency"
    ],
    "imagesCount": 18,
    "openingHours": [],
    "imageUrl": "https://media.indianluxurycars.com/google/94260901956a0877871469b163988ada0e021fc4ef70bdeedf3a7c53991b1859.jpg",
    "url": "https://www.google.com/maps/search/?api=1&query=Luxury%20Royal%20Audi%20Car%20Rental%20Wedding&query_place_id=ChIJU8vmafVHnDkR89FHoFieFNw"
  },
  {
    "title": "Manvik Kanpur Travels",
    "subTitle": "मानविक कानपुर ट्रैवल्स",
    "categoryName": "Car rental agency",
    "address": "double storey, EWS 9, Hind Vihar, Barra 2, Sector X, Barra, Kanpur, Uttar Pradesh 208027, India",
    "neighborhood": "Hind Vihar, Barra 2, Sector X, Barra",
    "street": "double storey, EWS 9",
    "city": "Kanpur",
    "postalCode": "208027",
    "state": "Uttar Pradesh",
    "countryCode": "IN",
    "website": "https://wa.link/18q0a5",
    "phone": "+919936296308",
    "phoneUnformatted": "+919936296308",
    "location": {
      "lat": 26.4370875,
      "lng": 80.2974704
    },
    "totalScore": 5,
    "permanentlyClosed": false,
    "temporarilyClosed": false,
    "placeId": "ChIJw_-3YgBHnDkRP96zWtipZLA",
    "categories": [
      "Car rental agency"
    ],
    "reviewsCount": 62,
    "imagesCount": 2,
    "openingHours": [
      {
        "day": "Monday",
        "hours": "Open 24 hours"
      },
      {
        "day": "Tuesday",
        "hours": "Open 24 hours"
      },
      {
        "day": "Wednesday",
        "hours": "Open 24 hours"
      },
      {
        "day": "Thursday",
        "hours": "Open 24 hours"
      },
      {
        "day": "Friday",
        "hours": "Open 24 hours"
      },
      {
        "day": "Saturday",
        "hours": "Open 24 hours"
      },
      {
        "day": "Sunday",
        "hours": "Open 24 hours"
      }
    ],
    "imageUrl": "https://media.indianluxurycars.com/google/503eb18a5fe4fb49fd6fba6698fd873426eec86c66abfaba592f9433ae17f50c.jpg",
    "url": "https://www.google.com/maps/search/?api=1&query=Manvik%20Kanpur%20Travels&query_place_id=ChIJw_-3YgBHnDkRP96zWtipZLA"
  },
  {
    "title": "Maruti Suzuki ARENA (S.B. Cars, Kanpur, Fazal Ganj)",
    "subTitle": "एस.बी. कार मारुति",
    "categoryName": "Car dealer",
    "address": "123/772, B (Part D&E, Fazalganj, Shastri Nagar, Kanpur, Uttar Pradesh 208006, India",
    "neighborhood": "B (Part D&E, Fazalganj, Shastri Nagar",
    "street": "123/772",
    "city": "Kanpur",
    "postalCode": "208006",
    "state": "Uttar Pradesh",
    "countryCode": "IN",
    "website": "https://www.arenaoffazalganj.com/?utm_source=gmb&utm_medium=google&utm_campaign=seo-local",
    "phone": "+918062513808",
    "phoneUnformatted": "+918062513808",
    "location": {
      "lat": 26.456306,
      "lng": 80.309115
    },
    "totalScore": 4.2,
    "permanentlyClosed": false,
    "temporarilyClosed": false,
    "placeId": "ChIJAQAAQIxHnDkRs7ZYogyQD8o",
    "categories": [
      "Car dealer"
    ],
    "reviewsCount": 3101,
    "imagesCount": 520,
    "openingHours": [
      {
        "day": "Monday",
        "hours": "10 AM to 7 PM"
      },
      {
        "day": "Tuesday",
        "hours": "10 AM to 7 PM"
      },
      {
        "day": "Wednesday",
        "hours": "10 AM to 7 PM"
      },
      {
        "day": "Thursday",
        "hours": "10 AM to 7 PM"
      },
      {
        "day": "Friday",
        "hours": "10 AM to 7 PM"
      },
      {
        "day": "Saturday",
        "hours": "10 AM to 7 PM"
      },
      {
        "day": "Sunday",
        "hours": "10 AM to 7 PM"
      }
    ],
    "imageUrl": "https://media.indianluxurycars.com/google/80561f013754d49d9d95420b23bd327d6e117c84cb614e3e786e7e7457aff0f8.jpg",
    "url": "https://www.google.com/maps/search/?api=1&query=Maruti%20Suzuki%20ARENA%20(S.B.%20Cars%2C%20Kanpur%2C%20Fazal%20Ganj)&query_place_id=ChIJAQAAQIxHnDkRs7ZYogyQD8o"
  },
  {
    "title": "Mercedes-Benz Prime Star Kanpur",
    "subTitle": "मर्सिडीज-बेंज प्राइम स्टार कानपुर",
    "categoryName": "Car dealer",
    "address": "ground floor unit no. 1, Chandak Imperial Square, M/S PR Wheels LLP, 16/105, Mahatma Gandhi Rd, Civil Lines, Kanpur, Uttar Pradesh 208001, India",
    "neighborhood": "Civil Lines",
    "street": "ground floor unit no. 1, Chandak Imperial Square, M/S PR Wheels LLP, 16/105, Mahatma Gandhi Rd",
    "city": "Kanpur",
    "postalCode": "208001",
    "state": "Uttar Pradesh",
    "countryCode": "IN",
    "website": "https://www.primestar.mercedes-benz.co.in/passengercars/startpage.html",
    "phone": "+917310373737",
    "phoneUnformatted": "+917310373737",
    "location": {
      "lat": 26.4721618,
      "lng": 80.3549821
    },
    "totalScore": 4.9,
    "permanentlyClosed": false,
    "temporarilyClosed": false,
    "placeId": "ChIJ-bapfk5HnDkRjYYX_V3aFFE",
    "categories": [
      "Car dealer"
    ],
    "reviewsCount": 95,
    "imagesCount": 8,
    "openingHours": [
      {
        "day": "Monday",
        "hours": "10 AM to 7 PM"
      },
      {
        "day": "Tuesday",
        "hours": "10 AM to 7 PM"
      },
      {
        "day": "Wednesday",
        "hours": "10 AM to 7 PM"
      },
      {
        "day": "Thursday",
        "hours": "10 AM to 7 PM"
      },
      {
        "day": "Friday",
        "hours": "10 AM to 7 PM"
      },
      {
        "day": "Saturday",
        "hours": "10 AM to 7 PM"
      },
      {
        "day": "Sunday",
        "hours": "10 AM to 7 PM"
      }
    ],
    "imageUrl": "https://media.indianluxurycars.com/google/b83a6a87ba1c09a1c3f6b01e92257f16d0f3e59e772a4d3ac89e9074633d40e6.jpg",
    "url": "https://www.google.com/maps/search/?api=1&query=Mercedes-Benz%20Prime%20Star%20Kanpur&query_place_id=ChIJ-bapfk5HnDkRjYYX_V3aFFE"
  },
  {
    "title": "Naeem Car Bazar",
    "subTitle": "नईम कार बाजार",
    "categoryName": "Car dealer",
    "address": "12/8, deep talkies road, Juhi Lal Colony, Juhi Kalan, Juhi, Kanpur, Uttar Pradesh 208014, India",
    "neighborhood": "Juhi Lal Colony, Juhi Kalan, Juhi",
    "street": "12/8, deep talkies road",
    "city": "Kanpur",
    "postalCode": "208014",
    "state": "Uttar Pradesh",
    "countryCode": "IN",
    "phone": "+918318325049",
    "phoneUnformatted": "+918318325049",
    "location": {
      "lat": 26.4394804,
      "lng": 80.3123626
    },
    "totalScore": 3.7,
    "permanentlyClosed": false,
    "temporarilyClosed": true,
    "placeId": "ChIJBQ7KEqNHnDkRQ5Mf_RdRAcA",
    "categories": [
      "Car dealer"
    ],
    "reviewsCount": 3,
    "imagesCount": 4,
    "openingHours": [],
    "imageUrl": "https://media.indianluxurycars.com/google/bc85f2a7bb41dfb007e8ad98c8fb3cd2062767a821a284f45a3af8be05031de2.jpg",
    "url": "https://www.google.com/maps/search/?api=1&query=Naeem%20Car%20Bazar&query_place_id=ChIJBQ7KEqNHnDkRQ5Mf_RdRAcA"
  },
  {
    "title": "NAMASTE KANPUR TOUR & TRAVELS",
    "subTitle": "नमस्ते कानपुर टूर & ट्रैवल्स",
    "categoryName": "Car leasing service",
    "address": "Neelam Galaxy Apartment, 127/522, Keshav Nagar, Juhi Kalan, Saket Nagar, Kanpur, Uttar Pradesh 208014, India",
    "neighborhood": "Keshav Nagar, Juhi Kalan, Saket Nagar",
    "street": "Neelam Galaxy Apartment, 127/522",
    "city": "Kanpur",
    "postalCode": "208014",
    "state": "Uttar Pradesh",
    "countryCode": "IN",
    "location": {
      "lat": 26.430915,
      "lng": 80.3143665
    },
    "totalScore": 4.3,
    "permanentlyClosed": false,
    "temporarilyClosed": true,
    "placeId": "ChIJASgduQZHnDkR0d9nSJ5cY0E",
    "categories": [
      "Car leasing service"
    ],
    "reviewsCount": 13,
    "imagesCount": 40,
    "openingHours": [],
    "imageUrl": "https://media.indianluxurycars.com/google/5422953319e93c118bc6fa9a0a8d33c72659a52e9a417bebdd3c219ce00d479f.jpg",
    "url": "https://www.google.com/maps/search/?api=1&query=NAMASTE%20KANPUR%20TOUR%20%26%20TRAVELS&query_place_id=ChIJASgduQZHnDkR0d9nSJ5cY0E"
  },
  {
    "title": "National Tour & Travels",
    "subTitle": "राष्ट्रीय टूर और ट्रेवल्स",
    "categoryName": "Car dealer",
    "address": "535, in front of Tripathi Guest House, B Block, Panki, Kanpur, Uttar Pradesh 208020, India",
    "neighborhood": "B Block, Panki",
    "street": "535, in front of Tripathi Guest House",
    "city": "Kanpur",
    "postalCode": "208020",
    "state": "Uttar Pradesh",
    "countryCode": "IN",
    "phone": "+919889246432",
    "phoneUnformatted": "+919889246432",
    "location": {
      "lat": 26.4665564,
      "lng": 80.2510049
    },
    "totalScore": 4,
    "permanentlyClosed": false,
    "temporarilyClosed": false,
    "placeId": "ChIJBcsW7943nDkRtt3zfNs7n8U",
    "categories": [
      "Car dealer",
      "Bus company",
      "Bus tour agency",
      "Car leasing service",
      "Car rental agency",
      "Helicopter tour agency",
      "Tour agency",
      "Travel agency"
    ],
    "reviewsCount": 9,
    "imagesCount": 224,
    "openingHours": [],
    "imageUrl": "https://media.indianluxurycars.com/google/878b6c18bb9c790121d512945037af178328de6a2726c2b6b73eb35122d4a014.jpg",
    "url": "https://www.google.com/maps/search/?api=1&query=National%20Tour%20%26%20Travels&query_place_id=ChIJBcsW7943nDkRtt3zfNs7n8U"
  },
  {
    "title": "NEXA (My Car, Kanpur, GT Road)",
    "subTitle": "नेक्सा (माई कार, कानपुर, जीटी रोड)",
    "categoryName": "Car dealer",
    "address": "86/275, Afim Kothi, Bansmandi, Cooperganj, Kanpur, Uttar Pradesh 208003, India",
    "neighborhood": "Afim Kothi, Bansmandi, Cooperganj",
    "street": "86/275",
    "city": "Kanpur",
    "postalCode": "208003",
    "state": "Uttar Pradesh",
    "countryCode": "IN",
    "website": "https://www.nexaofgtroadkanpur.com/?utm_source=gmb&utm_medium=google&utm_campaign=seo-local",
    "phone": "+918062511297",
    "phoneUnformatted": "+918062511297",
    "location": {
      "lat": 26.4563542,
      "lng": 80.3334578
    },
    "totalScore": 4.6,
    "permanentlyClosed": false,
    "temporarilyClosed": false,
    "placeId": "ChIJ76IQ4ZBHnDkRxxfJP26SclQ",
    "categories": [
      "Car dealer"
    ],
    "reviewsCount": 1601,
    "imagesCount": 514,
    "openingHours": [
      {
        "day": "Monday",
        "hours": "10 AM to 8 PM"
      },
      {
        "day": "Tuesday",
        "hours": "10 AM to 8 PM"
      },
      {
        "day": "Wednesday",
        "hours": "10 AM to 8 PM"
      },
      {
        "day": "Thursday",
        "hours": "10 AM to 8 PM"
      },
      {
        "day": "Friday",
        "hours": "10 AM to 8 PM"
      },
      {
        "day": "Saturday",
        "hours": "10 AM to 8 PM"
      },
      {
        "day": "Sunday",
        "hours": "10 AM to 8 PM"
      }
    ],
    "imageUrl": "https://media.indianluxurycars.com/google/f8eae418f792ad4520e5f3b9ed176c281284c8c24eb93c45918a1ba5741ffea5.jpg",
    "url": "https://www.google.com/maps/search/?api=1&query=NEXA%20(My%20Car%2C%20Kanpur%2C%20GT%20Road)&query_place_id=ChIJ76IQ4ZBHnDkRxxfJP26SclQ"
  },
  {
    "title": "Pre-owned wheels | Car Dealer | Car Finance - Kanpur",
    "subTitle": "प्री-ओन्ड व्हील्स | कार डीलर | कार फाइनेंस - कानपुर",
    "categoryName": "Used car dealer",
    "address": "Shop No 45-46, JK Temple, Market, Lajpat Nagar, Narainpurwa, Kanpur, Uttar Pradesh 208005, India",
    "neighborhood": "Lajpat Nagar, Narainpurwa",
    "street": "Shop No 45-46, JK Temple, Market",
    "city": "Kanpur",
    "postalCode": "208005",
    "state": "Uttar Pradesh",
    "countryCode": "IN",
    "website": "https://www.preownedwheelscars.com/",
    "phone": "+919118930505",
    "phoneUnformatted": "+919118930505",
    "location": {
      "lat": 26.4726094,
      "lng": 80.3053983
    },
    "totalScore": 5,
    "permanentlyClosed": false,
    "temporarilyClosed": false,
    "placeId": "ChIJHb_5_8Q5nDkRh4f4KIdcDCw",
    "categories": [
      "Used car dealer"
    ],
    "reviewsCount": 11,
    "imagesCount": 2,
    "openingHours": [
      {
        "day": "Monday",
        "hours": "11 AM to 7 PM"
      },
      {
        "day": "Tuesday",
        "hours": "11 AM to 7 PM"
      },
      {
        "day": "Wednesday",
        "hours": "11 AM to 7 PM"
      },
      {
        "day": "Thursday",
        "hours": "11 AM to 7 PM"
      },
      {
        "day": "Friday",
        "hours": "11 AM to 7 PM"
      },
      {
        "day": "Saturday",
        "hours": "11 AM to 7 PM"
      },
      {
        "day": "Sunday",
        "hours": "Closed"
      }
    ],
    "imageUrl": "https://media.indianluxurycars.com/google/3827a1120f11ab95427fe4871369a1a87cb976a81cbe313c713cfff91e5fce0b.jpg",
    "url": "https://www.google.com/maps/search/?api=1&query=Pre-owned%20wheels%20%7C%20Car%20Dealer%20%7C%20Car%20Finance%20-%20Kanpur&query_place_id=ChIJHb_5_8Q5nDkRh4f4KIdcDCw"
  },
  {
    "title": "Purvi Car Rental | Tempo Traveller in kanpur",
    "subTitle": "पूर्वी कार रेंटल | टेम्पो ट्रैवलर इन कानपुर",
    "categoryName": "Car rental agency",
    "address": "133/768, Naya Purwa, Transport Nagar, Kidwai Nagar, Kanpur, Uttar Pradesh 208023, India",
    "neighborhood": "Naya Purwa, Transport Nagar, Kidwai Nagar",
    "street": "133/768",
    "city": "Kanpur",
    "postalCode": "208023",
    "state": "Uttar Pradesh",
    "countryCode": "IN",
    "website": "https://purvicarrental.diginweb.com/",
    "phone": "+919335774658",
    "phoneUnformatted": "+919335774658",
    "location": {
      "lat": 26.438316,
      "lng": 80.3285021
    },
    "totalScore": 4.9,
    "permanentlyClosed": false,
    "temporarilyClosed": false,
    "placeId": "ChIJo4buI5lHnDkR_d2ZI0pIPr8",
    "categories": [
      "Car rental agency",
      "Bus tour agency",
      "Car leasing service",
      "Minibus taxi service",
      "Taxi service",
      "Travel agency"
    ],
    "reviewsCount": 137,
    "imagesCount": 175,
    "openingHours": [
      {
        "day": "Monday",
        "hours": "Open 24 hours"
      },
      {
        "day": "Tuesday",
        "hours": "Open 24 hours"
      },
      {
        "day": "Wednesday",
        "hours": "Open 24 hours"
      },
      {
        "day": "Thursday",
        "hours": "Open 24 hours"
      },
      {
        "day": "Friday",
        "hours": "Open 24 hours"
      },
      {
        "day": "Saturday",
        "hours": "Open 24 hours"
      },
      {
        "day": "Sunday",
        "hours": "Open 24 hours"
      }
    ],
    "imageUrl": "https://media.indianluxurycars.com/google/b59e5303b0f6560540ba33f75c9e05bf993322bd3348b891f82fa3e2e16fc7fa.jpg",
    "url": "https://www.google.com/maps/search/?api=1&query=Purvi%20Car%20Rental%20%7C%20Tempo%20Traveller%20in%20kanpur&query_place_id=ChIJo4buI5lHnDkR_d2ZI0pIPr8"
  },
  {
    "title": "Raj travells",
    "subTitle": "राज ट्रावेल्स",
    "categoryName": "Car rental agency",
    "address": "Mall Rd, Sadr Bazaar, Mirpur, Kanpur, Uttar Pradesh 208001, India",
    "neighborhood": "Sadr Bazaar, Mirpur",
    "street": "Mall Rd",
    "city": "Kanpur",
    "postalCode": "208001",
    "state": "Uttar Pradesh",
    "countryCode": "IN",
    "location": {
      "lat": 26.4596089,
      "lng": 80.3598404
    },
    "totalScore": 3,
    "permanentlyClosed": false,
    "temporarilyClosed": false,
    "placeId": "ChIJy7L9vERHnDkRoNiNoLRr0tU",
    "categories": [
      "Car rental agency",
      "Car leasing service",
      "City department of transportation",
      "Import export company",
      "Manufactured home transporter",
      "Transportation service",
      "Travel agency"
    ],
    "reviewsCount": 2,
    "imagesCount": 5,
    "openingHours": [
      {
        "day": "Monday",
        "hours": "Open 24 hours"
      },
      {
        "day": "Tuesday",
        "hours": "Open 24 hours"
      },
      {
        "day": "Wednesday",
        "hours": "Open 24 hours"
      },
      {
        "day": "Thursday",
        "hours": "Open 24 hours"
      },
      {
        "day": "Friday",
        "hours": "Open 24 hours"
      },
      {
        "day": "Saturday",
        "hours": "Open 24 hours"
      },
      {
        "day": "Sunday",
        "hours": "Open 24 hours"
      }
    ],
    "imageUrl": "https://media.indianluxurycars.com/google/469d7d7d7a0a2af8699abee103e23ec8a9681d1e16202224290ea1f0672f6b57.jpg",
    "url": "https://www.google.com/maps/search/?api=1&query=Raj%20travells&query_place_id=ChIJy7L9vERHnDkRoNiNoLRr0tU"
  },
  {
    "title": "Rajput Holidays",
    "subTitle": "राजपूत हॉलीडेज प्राइवेट लिमिटेड",
    "categoryName": "Car rental agency",
    "address": "F 205, Gujaini, Kanpur, Uttar Pradesh 208022, India",
    "neighborhood": "Gujaini",
    "street": "F 205",
    "city": "Kanpur",
    "postalCode": "208022",
    "state": "Uttar Pradesh",
    "countryCode": "IN",
    "website": "https://www.rajputholidays.com/car-rental-in-kanpur",
    "phone": "+918448445561",
    "phoneUnformatted": "+918448445561",
    "location": {
      "lat": 26.4424959,
      "lng": 80.2729729
    },
    "totalScore": 4.8,
    "permanentlyClosed": false,
    "temporarilyClosed": false,
    "placeId": "ChIJy5Bo58D7YjkRWUt4W7ga5nU",
    "categories": [
      "Car rental agency",
      "Airport shuttle service",
      "Car leasing service",
      "Logistics service",
      "Taxi service",
      "Tour operator",
      "Tourist information center",
      "Transportation service",
      "Travel agency"
    ],
    "reviewsCount": 47,
    "imagesCount": 41,
    "openingHours": [
      {
        "day": "Monday",
        "hours": "6 AM to 10:30 PM"
      },
      {
        "day": "Tuesday",
        "hours": "6 AM to 10:30 PM"
      },
      {
        "day": "Wednesday",
        "hours": "6 AM to 10:30 PM"
      },
      {
        "day": "Thursday",
        "hours": "6 AM to 10:30 PM"
      },
      {
        "day": "Friday",
        "hours": "6 AM to 10:30 PM"
      },
      {
        "day": "Saturday",
        "hours": "6 AM to 10:30 PM"
      },
      {
        "day": "Sunday",
        "hours": "6 AM to 10:30 PM"
      }
    ],
    "imageUrl": "https://media.indianluxurycars.com/google/00d5a8b0c8cbe4f722f4cc94a2583dd6faa372f967448275fbd0f6bb21c311a8.jpg",
    "url": "https://www.google.com/maps/search/?api=1&query=Rajput%20Holidays&query_place_id=ChIJy5Bo58D7YjkRWUt4W7ga5nU"
  },
  {
    "title": "Rajput Holidays",
    "subTitle": "राजपूत होलीडेज",
    "categoryName": "Car leasing service",
    "address": "C16 mig, near KDMA SCHOOL, E Block, Barra 8, Barra, Kanpur, Uttar Pradesh 208027, India",
    "neighborhood": "E Block, Barra 8, Barra",
    "street": "C16 mig, near KDMA SCHOOL",
    "city": "Kanpur",
    "postalCode": "208027",
    "state": "Uttar Pradesh",
    "countryCode": "IN",
    "website": "https://www.rajputholidays.com/car-rental-in-kanpur/",
    "phone": "+918448445561",
    "phoneUnformatted": "+918448445561",
    "location": {
      "lat": 26.4330152,
      "lng": 80.2874302
    },
    "totalScore": 5,
    "permanentlyClosed": false,
    "temporarilyClosed": false,
    "placeId": "ChIJl_L6yhFHnDkREuUM51TS3yM",
    "categories": [
      "Car leasing service",
      "Car rental agency",
      "Tour agency",
      "Tour operator"
    ],
    "reviewsCount": 2,
    "imagesCount": 6,
    "openingHours": [
      {
        "day": "Monday",
        "hours": "9 AM to 8 PM"
      },
      {
        "day": "Tuesday",
        "hours": "9 AM to 8 PM"
      },
      {
        "day": "Wednesday",
        "hours": "9 AM to 8 PM"
      },
      {
        "day": "Thursday",
        "hours": "9 AM to 8 PM"
      },
      {
        "day": "Friday",
        "hours": "9 AM to 8 PM"
      },
      {
        "day": "Saturday",
        "hours": "9 AM to 8 PM"
      },
      {
        "day": "Sunday",
        "hours": "9 AM to 8 PM"
      }
    ],
    "imageUrl": "https://media.indianluxurycars.com/google/c270780bb690a491529ba4368b9e246a599736891e7881c2f7ae404cc9e6585c.jpg",
    "url": "https://www.google.com/maps/search/?api=1&query=Rajput%20Holidays&query_place_id=ChIJl_L6yhFHnDkREuUM51TS3yM"
  },
  {
    "title": "Rave Motors - Used Cars & Car Accessories",
    "subTitle": "बड़बड़ाना मोटर्स - कार बाजार",
    "categoryName": "Car dealer",
    "address": "111/146 A, Chandra Gupta Rd, Harsh Nagar, Kanpur, Uttar Pradesh 208012, India",
    "neighborhood": "Harsh Nagar",
    "street": "111/146 A, Chandra Gupta Rd",
    "city": "Kanpur",
    "postalCode": "208012",
    "state": "Uttar Pradesh",
    "countryCode": "IN",
    "phone": "+919415050975",
    "phoneUnformatted": "+919415050975",
    "location": {
      "lat": 26.4748634,
      "lng": 80.323456
    },
    "totalScore": 4.7,
    "permanentlyClosed": false,
    "temporarilyClosed": false,
    "placeId": "ChIJmxIEI4c4nDkRwAWxgbReQKA",
    "categories": [
      "Car dealer",
      "Car accessories store",
      "Used car dealer"
    ],
    "reviewsCount": 35,
    "imagesCount": 29,
    "openingHours": [
      {
        "day": "Monday",
        "hours": "10:30 AM to 8:30 PM"
      },
      {
        "day": "Tuesday",
        "hours": "10:30 AM to 8:30 PM"
      },
      {
        "day": "Wednesday",
        "hours": "10:30 AM to 8:30 PM"
      },
      {
        "day": "Thursday",
        "hours": "10:30 AM to 8:30 PM"
      },
      {
        "day": "Friday",
        "hours": "10:30 AM to 8:30 PM"
      },
      {
        "day": "Saturday",
        "hours": "10:30 AM to 8:30 PM"
      },
      {
        "day": "Sunday",
        "hours": "10:30 AM to 6 PM"
      }
    ],
    "imageUrl": "https://media.indianluxurycars.com/google/c780e55d7c6298eb8ab6aaf347c9a39f5989dafcc30ad3d31ba96ff145c6480b.jpg",
    "url": "https://www.google.com/maps/search/?api=1&query=Rave%20Motors%20-%20Used%20Cars%20%26%20Car%20Accessories&query_place_id=ChIJmxIEI4c4nDkRwAWxgbReQKA"
  },
  {
    "title": "Real Price Car",
    "subTitle": "रियल प्राइस कार",
    "categoryName": "Used car dealer",
    "address": "128/17, K Block, Kidwai Nagar, Kanpur, Uttar Pradesh 208011, India",
    "neighborhood": "K Block, Kidwai Nagar",
    "street": "128/17",
    "city": "Kanpur",
    "postalCode": "208011",
    "state": "Uttar Pradesh",
    "countryCode": "IN",
    "website": "https://www.justdial.com/Kanpur/Real-Price-Cars-Near-Anjali-Hospital-Barra-II/0512PX512-X512-170713121602-C1R7_BZDET",
    "phone": "+918090800033",
    "phoneUnformatted": "+918090800033",
    "location": {
      "lat": 26.426037,
      "lng": 80.3203375
    },
    "totalScore": 4,
    "permanentlyClosed": false,
    "temporarilyClosed": false,
    "placeId": "ChIJQVBWMAVHnDkRmkPO9e4JKso",
    "categories": [
      "Used car dealer",
      "Car dealer"
    ],
    "reviewsCount": 45,
    "imagesCount": 41,
    "openingHours": [
      {
        "day": "Monday",
        "hours": "10 AM to 8 PM"
      },
      {
        "day": "Tuesday",
        "hours": "10 AM to 8 PM"
      },
      {
        "day": "Wednesday",
        "hours": "10 AM to 8 PM"
      },
      {
        "day": "Thursday",
        "hours": "10 AM to 8 PM"
      },
      {
        "day": "Friday",
        "hours": "10 AM to 8 PM"
      },
      {
        "day": "Saturday",
        "hours": "10 AM to 8 PM"
      },
      {
        "day": "Sunday",
        "hours": "10 AM to 6:30 PM"
      }
    ],
    "imageUrl": "https://media.indianluxurycars.com/google/33fd3cf022faa34df6a974a511fd59a0f8a8aaa664e1e4360a9090d611b5edf8.jpg",
    "url": "https://www.google.com/maps/search/?api=1&query=Real%20Price%20Car&query_place_id=ChIJQVBWMAVHnDkRmkPO9e4JKso"
  },
  {
    "title": "Royal Cars Kanpur",
    "subTitle": "रॉयल कार्स कानपुर",
    "categoryName": "Car dealer",
    "address": "112, 344, Khalasi Line, Swaroop Nagar, Kanpur, Uttar Pradesh 208002, India",
    "neighborhood": "Khalasi Line, Swaroop Nagar",
    "street": "112, 344",
    "city": "Kanpur",
    "postalCode": "208002",
    "state": "Uttar Pradesh",
    "countryCode": "IN",
    "location": {
      "lat": 26.4814057,
      "lng": 80.3171334
    },
    "totalScore": 5,
    "permanentlyClosed": false,
    "temporarilyClosed": true,
    "placeId": "ChIJme1z5785nDkR9Ptr7rQ_Hw0",
    "categories": [
      "Car dealer",
      "Car finance and loan company",
      "Insurance broker"
    ],
    "reviewsCount": 34,
    "imagesCount": 6,
    "openingHours": [],
    "imageUrl": "https://media.indianluxurycars.com/google/86651789cdbdd73aa2bd0d71424369486ac87db46d2fa071ff92a8e942c6c9da.jpg",
    "url": "https://www.google.com/maps/search/?api=1&query=Royal%20Cars%20Kanpur&query_place_id=ChIJme1z5785nDkR9Ptr7rQ_Hw0"
  },
  {
    "title": "Safe & Fast Car Rental | Car hire in kanpur | Luxury and Wedding Car rental in Kanpur | Car on rent in kanpur",
    "subTitle": "सेफ & फास्ट कार रेंटल | कार हीरे इन कानपुर | लक्जरी एंड वेडिंग कार रेंटल इन कानपुर | कार ऑन रेंट इन कानपुर",
    "categoryName": "Car leasing service",
    "address": "Chat Chauraha, Khalasi Line, Swaroop Nagar, Kanpur, Uttar Pradesh 208002, India",
    "neighborhood": "Chat Chauraha, Khalasi Line, Swaroop Nagar",
    "city": "Kanpur",
    "postalCode": "208002",
    "state": "Uttar Pradesh",
    "countryCode": "IN",
    "phone": "+919696943830",
    "phoneUnformatted": "+919696943830",
    "location": {
      "lat": 26.4818755,
      "lng": 80.3177518
    },
    "totalScore": 5,
    "permanentlyClosed": false,
    "temporarilyClosed": false,
    "placeId": "ChIJ4bhRcdE5nDkR3D8uS8gxzDM",
    "categories": [
      "Car leasing service",
      "Car rental agency",
      "Taxi service"
    ],
    "reviewsCount": 11,
    "imagesCount": 12,
    "openingHours": [
      {
        "day": "Monday",
        "hours": "Open 24 hours"
      },
      {
        "day": "Tuesday",
        "hours": "Open 24 hours"
      },
      {
        "day": "Wednesday",
        "hours": "Open 24 hours"
      },
      {
        "day": "Thursday",
        "hours": "Open 24 hours"
      },
      {
        "day": "Friday",
        "hours": "Open 24 hours"
      },
      {
        "day": "Saturday",
        "hours": "Open 24 hours"
      },
      {
        "day": "Sunday",
        "hours": "Open 24 hours"
      }
    ],
    "imageUrl": "https://media.indianluxurycars.com/google/6ed2816f2d7bc42b57bec20dcb78c9392805a2627d4640837af3cc5f09102228.jpg",
    "url": "https://www.google.com/maps/search/?api=1&query=Safe%20%26%20Fast%20Car%20Rental%20%7C%20Car%20hire%20in%20kanpur%20%7C%20Luxury%20and%20Wedding%20Car%20rental%20in%20Kanpur%20%7C%20Car%20on%20rent%20in%20kanpur&query_place_id=ChIJ4bhRcdE5nDkR3D8uS8gxzDM"
  },
  {
    "title": "Sardar Motors (Car Bazar)",
    "subTitle": "सरदार मोटर्स कार बाजार",
    "categoryName": "Used car dealer",
    "address": "LOWER GROUND FLOOR, BHR COMPLEX, 119/538-A, opp. Chamanlal market, Chapman Ganj, Gumti No.5, Darshan Purwa, Kanpur, Uttar Pradesh 208012, India",
    "neighborhood": "Chapman Ganj, Gumti No.5, Darshan Purwa",
    "street": "LOWER GROUND FLOOR, BHR COMPLEX, 119/538-A, opp. Chamanlal market",
    "city": "Kanpur",
    "postalCode": "208012",
    "state": "Uttar Pradesh",
    "countryCode": "IN",
    "phone": "+915123230011",
    "phoneUnformatted": "+915123230011",
    "location": {
      "lat": 26.4652067,
      "lng": 80.3125166
    },
    "totalScore": 4,
    "permanentlyClosed": false,
    "temporarilyClosed": false,
    "placeId": "ChIJw2RMWH84nDkRyW7wcsGiZ-M",
    "categories": [
      "Used car dealer"
    ],
    "reviewsCount": 24,
    "imagesCount": 28,
    "openingHours": [
      {
        "day": "Monday",
        "hours": "10 AM to 8 PM"
      },
      {
        "day": "Tuesday",
        "hours": "10 AM to 8 PM"
      },
      {
        "day": "Wednesday",
        "hours": "10 AM to 8 PM"
      },
      {
        "day": "Thursday",
        "hours": "10 AM to 8 PM"
      },
      {
        "day": "Friday",
        "hours": "10 AM to 8 PM"
      },
      {
        "day": "Saturday",
        "hours": "10 AM to 8 PM"
      },
      {
        "day": "Sunday",
        "hours": "Closed"
      }
    ],
    "imageUrl": "https://media.indianluxurycars.com/google/2e0ebc3a2a919f634541e4712d9d5aa2589c5186c660f5751c06a2f7fcbddaaf.jpg",
    "url": "https://www.google.com/maps/search/?api=1&query=Sardar%20Motors%20(Car%20Bazar)&query_place_id=ChIJw2RMWH84nDkRyW7wcsGiZ-M"
  },
  {
    "title": "Sharma Taxi Services",
    "subTitle": "शर्मा टैक्सी",
    "categoryName": "Car leasing service",
    "address": "1/12, Laxmi Ratan Colony, Lajpat Nagar, Narainpurwa, Kanpur, Uttar Pradesh 208005, India",
    "neighborhood": "Laxmi Ratan Colony, Lajpat Nagar, Narainpurwa",
    "street": "1/12",
    "city": "Kanpur",
    "postalCode": "208005",
    "state": "Uttar Pradesh",
    "countryCode": "IN",
    "website": "https://sharmataxiservices.in/",
    "phone": "+918081386908",
    "phoneUnformatted": "+918081386908",
    "location": {
      "lat": 26.4701711,
      "lng": 80.3075313
    },
    "totalScore": 4.8,
    "permanentlyClosed": false,
    "temporarilyClosed": false,
    "placeId": "ChIJH5QQJINHnDkR9JUhWhARt1Y",
    "categories": [
      "Car leasing service",
      "Car rental agency"
    ],
    "reviewsCount": 181,
    "imagesCount": 43,
    "openingHours": [
      {
        "day": "Monday",
        "hours": "Open 24 hours"
      },
      {
        "day": "Tuesday",
        "hours": "Open 24 hours"
      },
      {
        "day": "Wednesday",
        "hours": "Open 24 hours"
      },
      {
        "day": "Thursday",
        "hours": "Open 24 hours"
      },
      {
        "day": "Friday",
        "hours": "Open 24 hours"
      },
      {
        "day": "Saturday",
        "hours": "Open 24 hours"
      },
      {
        "day": "Sunday",
        "hours": "Open 24 hours"
      }
    ],
    "imageUrl": "https://media.indianluxurycars.com/google/4771038e2f3fe49e31988663deabc7ad10af2b944329154d99c3b30e575556ce.jpg",
    "url": "https://www.google.com/maps/search/?api=1&query=Sharma%20Taxi%20Services&query_place_id=ChIJH5QQJINHnDkR9JUhWhARt1Y"
  },
  {
    "title": "Shri khatu shyam tour & travels",
    "subTitle": "श्री खाटू श्याम टूर & ट्रैवल्स",
    "categoryName": "Car rental agency",
    "address": "516 a k block, Yashoda Nagar, Kanpur, Uttar Pradesh 208011, India",
    "neighborhood": "Yashoda Nagar",
    "street": "516 a k block",
    "city": "Kanpur",
    "postalCode": "208011",
    "state": "Uttar Pradesh",
    "countryCode": "IN",
    "website": "http://www.shrikhatushyamtravels.com/",
    "phone": "+919140115198",
    "phoneUnformatted": "+919140115198",
    "location": {
      "lat": 26.4067805,
      "lng": 80.3389363
    },
    "totalScore": 4.8,
    "permanentlyClosed": false,
    "temporarilyClosed": false,
    "placeId": "ChIJhyf8HJtHnDkRxLxsEmkEkME",
    "categories": [
      "Car rental agency"
    ],
    "reviewsCount": 66,
    "imagesCount": 49,
    "openingHours": [
      {
        "day": "Monday",
        "hours": "Open 24 hours"
      },
      {
        "day": "Tuesday",
        "hours": "Open 24 hours"
      },
      {
        "day": "Wednesday",
        "hours": "Open 24 hours"
      },
      {
        "day": "Thursday",
        "hours": "Open 24 hours"
      },
      {
        "day": "Friday",
        "hours": "Open 24 hours"
      },
      {
        "day": "Saturday",
        "hours": "Open 24 hours"
      },
      {
        "day": "Sunday",
        "hours": "Open 24 hours"
      }
    ],
    "imageUrl": "https://media.indianluxurycars.com/google/c3efe6c4fb37861a2fd6d2222547b4245dc59fbd40feede30b3a568927efc8b9.jpg",
    "url": "https://www.google.com/maps/search/?api=1&query=Shri%20khatu%20shyam%20tour%20%26%20travels&query_place_id=ChIJhyf8HJtHnDkRxLxsEmkEkME"
  },
  {
    "title": "Shri Sai Car-Carwale Absure Kanpur",
    "subTitle": "श्री साई कार-कारवाले अब्सर कानपुर",
    "categoryName": "Used car dealer",
    "address": "111/449, 80 Feet Rd, Ashok Nagar, Harsh Nagar, Kanpur, Uttar Pradesh 208012, India",
    "neighborhood": "Ashok Nagar, Harsh Nagar",
    "street": "111/449, 80 Feet Rd",
    "city": "Kanpur",
    "postalCode": "208012",
    "state": "Uttar Pradesh",
    "countryCode": "IN",
    "phone": "+919935744626",
    "phoneUnformatted": "+919935744626",
    "location": {
      "lat": 26.4727367,
      "lng": 80.3229247
    },
    "totalScore": 4.9,
    "permanentlyClosed": false,
    "temporarilyClosed": false,
    "placeId": "ChIJsxaoJlw5nDkRAXaK-AIzWOA",
    "categories": [
      "Used car dealer",
      "Car dealer"
    ],
    "reviewsCount": 867,
    "imagesCount": 214,
    "openingHours": [
      {
        "day": "Monday",
        "hours": "10:30 AM to 8:30 PM"
      },
      {
        "day": "Tuesday",
        "hours": "10:30 AM to 8:30 PM"
      },
      {
        "day": "Wednesday",
        "hours": "10:30 AM to 8:30 PM"
      },
      {
        "day": "Thursday",
        "hours": "10:30 AM to 8:30 PM"
      },
      {
        "day": "Friday",
        "hours": "10:30 AM to 8:30 PM"
      },
      {
        "day": "Saturday",
        "hours": "10:30 AM to 8:30 PM"
      },
      {
        "day": "Sunday",
        "hours": "10:30 AM to 6:30 PM"
      }
    ],
    "imageUrl": "https://media.indianluxurycars.com/google/87a82122da7dfed9e297d19c6c363da912ed944182ba408fe02b45a12b0d73a1.jpg",
    "url": "https://www.google.com/maps/search/?api=1&query=Shri%20Sai%20Car-Carwale%20Absure%20Kanpur&query_place_id=ChIJsxaoJlw5nDkRAXaK-AIzWOA"
  },
  {
    "title": "Shubhyatratravels and holidays",
    "subTitle": "शुभयात्राट्रैवल्स एंड होलीडेज",
    "categoryName": "Car rental agency",
    "address": "127/1209, W2, Vasant Vihar, Naubasta, Kanpur, Uttar Pradesh 208021, India",
    "neighborhood": "Vasant Vihar, Naubasta",
    "street": "127/1209, W2",
    "city": "Kanpur",
    "postalCode": "208021",
    "state": "Uttar Pradesh",
    "countryCode": "IN",
    "phone": "+918299532175",
    "phoneUnformatted": "+918299532175",
    "location": {
      "lat": 26.4208891,
      "lng": 80.315855
    },
    "totalScore": 5,
    "permanentlyClosed": false,
    "temporarilyClosed": false,
    "placeId": "ChIJJW9FO2BHnDkR6pM8-UHoF9w",
    "categories": [
      "Car rental agency"
    ],
    "reviewsCount": 71,
    "imagesCount": 191,
    "openingHours": [
      {
        "day": "Monday",
        "hours": "Open 24 hours"
      },
      {
        "day": "Tuesday",
        "hours": "Open 24 hours"
      },
      {
        "day": "Wednesday",
        "hours": "Open 24 hours"
      },
      {
        "day": "Thursday",
        "hours": "Open 24 hours"
      },
      {
        "day": "Friday",
        "hours": "Open 24 hours"
      },
      {
        "day": "Saturday",
        "hours": "Open 24 hours"
      },
      {
        "day": "Sunday",
        "hours": "Open 24 hours"
      }
    ],
    "imageUrl": "https://media.indianluxurycars.com/google/693999035d2cbafb5aa0dcd0b9e9ae9d92929f96e8af6bdb4981da29c117c639.jpg",
    "url": "https://www.google.com/maps/search/?api=1&query=Shubhyatratravels%20and%20holidays&query_place_id=ChIJJW9FO2BHnDkR6pM8-UHoF9w"
  },
  {
    "title": "Shyam Tour and Travels",
    "subTitle": "श्याम टूर एंड ट्रैवल्स",
    "categoryName": "Car rental agency",
    "address": "288, Yashoda Nagar Rd, Deoki Nagar, Yashoda Nagar, Kanpur, Uttar Pradesh 208011, India",
    "neighborhood": "Deoki Nagar, Yashoda Nagar",
    "street": "288, Yashoda Nagar Rd",
    "city": "Kanpur",
    "postalCode": "208011",
    "state": "Uttar Pradesh",
    "countryCode": "IN",
    "location": {
      "lat": 26.4080447,
      "lng": 80.3384218
    },
    "totalScore": 4.9,
    "permanentlyClosed": false,
    "temporarilyClosed": false,
    "placeId": "ChIJFcJIQABHnDkRxy52WxyMNwY",
    "categories": [
      "Car rental agency"
    ],
    "reviewsCount": 17,
    "imagesCount": 28,
    "openingHours": [
      {
        "day": "Monday",
        "hours": "Open 24 hours"
      },
      {
        "day": "Tuesday",
        "hours": "Open 24 hours"
      },
      {
        "day": "Wednesday",
        "hours": "Open 24 hours"
      },
      {
        "day": "Thursday",
        "hours": "Open 24 hours"
      },
      {
        "day": "Friday",
        "hours": "Open 24 hours"
      },
      {
        "day": "Saturday",
        "hours": "Open 24 hours"
      },
      {
        "day": "Sunday",
        "hours": "Open 24 hours"
      }
    ],
    "imageUrl": "https://media.indianluxurycars.com/google/cefe3d827481f33fea09eb1099ffff943b03ac8153c671fd1516d683f3169ef5.jpg",
    "url": "https://www.google.com/maps/search/?api=1&query=Shyam%20Tour%20and%20Travels&query_place_id=ChIJFcJIQABHnDkRxy52WxyMNwY"
  },
  {
    "title": "Singh Tour & Travels",
    "subTitle": "सिंह टूर & ट्रैवल्स",
    "categoryName": "Car rental agency",
    "address": "A 516, Subji Mandi Rd, Barra 4, Barra, Kanpur, Uttar Pradesh 208027, India",
    "neighborhood": "Barra 4, Barra",
    "street": "A 516, Subji Mandi Rd",
    "city": "Kanpur",
    "postalCode": "208027",
    "state": "Uttar Pradesh",
    "countryCode": "IN",
    "website": "https://singhtourntravels.blogspot.com/",
    "phone": "+919807173464",
    "phoneUnformatted": "+919807173464",
    "location": {
      "lat": 26.4177018,
      "lng": 80.2982165
    },
    "totalScore": 4.8,
    "permanentlyClosed": false,
    "temporarilyClosed": false,
    "placeId": "ChIJBe93WjNHnDkRZRmjdgRl3NU",
    "categories": [
      "Car rental agency",
      "Bus tour agency",
      "Car leasing service",
      "Minibus taxi service",
      "Taxi service",
      "Tour operator",
      "Travel agency"
    ],
    "reviewsCount": 147,
    "imagesCount": 188,
    "openingHours": [
      {
        "day": "Monday",
        "hours": "Open 24 hours"
      },
      {
        "day": "Tuesday",
        "hours": "Open 24 hours"
      },
      {
        "day": "Wednesday",
        "hours": "Open 24 hours"
      },
      {
        "day": "Thursday",
        "hours": "Open 24 hours"
      },
      {
        "day": "Friday",
        "hours": "Open 24 hours"
      },
      {
        "day": "Saturday",
        "hours": "Open 24 hours"
      },
      {
        "day": "Sunday",
        "hours": "Open 24 hours"
      }
    ],
    "imageUrl": "https://media.indianluxurycars.com/google/00a2a7a7265f7b6fb0573ce450a0895d5ba254d497d68761021759b3dc4b58dc.jpg",
    "url": "https://www.google.com/maps/search/?api=1&query=Singh%20Tour%20%26%20Travels&query_place_id=ChIJBe93WjNHnDkRZRmjdgRl3NU"
  },
  {
    "title": "ŠKODA Service Centre",
    "subTitle": "स्कोडा सर्विस सेंटर",
    "categoryName": "Auto repair shop",
    "address": "82/A, Dada Nagar, Azad Nagar, Kanpur, Uttar Pradesh 208022, India",
    "neighborhood": "Dada Nagar, Azad Nagar",
    "street": "82/A",
    "city": "Kanpur",
    "postalCode": "208022",
    "state": "Uttar Pradesh",
    "countryCode": "IN",
    "website": "https://dealers.skoda-auto.co.in/skoda-service-centre-speed-automotive-pvt-ltd-car-dealer-dada-nagar-kanpur-nagar-137392/Home?utm_source=locator&utm_medium=googleplaces",
    "phone": "+918810719362",
    "phoneUnformatted": "+918810719362",
    "location": {
      "lat": 26.4543979,
      "lng": 80.2782955
    },
    "totalScore": 4.5,
    "permanentlyClosed": false,
    "temporarilyClosed": false,
    "placeId": "ChIJx5C9FP1HnDkRxP-L9iJ7S9M",
    "categories": [
      "Auto repair shop",
      "Car accessories store",
      "Car dealer",
      "Skoda dealer"
    ],
    "reviewsCount": 19,
    "imagesCount": 17,
    "openingHours": [
      {
        "day": "Monday",
        "hours": "9:30 AM to 6 PM"
      },
      {
        "day": "Tuesday",
        "hours": "9:30 AM to 6 PM"
      },
      {
        "day": "Wednesday",
        "hours": "9:30 AM to 6 PM"
      },
      {
        "day": "Thursday",
        "hours": "9:30 AM to 6 PM"
      },
      {
        "day": "Friday",
        "hours": "9:30 AM to 6 PM"
      },
      {
        "day": "Saturday",
        "hours": "9:30 AM to 5 PM"
      },
      {
        "day": "Sunday",
        "hours": "Closed"
      }
    ],
    "imageUrl": "https://media.indianluxurycars.com/google/8db467a8a4df6d4714b2436f62dc014f7140d5bf11f80a62a2c0cafa137ea411.jpg",
    "url": "https://www.google.com/maps/search/?api=1&query=%C5%A0KODA%20Service%20Centre&query_place_id=ChIJx5C9FP1HnDkRxP-L9iJ7S9M"
  },
  {
    "title": "South Coast Customs",
    "subTitle": "साउथ कोस्ट कस्टम्स",
    "categoryName": "Car accessories store",
    "address": "128/408, K Block, Kidwai Nagar, Kanpur, Uttar Pradesh 208011, India",
    "neighborhood": "K Block, Kidwai Nagar",
    "street": "128/408",
    "city": "Kanpur",
    "postalCode": "208011",
    "state": "Uttar Pradesh",
    "countryCode": "IN",
    "phone": "+919795414605",
    "phoneUnformatted": "+919795414605",
    "location": {
      "lat": 26.4225911,
      "lng": 80.3288881
    },
    "totalScore": 4.7,
    "permanentlyClosed": false,
    "temporarilyClosed": false,
    "placeId": "ChIJQ2cZ2U5HnDkR470Q2ovgaow",
    "categories": [
      "Car accessories store",
      "Auto body parts supplier",
      "Auto body shop",
      "Auto parts store",
      "Auto restoration service",
      "Auto tune up service",
      "Chauffeur service",
      "Motorcycle parts store",
      "Motorcycle repair shop",
      "Motorcycle shop"
    ],
    "reviewsCount": 83,
    "imagesCount": 60,
    "openingHours": [
      {
        "day": "Monday",
        "hours": "Open 24 hours"
      },
      {
        "day": "Tuesday",
        "hours": "Open 24 hours"
      },
      {
        "day": "Wednesday",
        "hours": "Open 24 hours"
      },
      {
        "day": "Thursday",
        "hours": "Open 24 hours"
      },
      {
        "day": "Friday",
        "hours": "Open 24 hours"
      },
      {
        "day": "Saturday",
        "hours": "Open 24 hours"
      },
      {
        "day": "Sunday",
        "hours": "Open 24 hours"
      }
    ],
    "imageUrl": "https://media.indianluxurycars.com/google/ff856dc477579ec989ba2878a6eccf2b6cd687d5ae5caabe46427f9de3f920fa.jpg",
    "url": "https://www.google.com/maps/search/?api=1&query=South%20Coast%20Customs&query_place_id=ChIJQ2cZ2U5HnDkR470Q2ovgaow"
  },
  {
    "title": "Sunny Toyota",
    "subTitle": "सनी टोयोटा",
    "categoryName": "Toyota dealer",
    "address": "2, Kanpur - Allahabad Hwy, Gandhigram, Kanpur, Uttar Pradesh 209402, India",
    "neighborhood": "Gandhigram",
    "street": "2, Kanpur - Allahabad Hwy",
    "city": "Kanpur",
    "postalCode": "209402",
    "state": "Uttar Pradesh",
    "countryCode": "IN",
    "website": "https://www.sunnytoyota.com/",
    "phone": "+9118001234404",
    "phoneUnformatted": "+9118001234404",
    "location": {
      "lat": 26.3652911,
      "lng": 80.4310708
    },
    "totalScore": 4.2,
    "permanentlyClosed": false,
    "temporarilyClosed": false,
    "placeId": "ChIJ0_FIlT1CnDkRnyHR6ibJ-rs",
    "categories": [
      "Toyota dealer",
      "Car dealer"
    ],
    "reviewsCount": 861,
    "imagesCount": 496,
    "openingHours": [
      {
        "day": "Monday",
        "hours": "9:30 AM to 7 PM"
      },
      {
        "day": "Tuesday",
        "hours": "9:30 AM to 7 PM"
      },
      {
        "day": "Wednesday",
        "hours": "9:30 AM to 7 PM"
      },
      {
        "day": "Thursday",
        "hours": "9:30 AM to 7 PM"
      },
      {
        "day": "Friday",
        "hours": "9:30 AM to 7 PM"
      },
      {
        "day": "Saturday",
        "hours": "9:30 AM to 7 PM"
      },
      {
        "day": "Sunday",
        "hours": "Closed"
      }
    ],
    "imageUrl": "https://media.indianluxurycars.com/google/d71269e6238ee0dcba4c75f79b035eff547463939536928b20f3d63ab50caed7.jpg",
    "url": "https://www.google.com/maps/search/?api=1&query=Sunny%20Toyota&query_place_id=ChIJ0_FIlT1CnDkRnyHR6ibJ-rs"
  },
  {
    "title": "SunnyCarGallery",
    "subTitle": "सनीकारगैलेरी",
    "categoryName": "Used car dealer",
    "address": "111A, 211, GT రోడ్డు, near ICICI Bank, Ashok Nagar, Harsh Nagar, Kanpur, Uttar Pradesh 208012, India",
    "neighborhood": "Ashok Nagar, Harsh Nagar",
    "street": "111A, 211, GT రోడ్డు, near ICICI Bank",
    "city": "Kanpur",
    "postalCode": "208012",
    "state": "Uttar Pradesh",
    "countryCode": "IN",
    "phone": "+918299780719",
    "phoneUnformatted": "+918299780719",
    "location": {
      "lat": 26.4704843,
      "lng": 80.3171869
    },
    "totalScore": 5,
    "permanentlyClosed": false,
    "temporarilyClosed": false,
    "placeId": "ChIJuwv8mEA5nDkRgrevN4CelH0",
    "categories": [
      "Used car dealer"
    ],
    "reviewsCount": 2,
    "imagesCount": 5,
    "openingHours": [
      {
        "day": "Monday",
        "hours": "12 AM to 9 PM"
      },
      {
        "day": "Tuesday",
        "hours": "12 AM to 9 PM"
      },
      {
        "day": "Wednesday",
        "hours": "12 AM to 9 PM"
      },
      {
        "day": "Thursday",
        "hours": "12 AM to 9 PM"
      },
      {
        "day": "Friday",
        "hours": "12 AM to 9 PM"
      },
      {
        "day": "Saturday",
        "hours": "12 AM to 9 PM"
      },
      {
        "day": "Sunday",
        "hours": "12 to 6 AM"
      }
    ],
    "imageUrl": "https://media.indianluxurycars.com/google/7611b6342b7f0618303320cdae45b4b1b35658f81ea8ea1860be404bff1d5681.jpg",
    "url": "https://www.google.com/maps/search/?api=1&query=SunnyCarGallery&query_place_id=ChIJuwv8mEA5nDkRgrevN4CelH0"
  },
  {
    "title": "Superb Cars",
    "subTitle": "सुपर्ब कार्स",
    "categoryName": "Used car dealer",
    "address": "Kadari House, Yateem Khana Rd, cycle market, Colonelganj, Kanpur, Uttar Pradesh 208001, India",
    "neighborhood": "cycle market, Colonelganj",
    "street": "Kadari House, Yateem Khana Rd",
    "city": "Kanpur",
    "postalCode": "208001",
    "state": "Uttar Pradesh",
    "countryCode": "IN",
    "phone": "+918924895513",
    "phoneUnformatted": "+918924895513",
    "location": {
      "lat": 26.4737834,
      "lng": 80.3417275
    },
    "permanentlyClosed": false,
    "temporarilyClosed": false,
    "placeId": "ChIJ17Sgos85nDkRSWvXTL4Oml8",
    "categories": [
      "Used car dealer"
    ],
    "imagesCount": 2,
    "openingHours": [],
    "imageUrl": "https://media.indianluxurycars.com/google/1c7a25f418aa7d756f0cd4a49593d24dfbc3a5d675f2d5e037d407affba3a3db.jpg",
    "url": "https://www.google.com/maps/search/?api=1&query=Superb%20Cars&query_place_id=ChIJ17Sgos85nDkRSWvXTL4Oml8"
  },
  {
    "title": "Tejashvi Tour & Travels | 20% off Car rental in Kanpur | Tempo Traveller in Kanpur | Airport pick&drop car on rent in Kanpur",
    "subTitle": "तेजश्वी टूर",
    "categoryName": "Car rental agency",
    "address": "127/517 w block, Usmanpur, Juhi Kalan, Saket Nagar, Kanpur, Uttar Pradesh 208014, India",
    "neighborhood": "Usmanpur, Juhi Kalan, Saket Nagar",
    "street": "127/517 w block",
    "city": "Kanpur",
    "postalCode": "208014",
    "state": "Uttar Pradesh",
    "countryCode": "IN",
    "phone": "+919569010143",
    "phoneUnformatted": "+919569010143",
    "location": {
      "lat": 26.4286935,
      "lng": 80.314551
    },
    "totalScore": 4.6,
    "permanentlyClosed": false,
    "temporarilyClosed": false,
    "placeId": "ChIJ45Mq4sVHnDkR6H7Wnq5QWww",
    "categories": [
      "Car rental agency",
      "Bus tour agency",
      "Car leasing service",
      "Minibus taxi service",
      "Sightseeing tour agency",
      "Taxi service",
      "Tour operator",
      "Travel agency"
    ],
    "reviewsCount": 132,
    "imagesCount": 191,
    "openingHours": [
      {
        "day": "Monday",
        "hours": "Open 24 hours"
      },
      {
        "day": "Tuesday",
        "hours": "Open 24 hours"
      },
      {
        "day": "Wednesday",
        "hours": "Open 24 hours"
      },
      {
        "day": "Thursday",
        "hours": "Open 24 hours"
      },
      {
        "day": "Friday",
        "hours": "Open 24 hours"
      },
      {
        "day": "Saturday",
        "hours": "Open 24 hours"
      },
      {
        "day": "Sunday",
        "hours": "Open 24 hours"
      }
    ],
    "imageUrl": "https://media.indianluxurycars.com/google/1b4c31ed96fed8cd5a39f26cee712524e42e8c20e46a1c83a0d4c1d93b5d9ac2.jpg",
    "url": "https://www.google.com/maps/search/?api=1&query=Tejashvi%20Tour%20%26%20Travels%20%7C%2020%25%20off%20Car%20rental%20in%20Kanpur%20%7C%20Tempo%20Traveller%20in%20Kanpur%20%7C%20Airport%20pick%26drop%20car%20on%20rent%20in%20Kanpur&query_place_id=ChIJ45Mq4sVHnDkR6H7Wnq5QWww"
  },
  {
    "title": "The Detailing Studio",
    "subTitle": "द डिटेलिंग स्टूडियो",
    "categoryName": "Car wash",
    "address": "112/371, Khalasi Line, Arya Nagar, Kanpur, Uttar Pradesh 208002, India",
    "neighborhood": "Khalasi Line, Arya Nagar",
    "street": "112/371",
    "city": "Kanpur",
    "postalCode": "208002",
    "state": "Uttar Pradesh",
    "countryCode": "IN",
    "website": "http://www.opticoat.com/",
    "phone": "+917565061777",
    "phoneUnformatted": "+917565061777",
    "location": {
      "lat": 26.48119,
      "lng": 80.321481
    },
    "totalScore": 4.7,
    "permanentlyClosed": false,
    "temporarilyClosed": false,
    "placeId": "ChIJv____084nDkR1lYlYlJXqls",
    "categories": [
      "Car wash",
      "Auto restoration service"
    ],
    "reviewsCount": 154,
    "imagesCount": 203,
    "openingHours": [
      {
        "day": "Monday",
        "hours": "10 AM to 8 PM"
      },
      {
        "day": "Tuesday",
        "hours": "10 AM to 8 PM"
      },
      {
        "day": "Wednesday",
        "hours": "10 AM to 8 PM"
      },
      {
        "day": "Thursday",
        "hours": "10 AM to 8 PM"
      },
      {
        "day": "Friday",
        "hours": "10 AM to 8 PM"
      },
      {
        "day": "Saturday",
        "hours": "10 AM to 8 PM"
      },
      {
        "day": "Sunday",
        "hours": "10 AM to 7 PM"
      }
    ],
    "imageUrl": "https://media.indianluxurycars.com/google/c7533e8b1a08da1a3df7006d5cb1ffa0946d9f0e06ce839138fc17523d2208a9.jpg",
    "url": "https://www.google.com/maps/search/?api=1&query=The%20Detailing%20Studio&query_place_id=ChIJv____084nDkR1lYlYlJXqls"
  },
  {
    "title": "Tripiez Car Rental",
    "subTitle": "त्रिपिएज़ कार रेंटल",
    "categoryName": "Car rental agency",
    "address": "107, Janta Nagar, Neemeshwar MahaMandir Society, Barra World Bank, Barra, Kanpur, Uttar Pradesh 208027, India",
    "neighborhood": "Janta Nagar, Neemeshwar MahaMandir Society, Barra World Bank, Barra",
    "street": "107",
    "city": "Kanpur",
    "postalCode": "208027",
    "state": "Uttar Pradesh",
    "countryCode": "IN",
    "phone": "+919999995568",
    "phoneUnformatted": "+919999995568",
    "location": {
      "lat": 26.4405003,
      "lng": 80.2931987
    },
    "totalScore": 4.7,
    "permanentlyClosed": false,
    "temporarilyClosed": true,
    "placeId": "ChIJTWIOkeZHnDkRDxMyT9I_SpE",
    "categories": [
      "Car rental agency",
      "Airport shuttle service",
      "Bus charter",
      "Taxi service",
      "Travel agency"
    ],
    "reviewsCount": 39,
    "imagesCount": 54,
    "openingHours": [],
    "imageUrl": "https://media.indianluxurycars.com/google/0b0c8be612c6f8517d41a9f1893a02a99669ec4adbfc9eb61c7389325318327b.jpg",
    "url": "https://www.google.com/maps/search/?api=1&query=Tripiez%20Car%20Rental&query_place_id=ChIJTWIOkeZHnDkRDxMyT9I_SpE"
  },
  {
    "title": "Wheel O City | Car Washing | Detailing | Buying & Selling | Premium Used Cars At Unbeatable Prices | Kanpur",
    "subTitle": "व्हील ओ सिटी | कार वाशिंग | डिटेलिंग | बाइंग & सेलिंग | प्रीमियम यूज्ड कार्स अत अनबीटेबल प्राइसेज | कानपुर",
    "categoryName": "Car dealer",
    "address": "111A, 18, GT Rd, near Kanha Continental, Ashok Nagar, Sarvodaya Nagar, Kanpur, Uttar Pradesh 208012, India",
    "neighborhood": "Ashok Nagar, Sarvodaya Nagar",
    "street": "111A, 18, GT Rd, near Kanha Continental",
    "city": "Kanpur",
    "postalCode": "208012",
    "state": "Uttar Pradesh",
    "countryCode": "IN",
    "phone": "+917275900900",
    "phoneUnformatted": "+917275900900",
    "location": {
      "lat": 26.4713461,
      "lng": 80.3147042
    },
    "totalScore": 4.2,
    "permanentlyClosed": false,
    "temporarilyClosed": false,
    "placeId": "ChIJ25MdViU3nDkRuc2d8uh7Wmo",
    "categories": [
      "Car dealer"
    ],
    "reviewsCount": 15,
    "imagesCount": 8,
    "openingHours": [
      {
        "day": "Monday",
        "hours": "10 AM to 9 PM"
      },
      {
        "day": "Tuesday",
        "hours": "10 AM to 9 PM"
      },
      {
        "day": "Wednesday",
        "hours": "10 AM to 9 PM"
      },
      {
        "day": "Thursday",
        "hours": "10 AM to 9 PM"
      },
      {
        "day": "Friday",
        "hours": "10 AM to 9 PM"
      },
      {
        "day": "Saturday",
        "hours": "10 AM to 9 PM"
      },
      {
        "day": "Sunday",
        "hours": "10 AM to 9 PM"
      }
    ],
    "imageUrl": "https://media.indianluxurycars.com/google/68b1d06579260ff99ec3183888a0221ec50fc6950cd2bf0f47de8fc9017d3910.jpg",
    "url": "https://www.google.com/maps/search/?api=1&query=Wheel%20O%20City%20%7C%20Car%20Washing%20%7C%20Detailing%20%7C%20Buying%20%26%20Selling%20%7C%20Premium%20Used%20Cars%20At%20Unbeatable%20Prices%20%7C%20Kanpur&query_place_id=ChIJ25MdViU3nDkRuc2d8uh7Wmo"
  },
  {
    "title": "Yashika cars tour and travels naubasta kanpur",
    "subTitle": "यशिका कार्स टूर एंड ट्रैवल्स नौबस्ता कानपुर",
    "categoryName": "Car leasing service",
    "address": "943/1850 k d a colony, Galla Mandi, Naubasta, Kanpur, Uttar Pradesh 208021, India",
    "neighborhood": "Galla Mandi, Naubasta",
    "street": "943/1850 k d a colony",
    "city": "Kanpur",
    "postalCode": "208021",
    "state": "Uttar Pradesh",
    "countryCode": "IN",
    "website": "http://justdial.com/",
    "phone": "+918896383526",
    "phoneUnformatted": "+918896383526",
    "location": {
      "lat": 26.392546,
      "lng": 80.3038152
    },
    "totalScore": 5,
    "permanentlyClosed": false,
    "temporarilyClosed": false,
    "placeId": "ChIJM55VWRlHnDkRSjCHQEPAN_w",
    "categories": [
      "Car leasing service",
      "Taxi service"
    ],
    "reviewsCount": 58,
    "imagesCount": 61,
    "openingHours": [
      {
        "day": "Monday",
        "hours": "Open 24 hours"
      },
      {
        "day": "Tuesday",
        "hours": "Open 24 hours"
      },
      {
        "day": "Wednesday",
        "hours": "Open 24 hours"
      },
      {
        "day": "Thursday",
        "hours": "Open 24 hours"
      },
      {
        "day": "Friday",
        "hours": "Open 24 hours"
      },
      {
        "day": "Saturday",
        "hours": "Open 24 hours"
      },
      {
        "day": "Sunday",
        "hours": "Open 24 hours"
      }
    ],
    "imageUrl": "https://media.indianluxurycars.com/google/9cdc5617e886039f31abf3d9434913ef7e04a9091b9112715c54b8ccea0f40de.jpg",
    "url": "https://www.google.com/maps/search/?api=1&query=Yashika%20cars%20tour%20and%20travels%20naubasta%20kanpur&query_place_id=ChIJM55VWRlHnDkRSjCHQEPAN_w"
  },
  {
    "title": "ZEN MOTORS",
    "subTitle": "ज़ेन मोटर्स",
    "categoryName": "Car dealer",
    "address": "127/2, Gaushala Rd, Juhi Lal Colony, Juhi Kalan, Juhi, Kanpur, Uttar Pradesh 208014, India",
    "neighborhood": "Juhi Lal Colony, Juhi Kalan, Juhi",
    "street": "127/2, Gaushala Rd",
    "city": "Kanpur",
    "postalCode": "208014",
    "state": "Uttar Pradesh",
    "countryCode": "IN",
    "phone": "+919389125578",
    "phoneUnformatted": "+919389125578",
    "location": {
      "lat": 26.4381709,
      "lng": 80.3143257
    },
    "totalScore": 4.6,
    "permanentlyClosed": false,
    "temporarilyClosed": false,
    "placeId": "ChIJA9yji6NHnDkRGx1Z35r6A8U",
    "categories": [
      "Car dealer",
      "Used car dealer"
    ],
    "reviewsCount": 13,
    "imagesCount": 41,
    "openingHours": [
      {
        "day": "Monday",
        "hours": "10 AM to 7 PM"
      },
      {
        "day": "Tuesday",
        "hours": "10 AM to 7 PM"
      },
      {
        "day": "Wednesday",
        "hours": "10 AM to 7 PM"
      },
      {
        "day": "Thursday",
        "hours": "10 AM to 7 PM"
      },
      {
        "day": "Friday",
        "hours": "10 AM to 7 PM"
      },
      {
        "day": "Saturday",
        "hours": "10 AM to 7 PM"
      },
      {
        "day": "Sunday",
        "hours": "10 AM to 7 PM"
      }
    ],
    "imageUrl": "https://media.indianluxurycars.com/google/7f4050287103b803b06f82751f2b63e0be59693d6b08b4b9f20e84391b4fe265.jpg",
    "url": "https://www.google.com/maps/search/?api=1&query=ZEN%20MOTORS&query_place_id=ChIJA9yji6NHnDkRGx1Z35r6A8U"
  }
]
