[
  {
    "title": "Athlon tours and travels",
    "categoryName": "Car rental agency",
    "address": "Providence Rd, near valavi cards, Kacheripady, Kochi, Ernakulam, Kerala 682018, India",
    "neighborhood": "Kacheripady",
    "street": "Providence Rd, near valavi cards",
    "city": "Kochi, Ernakulam",
    "postalCode": "682018",
    "state": "Kerala",
    "countryCode": "IN",
    "phone": "+918136863164",
    "phoneUnformatted": "+918136863164",
    "location": {
      "lat": 9.9896428,
      "lng": 76.2803854
    },
    "totalScore": 4.9,
    "permanentlyClosed": false,
    "temporarilyClosed": false,
    "placeId": "ChIJbcdLq1MNCDsRanI9IWTbH4Q",
    "categories": [
      "Car rental agency",
      "Bus company",
      "Bus tour agency",
      "Car leasing service",
      "Taxi service",
      "Minibus taxi service",
      "Tour operator",
      "Travel agency"
    ],
    "reviewsCount": 39,
    "imagesCount": 50,
    "openingHours": [],
    "imageUrl": "https://lh3.googleusercontent.com/p/AF1QipPA3pkehZBvj-qnbVSxpUwFtNcsojw0v_FEZ7Rp=w519-h240-k-no",
    "url": "https://www.google.com/maps/search/?api=1&query=Athlon%20tours%20and%20travels&query_place_id=ChIJbcdLq1MNCDsRanI9IWTbH4Q"
  },
  {
    "title": "COCHIN WHEELS",
    "subTitle": "കൊച്ചിൻ വീൽസ്",
    "categoryName": "Car dealer",
    "address": "Bay Pride Towers, Mall, No. 12, Menaka, Marine Drive, Kochi, Ernakulam, Kerala 682031, India",
    "neighborhood": "Menaka, Marine Drive",
    "street": "Bay Pride Towers, Mall, No. 12",
    "city": "Kochi, Ernakulam",
    "postalCode": "682031",
    "state": "Kerala",
    "countryCode": "IN",
    "website": "http://bangaloreshoppers.com/",
    "phone": "+914844242424",
    "phoneUnformatted": "+914844242424",
    "location": {
      "lat": 9.9775524,
      "lng": 76.2765588
    },
    "permanentlyClosed": false,
    "temporarilyClosed": false,
    "placeId": "ChIJq6paCVQNCDsRWo3I50mbWYE",
    "categories": [
      "Car dealer",
      "Car accessories store",
      "Car rental agency"
    ],
    "openingHours": [],
    "url": "https://www.google.com/maps/search/?api=1&query=COCHIN%20WHEELS&query_place_id=ChIJq6paCVQNCDsRWo3I50mbWYE"
  },
  {
    "title": "Kerala luxury car rentals Luxury Riders",
    "subTitle": "കേരള ലക്ഷ്വറി കാർ റെൻ്റൽസ് ലക്ഷ്വറി റൈഡേഴ്സ്",
    "categoryName": "Car rental agency",
    "address": "NJK Tripthi Building, Sahodaran Ayyappan Rd, Ernakulam South, Kochi, Ernakulam, Kerala 682016, India",
    "neighborhood": "Ernakulam South",
    "street": "NJK Tripthi Building, Sahodaran Ayyappan Rd",
    "city": "Kochi, Ernakulam",
    "postalCode": "682016",
    "state": "Kerala",
    "countryCode": "IN",
    "phone": "+919249699996",
    "phoneUnformatted": "+919249699996",
    "location": {
      "lat": 9.9649408,
      "lng": 76.2885723
    },
    "totalScore": 4.9,
    "permanentlyClosed": false,
    "temporarilyClosed": false,
    "placeId": "ChIJVVXpLLdyCDsRPfiA22WkDJw",
    "categories": [
      "Car rental agency"
    ],
    "reviewsCount": 9,
    "imagesCount": 3,
    "openingHours": [
      {
        "day": "Monday",
        "hours": "Open 24 hours"
      },
      {
        "day": "Tuesday",
        "hours": "Open 24 hours"
      },
      {
        "day": "Wednesday",
        "hours": "Open 24 hours"
      },
      {
        "day": "Thursday",
        "hours": "Open 24 hours"
      },
      {
        "day": "Friday",
        "hours": "Open 24 hours"
      },
      {
        "day": "Saturday",
        "hours": "Open 24 hours"
      },
      {
        "day": "Sunday",
        "hours": "8 AM to 7 PM"
      }
    ],
    "imageUrl": "https://lh3.googleusercontent.com/gps-cs-s/AG0ilSzkMSveDHVU1Pvkyb-nN-s1xb7yfO_FchZ6yvSZUF7XbmoBLFLQp9rExjku93VXxGfY2ql8e-ikYW9Y4KV2Yg7HUd1HwBcpaogKVVv5SXSjruFc4bG5TVdq02bn5UoQtxuDrmk0=w408-h306-k-no",
    "url": "https://www.google.com/maps/search/?api=1&query=Kerala%20luxury%20car%20rentals%20Luxury%20Riders&query_place_id=ChIJVVXpLLdyCDsRPfiA22WkDJw"
  },
  {
    "title": "LUXURY WEDDING CAR RENTAL",
    "categoryName": "Car rental agency",
    "address": "X7VH+5PF Golden Tours and Travels, Nehru Rd, near Stadium, Ernakulam North, Ayyappankavu, Kochi, Ernakulam, Kerala 682018, India",
    "neighborhood": "Ernakulam North, Ayyappankavu",
    "street": "X7VH+5PF Golden Tours and Travels, Nehru Rd, near Stadium",
    "city": "Kochi, Ernakulam",
    "postalCode": "682018",
    "state": "Kerala",
    "countryCode": "IN",
    "location": {
      "lat": 9.9929311,
      "lng": 76.2793039
    },
    "permanentlyClosed": false,
    "temporarilyClosed": false,
    "placeId": "ChIJfWVDr10NCDsRKqaHEIv0HhY",
    "categories": [
      "Car rental agency"
    ],
    "imagesCount": 1,
    "openingHours": [],
    "imageUrl": "https://streetviewpixels-pa.googleapis.com/v1/thumbnail?panoid=eyuF3CifPz4TGmtoTePaFg&cb_client=search.gws-prod.gps&w=408&h=240&yaw=272.9795&pitch=0&thumbfov=100",
    "url": "https://www.google.com/maps/search/?api=1&query=LUXURY%20WEDDING%20CAR%20RENTAL&query_place_id=ChIJfWVDr10NCDsRKqaHEIv0HhY"
  }
]
