[
  {
    "title": "Ace7 Self Drive Cars Madurai | Best Car Rental Service",
    "categoryName": "Car rental agency",
    "address": "4/694 Mahalakshmi nagar 3rd street , Moondrumavadi, Iyer Bungalow, Madurai, Tamil Nadu 625007, India",
    "neighborhood": "Iyer Bungalow",
    "street": "4/694 Mahalakshmi nagar 3rd street , Moondrumavadi",
    "city": "Madurai",
    "postalCode": "625007",
    "state": "Tamil Nadu",
    "countryCode": "IN",
    "website": "http://ace7selfdrivecars.com/",
    "phone": "+919677621203",
    "phoneUnformatted": "+919677621203",
    "location": {
      "lat": 9.958719,
      "lng": 78.1439375
    },
    "totalScore": 4.8,
    "permanentlyClosed": false,
    "temporarilyClosed": false,
    "placeId": "ChIJCTp6jPbFADsRW3VOImXLlX0",
    "categories": [
      "Car rental agency",
      "Car leasing service",
      "Travel agency"
    ],
    "reviewsCount": 31,
    "imagesCount": 6,
    "openingHours": [
      {
        "day": "Monday",
        "hours": "Open 24 hours"
      },
      {
        "day": "Tuesday",
        "hours": "Open 24 hours"
      },
      {
        "day": "Wednesday",
        "hours": "Open 24 hours"
      },
      {
        "day": "Thursday",
        "hours": "Open 24 hours"
      },
      {
        "day": "Friday",
        "hours": "Open 24 hours"
      },
      {
        "day": "Saturday",
        "hours": "Open 24 hours"
      },
      {
        "day": "Sunday",
        "hours": "Open 24 hours"
      }
    ],
    "imageUrl": "https://media.indianluxurycars.com/google/4cd1a336204ba80d263f4f62a1c24c91c343060319dcde84156819d2d6f574df.jpg",
    "url": "https://www.google.com/maps/search/?api=1&query=Ace7%20Self%20Drive%20Cars%20Madurai%20%7C%20Best%20Car%20Rental%20Service&query_place_id=ChIJCTp6jPbFADsRW3VOImXLlX0"
  },
  {
    "title": "Akshitha Tours And Travels",
    "categoryName": "Car rental agency",
    "address": "1/123, Senthamarai nagar, Manappatti, Madurai, Tamil Nadu 625001, India",
    "neighborhood": "Arajar Salai, Simmakkal, Madurai Main",
    "street": "1/123, Senthamarai nagar, Manappatti",
    "city": "Madurai",
    "postalCode": "625001",
    "state": "Tamil Nadu",
    "countryCode": "IN",
    "phone": "+919942298886",
    "phoneUnformatted": "+919942298886",
    "location": {
      "lat": 9.9247967,
      "lng": 78.1194737
    },
    "totalScore": 4.5,
    "permanentlyClosed": false,
    "temporarilyClosed": false,
    "placeId": "ChIJI7YvMV3PADsRZrA2cE11new",
    "categories": [
      "Car rental agency",
      "Car leasing service",
      "Tour operator",
      "Tour agency",
      "Travel agency"
    ],
    "reviewsCount": 24,
    "imagesCount": 68,
    "openingHours": [
      {
        "day": "Monday",
        "hours": "Open 24 hours"
      },
      {
        "day": "Tuesday",
        "hours": "Open 24 hours"
      },
      {
        "day": "Wednesday",
        "hours": "Open 24 hours"
      },
      {
        "day": "Thursday",
        "hours": "Open 24 hours"
      },
      {
        "day": "Friday",
        "hours": "Open 24 hours"
      },
      {
        "day": "Saturday",
        "hours": "Open 24 hours"
      },
      {
        "day": "Sunday",
        "hours": "Open 24 hours"
      }
    ],
    "imageUrl": "https://media.indianluxurycars.com/google/68344c142fd2c309bfba12ba7240f8a56a2fa7a5e9cec4b39485083655c75db4.jpg",
    "url": "https://www.google.com/maps/search/?api=1&query=Akshitha%20Tours%20And%20Travels&query_place_id=ChIJI7YvMV3PADsRZrA2cE11new"
  },
  {
    "title": "Alpha car cover",
    "categoryName": "Car accessories store",
    "address": "ground floor, 170/1, Kalavasal, Madurai, Tamil Nadu 625016, India",
    "neighborhood": "Kalavasal",
    "street": "ground floor, 170/1",
    "city": "Madurai",
    "postalCode": "625016",
    "state": "Tamil Nadu",
    "countryCode": "IN",
    "website": "https://alphacarcover.com/",
    "phone": "+917448844403",
    "phoneUnformatted": "+917448844403",
    "location": {
      "lat": 9.9327219,
      "lng": 78.0949093
    },
    "totalScore": 5,
    "permanentlyClosed": false,
    "temporarilyClosed": false,
    "placeId": "ChIJBzw622nPADsRZKl-k9QtR0U",
    "categories": [
      "Car accessories store"
    ],
    "reviewsCount": 42,
    "imagesCount": 30,
    "openingHours": [
      {
        "day": "Monday",
        "hours": "9:30 AM to 7 PM"
      },
      {
        "day": "Tuesday",
        "hours": "9:30 AM to 7 PM"
      },
      {
        "day": "Wednesday",
        "hours": "9:30 AM to 7 PM"
      },
      {
        "day": "Thursday",
        "hours": "9:30 AM to 7 PM"
      },
      {
        "day": "Friday",
        "hours": "9:30 AM to 7 PM"
      },
      {
        "day": "Saturday",
        "hours": "9:30 AM to 7 PM"
      },
      {
        "day": "Sunday",
        "hours": "9:30 AM to 1 PM"
      }
    ],
    "imageUrl": "https://media.indianluxurycars.com/google/5992db8312443b9af5abc56e643c5ce44bf9b3e565c4e42b1a30742136babcad.jpg",
    "url": "https://www.google.com/maps/search/?api=1&query=Alpha%20car%20cover&query_place_id=ChIJBzw622nPADsRZKl-k9QtR0U"
  },
  {
    "title": "Amitesh Tourism/Travels in madurai/best taxi Service in madurai",
    "subTitle": "அமைட்ஸ் டூரிஸம்/டிராவல்ஸ் இல் மதுரை/பெஸ்ட் டாக்ஸி சர்வீஸ் இல் மதுரை",
    "categoryName": "Car rental agency",
    "address": "No 26/C, Travelers Bunglow Rd, Vaithiyanathapuram, Madurai, Tamil Nadu 625016, India",
    "neighborhood": "Vaithiyanathapuram",
    "street": "No 26/C, Travelers Bunglow Rd",
    "city": "Madurai",
    "postalCode": "625016",
    "state": "Tamil Nadu",
    "countryCode": "IN",
    "website": "http://www.maduraiamiteshtravels.com/",
    "phone": "+918122221221",
    "phoneUnformatted": "+918122221221",
    "location": {
      "lat": 9.92145,
      "lng": 78.1055778
    },
    "totalScore": 4.9,
    "permanentlyClosed": false,
    "temporarilyClosed": false,
    "placeId": "ChIJOWKlm2XPADsRUUTFBts-oIY",
    "categories": [
      "Car rental agency",
      "Car leasing service",
      "Tour operator",
      "Sightseeing tour agency",
      "Taxi service",
      "Tour agency",
      "Travel agency"
    ],
    "reviewsCount": 48,
    "imagesCount": 332,
    "openingHours": [
      {
        "day": "Monday",
        "hours": "Open 24 hours"
      },
      {
        "day": "Tuesday",
        "hours": "Open 24 hours"
      },
      {
        "day": "Wednesday",
        "hours": "Open 24 hours"
      },
      {
        "day": "Thursday",
        "hours": "Open 24 hours"
      },
      {
        "day": "Friday",
        "hours": "Open 24 hours"
      },
      {
        "day": "Saturday",
        "hours": "Open 24 hours"
      },
      {
        "day": "Sunday",
        "hours": "Open 24 hours"
      }
    ],
    "imageUrl": "https://media.indianluxurycars.com/google/8a0ab784b3a73110886873ef94531bca26620fc4ff1f5866380342b25bf0f43a.jpg",
    "url": "https://www.google.com/maps/search/?api=1&query=Amitesh%20Tourism%2FTravels%20in%20madurai%2Fbest%20taxi%20Service%20in%20madurai&query_place_id=ChIJOWKlm2XPADsRUUTFBts-oIY"
  },
  {
    "title": "Amitesh Travel Agency",
    "subTitle": "அமைட்ஸ் Travels",
    "categoryName": "Car rental agency",
    "address": "No.2, Kaja St, near Amirtham Cinema, South Gate, Madurai Main, Madurai, Tamil Nadu 625011, India",
    "neighborhood": "South Gate, Madurai Main",
    "street": "No.2, Kaja St, near Amirtham Cinema",
    "city": "Madurai",
    "postalCode": "625011",
    "state": "Tamil Nadu",
    "countryCode": "IN",
    "website": "http://www.maduraiamiteshtravels.com/",
    "phone": "+919688988100",
    "phoneUnformatted": "+919688988100",
    "location": {
      "lat": 9.9068197,
      "lng": 78.1150602
    },
    "totalScore": 4.7,
    "permanentlyClosed": false,
    "temporarilyClosed": false,
    "placeId": "ChIJZaemxVHFADsRwM9hEwFCVp8",
    "categories": [
      "Car rental agency",
      "Car leasing service",
      "Taxi service",
      "Sightseeing tour agency",
      "Taxicab Stand",
      "Tour agency",
      "Tour operator",
      "Tourist information center",
      "Travel agency"
    ],
    "reviewsCount": 43,
    "imagesCount": 386,
    "openingHours": [],
    "imageUrl": "https://media.indianluxurycars.com/google/7c38279a40930d983c8225ec1f256fb57b9eafa9e65d34bb9d170fb32372a7a7.jpg",
    "url": "https://www.google.com/maps/search/?api=1&query=Amitesh%20Travel%20Agency&query_place_id=ChIJZaemxVHFADsRwM9hEwFCVp8"
  },
  {
    "title": "Annamalai Travels",
    "subTitle": "அண்ணாமலை டிராவல்ஸ்",
    "categoryName": "Travel agency",
    "address": "No-6, Karupatti Chatram, Opp Madurai Railway Junction, W Veli St, Madurai, Tamil Nadu 625001, India",
    "neighborhood": "PKS Colony, Madurai Main",
    "street": "No-6, Karupatti Chatram, Opp Madurai Railway Junction, W Veli St",
    "city": "Madurai",
    "postalCode": "625001",
    "state": "Tamil Nadu",
    "countryCode": "IN",
    "website": "https://annamalaitoursandtravels.com/",
    "phone": "+919842166792",
    "phoneUnformatted": "+919842166792",
    "location": {
      "lat": 9.9188573,
      "lng": 78.1118352
    },
    "totalScore": 4.2,
    "permanentlyClosed": false,
    "temporarilyClosed": false,
    "placeId": "ChIJ0SCpwybFADsRCLWrnPQG4eE",
    "categories": [
      "Travel agency",
      "Airline ticket agency",
      "Bus tour agency",
      "Used car dealer"
    ],
    "reviewsCount": 85,
    "imagesCount": 236,
    "openingHours": [
      {
        "day": "Monday",
        "hours": "Open 24 hours"
      },
      {
        "day": "Tuesday",
        "hours": "Open 24 hours"
      },
      {
        "day": "Wednesday",
        "hours": "Open 24 hours"
      },
      {
        "day": "Thursday",
        "hours": "Open 24 hours"
      },
      {
        "day": "Friday",
        "hours": "Open 24 hours"
      },
      {
        "day": "Saturday",
        "hours": "Open 24 hours"
      },
      {
        "day": "Sunday",
        "hours": "Open 24 hours"
      }
    ],
    "imageUrl": "https://media.indianluxurycars.com/google/a86552b4598b87d5789ed7a0d36974b2fb635ee62351a0648052cf92e2c1987f.jpg",
    "url": "https://www.google.com/maps/search/?api=1&query=Annamalai%20Travels&query_place_id=ChIJ0SCpwybFADsRCLWrnPQG4eE"
  },
  {
    "title": "ARR Holidays & Visas - Honeymoon & International Tours Madurai",
    "categoryName": "Car rental agency",
    "address": "2ND FLOOR, Lenskart upstairs, PTR TOWERS, NO,56A, Bypass Rd, Madurai, Tamil Nadu 625016, India",
    "neighborhood": "Ponmeni",
    "street": "2ND FLOOR, Lenskart upstairs, PTR TOWERS, NO,56A, Bypass Rd",
    "city": "Madurai",
    "postalCode": "625016",
    "state": "Tamil Nadu",
    "countryCode": "IN",
    "website": "https://arrholidays.com/",
    "phone": "+916385636058",
    "phoneUnformatted": "+916385636058",
    "location": {
      "lat": 9.9175757,
      "lng": 78.094104
    },
    "totalScore": 4.7,
    "permanentlyClosed": false,
    "temporarilyClosed": false,
    "placeId": "ChIJSYBYVtTPADsR_gUvbEnI_3k",
    "categories": [
      "Car rental agency",
      "Airline ticket agency",
      "Airport",
      "Travel agency",
      "Cruise agency",
      "Hotel",
      "Tour operator",
      "Visa and passport office"
    ],
    "reviewsCount": 410,
    "imagesCount": 939,
    "openingHours": [],
    "imageUrl": "https://media.indianluxurycars.com/google/234d73096e9c72f46a80969b9a8ca8d039c833aa13e6e18218830f53a4df2fdb.jpg",
    "url": "https://www.google.com/maps/search/?api=1&query=ARR%20Holidays%20%26%20Visas%20-%20Honeymoon%20%26%20International%20Tours%20Madurai&query_place_id=ChIJSYBYVtTPADsR_gUvbEnI_3k"
  },
  {
    "title": "AV Preowned Cars",
    "categoryName": "Car dealer",
    "address": "Koodalpudur BSNL office, Plot no.194,Sector I&II,MIG,TNHB Colony, Backside, Madurai, Tamil Nadu 625018, India",
    "neighborhood": "Backside, Koodal Nagar",
    "street": "Koodalpudur BSNL office, Plot no.194,Sector I&II,MIG,TNHB Colony",
    "city": "Madurai",
    "postalCode": "625018",
    "state": "Tamil Nadu",
    "countryCode": "IN",
    "location": {
      "lat": 9.9554717,
      "lng": 78.1043055
    },
    "totalScore": 5,
    "permanentlyClosed": false,
    "temporarilyClosed": false,
    "placeId": "ChIJoWAlhI7PADsRyrd2CnHg9Fc",
    "categories": [
      "Car dealer"
    ],
    "reviewsCount": 4,
    "imagesCount": 3,
    "openingHours": [
      {
        "day": "Monday",
        "hours": "10 AM to 9 PM"
      },
      {
        "day": "Tuesday",
        "hours": "10 AM to 9 PM"
      },
      {
        "day": "Wednesday",
        "hours": "10 AM to 9 PM"
      },
      {
        "day": "Thursday",
        "hours": "10 AM to 9 PM"
      },
      {
        "day": "Friday",
        "hours": "10 AM to 9 PM"
      },
      {
        "day": "Saturday",
        "hours": "10 AM to 9 PM"
      },
      {
        "day": "Sunday",
        "hours": "10 AM to 2 PM"
      }
    ],
    "imageUrl": "https://media.indianluxurycars.com/google/0c05946a9cd9bd2f4a40aa6a1c5921b51d61fdf2515ed33ded8255dfe50b83d4.jpg",
    "url": "https://www.google.com/maps/search/?api=1&query=AV%20Preowned%20Cars&query_place_id=ChIJoWAlhI7PADsRyrd2CnHg9Fc"
  },
  {
    "title": "Balu cars ( Used car in madurai)",
    "subTitle": "பாலு கார்ஸ்",
    "categoryName": "Used car dealer",
    "address": "16,opposite to jeyam theatre near bypass bridge, Tamil Nadu 625003, India",
    "street": "16,opposite to jeyam theatre near bypass bridge",
    "city": "Madurai",
    "postalCode": "625003",
    "state": "Tamil Nadu",
    "countryCode": "IN",
    "phone": "+919842123466",
    "phoneUnformatted": "+919842123466",
    "location": {
      "lat": 9.9077557,
      "lng": 78.0984772
    },
    "totalScore": 4,
    "permanentlyClosed": false,
    "temporarilyClosed": false,
    "placeId": "ChIJ37HuM_nPADsRInIvNpiskBk",
    "categories": [
      "Used car dealer"
    ],
    "reviewsCount": 71,
    "imagesCount": 33,
    "openingHours": [
      {
        "day": "Monday",
        "hours": "9 AM to 9 PM"
      },
      {
        "day": "Tuesday",
        "hours": "9 AM to 9 PM"
      },
      {
        "day": "Wednesday",
        "hours": "9 AM to 9 PM"
      },
      {
        "day": "Thursday",
        "hours": "9 AM to 9 PM"
      },
      {
        "day": "Friday",
        "hours": "9 AM to 9 PM"
      },
      {
        "day": "Saturday",
        "hours": "9 AM to 9 PM"
      },
      {
        "day": "Sunday",
        "hours": "9 AM to 9 PM"
      }
    ],
    "imageUrl": "https://media.indianluxurycars.com/google/128d65cb5bcc586ea7a88eb1b09d121b7481d7cefc317869c23008381125e75c.jpg",
    "url": "https://www.google.com/maps/search/?api=1&query=Balu%20cars%20(%20Used%20car%20in%20madurai)&query_place_id=ChIJ37HuM_nPADsRInIvNpiskBk"
  },
  {
    "title": "Best Cars | Used car madurai | cars madurai",
    "categoryName": "Used car dealer",
    "address": "#1, SBOA 2nd Colony, Byepass Road,, Madurai, Tamil Nadu 625016, India",
    "neighborhood": "S.B.O. Second Colony",
    "street": "#1, SBOA 2nd Colony, Byepass Road,",
    "city": "Madurai",
    "postalCode": "625016",
    "state": "Tamil Nadu",
    "countryCode": "IN",
    "phone": "+918248764625",
    "phoneUnformatted": "+918248764625",
    "location": {
      "lat": 9.9160664,
      "lng": 78.0958178
    },
    "totalScore": 3.5,
    "permanentlyClosed": false,
    "temporarilyClosed": false,
    "placeId": "ChIJPVUX73bPADsRaT32C__skQ4",
    "categories": [
      "Used car dealer",
      "Car dealer",
      "Motor vehicle dealer",
      "Second hand store"
    ],
    "reviewsCount": 46,
    "imagesCount": 31,
    "openingHours": [
      {
        "day": "Monday",
        "hours": "9 AM to 9 PM"
      },
      {
        "day": "Tuesday",
        "hours": "9 AM to 9 PM"
      },
      {
        "day": "Wednesday",
        "hours": "9 AM to 9 PM"
      },
      {
        "day": "Thursday",
        "hours": "9 AM to 9 PM"
      },
      {
        "day": "Friday",
        "hours": "9 AM to 9 PM"
      },
      {
        "day": "Saturday",
        "hours": "9 AM to 9 PM"
      },
      {
        "day": "Sunday",
        "hours": "9 AM to 6 PM"
      }
    ],
    "imageUrl": "https://media.indianluxurycars.com/google/9cada72df8ad57e5e2714e0ec6ac2e8217d8d0492a5ecb7da4c194e34fb96cdd.jpg",
    "url": "https://www.google.com/maps/search/?api=1&query=Best%20Cars%20%7C%20Used%20car%20madurai%20%7C%20cars%20madurai&query_place_id=ChIJPVUX73bPADsRaT32C__skQ4"
  },
  {
    "title": "Crystal car accessories",
    "categoryName": "Car accessories store",
    "address": "Vivekananda Street, near kanna department store, k salai, Vilangudi, Madurai, Tamil Nadu 625018, India",
    "neighborhood": "k salai, Vilangudi",
    "street": "Vivekananda Street, near kanna department store",
    "city": "Madurai",
    "postalCode": "625018",
    "state": "Tamil Nadu",
    "countryCode": "IN",
    "location": {
      "lat": 9.9438466,
      "lng": 78.0993086
    },
    "totalScore": 4.9,
    "permanentlyClosed": false,
    "temporarilyClosed": false,
    "placeId": "ChIJpxrqpxPPADsRByFQA7numlU",
    "categories": [
      "Car accessories store"
    ],
    "reviewsCount": 57,
    "imagesCount": 727,
    "openingHours": [
      {
        "day": "Monday",
        "hours": "9 AM to 10 PM"
      },
      {
        "day": "Tuesday",
        "hours": "9 AM to 10 PM"
      },
      {
        "day": "Wednesday",
        "hours": "9 AM to 10 PM"
      },
      {
        "day": "Thursday",
        "hours": "9 AM to 10 PM"
      },
      {
        "day": "Friday",
        "hours": "9 AM to 10 PM"
      },
      {
        "day": "Saturday",
        "hours": "9 AM to 10 PM"
      },
      {
        "day": "Sunday",
        "hours": "9 AM to 10 PM"
      }
    ],
    "imageUrl": "https://media.indianluxurycars.com/google/11177511fbe3d7c850d7e28a1f68ceeda3a41b9c26cfa28aa8b06eb6b77d4781.jpg",
    "url": "https://www.google.com/maps/search/?api=1&query=Crystal%20car%20accessories&query_place_id=ChIJpxrqpxPPADsRByFQA7numlU"
  },
  {
    "title": "FF Cars Madurai",
    "categoryName": "Used car dealer",
    "address": "Pandi Kovil Ring Rd, opposite ELCOT IT Park, Madurai, Tamil Nadu 625107, India",
    "street": "Pandi Kovil Ring Rd, opposite ELCOT IT Park",
    "city": "Madurai",
    "postalCode": "625107",
    "state": "Tamil Nadu",
    "countryCode": "IN",
    "phone": "+919843883535",
    "phoneUnformatted": "+919843883535",
    "location": {
      "lat": 9.940628,
      "lng": 78.1653659
    },
    "totalScore": 4.9,
    "permanentlyClosed": false,
    "temporarilyClosed": false,
    "placeId": "ChIJR691dT7FADsR535FbRb8Y-8",
    "categories": [
      "Used car dealer"
    ],
    "reviewsCount": 127,
    "imagesCount": 62,
    "openingHours": [
      {
        "day": "Monday",
        "hours": "10 AM to 7 PM"
      },
      {
        "day": "Tuesday",
        "hours": "10 AM to 7 PM"
      },
      {
        "day": "Wednesday",
        "hours": "10 AM to 7 PM"
      },
      {
        "day": "Thursday",
        "hours": "10 AM to 7 PM"
      },
      {
        "day": "Friday",
        "hours": "10 AM to 7 PM"
      },
      {
        "day": "Saturday",
        "hours": "10 AM to 7 PM"
      },
      {
        "day": "Sunday",
        "hours": "Closed"
      }
    ],
    "imageUrl": "https://media.indianluxurycars.com/google/5fb4e2cc1e49b56290d1de4aef464189e4c92eebb46db1ba9220ac7ed9d9a496.jpg",
    "url": "https://www.google.com/maps/search/?api=1&query=FF%20Cars%20Madurai&query_place_id=ChIJR691dT7FADsR535FbRb8Y-8"
  },
  {
    "title": "GetAway Tours",
    "subTitle": "கெட்அவே டூர்ஸ்",
    "categoryName": "Car leasing service",
    "address": "MPA Complex, 124/5, Kovalan Nagar Main Rd, Madurai, Tamil Nadu 625003, India",
    "street": "MPA Complex, 124/5, Kovalan Nagar Main Rd",
    "city": "Madurai",
    "postalCode": "625003",
    "state": "Tamil Nadu",
    "countryCode": "IN",
    "website": "http://getawaytours.in/",
    "phone": "+917010265770",
    "phoneUnformatted": "+917010265770",
    "location": {
      "lat": 9.8978256,
      "lng": 78.1011188
    },
    "totalScore": 4.4,
    "permanentlyClosed": false,
    "temporarilyClosed": false,
    "placeId": "ChIJfyLBKpDPADsRYEf_TPfbs_0",
    "categories": [
      "Car leasing service",
      "Airline ticket agency",
      "Bus ticket agency",
      "Tour operator"
    ],
    "reviewsCount": 5,
    "imagesCount": 35,
    "openingHours": [
      {
        "day": "Monday",
        "hours": "9:30 AM to 7 PM"
      },
      {
        "day": "Tuesday",
        "hours": "9:30 AM to 7 PM"
      },
      {
        "day": "Wednesday",
        "hours": "9:30 AM to 7 PM"
      },
      {
        "day": "Thursday",
        "hours": "9:30 AM to 7 PM"
      },
      {
        "day": "Friday",
        "hours": "9:30 AM to 7 PM"
      },
      {
        "day": "Saturday",
        "hours": "9:30 AM to 7 PM"
      },
      {
        "day": "Sunday",
        "hours": "Closed"
      }
    ],
    "imageUrl": "https://media.indianluxurycars.com/google/89207c215df9d77c5193c43b8eeeae21f9c45e935f7d3438b41646731f52616e.jpg",
    "url": "https://www.google.com/maps/search/?api=1&query=GetAway%20Tours&query_place_id=ChIJfyLBKpDPADsRYEf_TPfbs_0"
  },
  {
    "title": "Globel Cars Service and Accessories",
    "categoryName": "Car repair and maintenance service",
    "address": "Kochadai, Madurai, Tamil Nadu 625016, India",
    "neighborhood": "Kochadai",
    "city": "Madurai",
    "postalCode": "625016",
    "state": "Tamil Nadu",
    "countryCode": "IN",
    "website": "https://ap.boschcarservice.com/in/en",
    "phone": "+919944964246",
    "phoneUnformatted": "+919944964246",
    "location": {
      "lat": 9.9417161,
      "lng": 78.0830365
    },
    "totalScore": 4.8,
    "permanentlyClosed": false,
    "temporarilyClosed": false,
    "placeId": "ChIJNZyIdznPADsRQe-OTW7Is50",
    "categories": [
      "Car repair and maintenance service"
    ],
    "reviewsCount": 558,
    "imagesCount": 134,
    "openingHours": [
      {
        "day": "Monday",
        "hours": "8 AM to 9 PM"
      },
      {
        "day": "Tuesday",
        "hours": "8 AM to 9 PM"
      },
      {
        "day": "Wednesday",
        "hours": "8 AM to 9 PM"
      },
      {
        "day": "Thursday",
        "hours": "8 AM to 9 PM"
      },
      {
        "day": "Friday",
        "hours": "8 AM to 9 PM"
      },
      {
        "day": "Saturday",
        "hours": "8 AM to 9 PM"
      },
      {
        "day": "Sunday",
        "hours": "Closed"
      }
    ],
    "imageUrl": "https://media.indianluxurycars.com/google/7f9b9e8744047c3686a4776b171e9c2ab94cae58f1e2d489a211d175a5a2f50c.jpg",
    "url": "https://www.google.com/maps/search/?api=1&query=Globel%20Cars%20Service%20and%20Accessories&query_place_id=ChIJNZyIdznPADsRQe-OTW7Is50"
  },
  {
    "title": "Gopuram Cars Madurai",
    "categoryName": "Used car dealer",
    "address": "1A, Bypass Rd, near Gowri Krishna Hotel, State Bank Supervisors Colony, Madurai, Tamil Nadu 625016, India",
    "neighborhood": "State Bank Supervisors Colony",
    "street": "1A, Bypass Rd, near Gowri Krishna Hotel",
    "city": "Madurai",
    "postalCode": "625016",
    "state": "Tamil Nadu",
    "countryCode": "IN",
    "website": "https://gopuramcars.com/",
    "phone": "+919865122077",
    "phoneUnformatted": "+919865122077",
    "location": {
      "lat": 9.9123592,
      "lng": 78.0965629
    },
    "totalScore": 5,
    "permanentlyClosed": false,
    "temporarilyClosed": false,
    "placeId": "ChIJAfZHognPADsRZLiqBWdkqGo",
    "categories": [
      "Used car dealer"
    ],
    "reviewsCount": 9,
    "imagesCount": 6,
    "openingHours": [
      {
        "day": "Monday",
        "hours": "9 AM to 8 PM"
      },
      {
        "day": "Tuesday",
        "hours": "9 AM to 8 PM"
      },
      {
        "day": "Wednesday",
        "hours": "9 AM to 8 PM"
      },
      {
        "day": "Thursday",
        "hours": "9 AM to 8 PM"
      },
      {
        "day": "Friday",
        "hours": "9 AM to 8 PM"
      },
      {
        "day": "Saturday",
        "hours": "9 AM to 8 PM"
      },
      {
        "day": "Sunday",
        "hours": "9 AM to 8 PM"
      }
    ],
    "imageUrl": "https://media.indianluxurycars.com/google/cbc42dbdcda5b3973c387f2c380c593981b69342c382b42274dbfbe558a942c9.jpg",
    "url": "https://www.google.com/maps/search/?api=1&query=Gopuram%20Cars%20Madurai&query_place_id=ChIJAfZHognPADsRZLiqBWdkqGo"
  },
  {
    "title": "Griffin Travels",
    "categoryName": "Car leasing service",
    "address": "J.P. Complex, no.15C, Puttu Thoppu Main Rd, Puttuthoppu, Arappalayam, Madurai, Tamil Nadu 625016, India",
    "neighborhood": "Puttuthoppu, Arappalayam",
    "street": "J.P. Complex, no.15C, Puttu Thoppu Main Rd",
    "city": "Madurai",
    "postalCode": "625016",
    "state": "Tamil Nadu",
    "countryCode": "IN",
    "website": "http://www.griffintravels.com/",
    "phone": "+919345623486",
    "phoneUnformatted": "+919345623486",
    "location": {
      "lat": 9.9322167,
      "lng": 78.1100585
    },
    "totalScore": 4.9,
    "permanentlyClosed": false,
    "temporarilyClosed": false,
    "placeId": "ChIJGSzyH9rPADsR6hukARQ-duo",
    "categories": [
      "Car leasing service",
      "Sightseeing tour agency",
      "Taxi service",
      "Tour operator",
      "Travel agency",
      "Travel lounge"
    ],
    "reviewsCount": 44,
    "imagesCount": 176,
    "openingHours": [
      {
        "day": "Monday",
        "hours": "Open 24 hours"
      },
      {
        "day": "Tuesday",
        "hours": "Open 24 hours"
      },
      {
        "day": "Wednesday",
        "hours": "Open 24 hours"
      },
      {
        "day": "Thursday",
        "hours": "Open 24 hours"
      },
      {
        "day": "Friday",
        "hours": "Open 24 hours"
      },
      {
        "day": "Saturday",
        "hours": "Open 24 hours"
      },
      {
        "day": "Sunday",
        "hours": "Open 24 hours"
      }
    ],
    "imageUrl": "https://media.indianluxurycars.com/google/8286de91c524fba6b7ea728e28b839dfd11452f9a266a122d654de7eda1a9fbf.jpg",
    "url": "https://www.google.com/maps/search/?api=1&query=Griffin%20Travels&query_place_id=ChIJGSzyH9rPADsR6hukARQ-duo"
  },
  {
    "title": "Happy Tour's and travels",
    "categoryName": "Car rental agency",
    "address": "room no 103, hotel sri santhanam, 63, Town Hall Rd, opposite suresh medical, Madurai Main, Madurai, Tamil Nadu 625001, India",
    "neighborhood": "Madurai Main",
    "street": "room no 103, hotel sri santhanam, 63, Town Hall Rd, opposite suresh medical",
    "city": "Madurai",
    "postalCode": "625001",
    "state": "Tamil Nadu",
    "countryCode": "IN",
    "website": "https://happytourstravels.in/",
    "location": {
      "lat": 9.9183015,
      "lng": 78.1132888
    },
    "totalScore": 4.7,
    "permanentlyClosed": false,
    "temporarilyClosed": false,
    "placeId": "ChIJHR5IsIDFADsRUPXcrDsi4r0",
    "categories": [
      "Car rental agency",
      "Bus tour agency",
      "Tour operator",
      "Minibus taxi service"
    ],
    "reviewsCount": 706,
    "imagesCount": 508,
    "openingHours": [
      {
        "day": "Monday",
        "hours": "Open 24 hours"
      },
      {
        "day": "Tuesday",
        "hours": "Open 24 hours"
      },
      {
        "day": "Wednesday",
        "hours": "Open 24 hours"
      },
      {
        "day": "Thursday",
        "hours": "Open 24 hours"
      },
      {
        "day": "Friday",
        "hours": "Open 24 hours"
      },
      {
        "day": "Saturday",
        "hours": "Open 24 hours"
      },
      {
        "day": "Sunday",
        "hours": "Open 24 hours"
      }
    ],
    "imageUrl": "https://media.indianluxurycars.com/google/ba0baf70a576d43720baa62f8228c32f5625fee445ab40c21faca828e4493d26.jpg",
    "url": "https://www.google.com/maps/search/?api=1&query=Happy%20Tour's%20and%20travels&query_place_id=ChIJHR5IsIDFADsRUPXcrDsi4r0"
  },
  {
    "title": "Hello Cars",
    "categoryName": "Car dealer",
    "address": "Aristo Hospital, 6, Bypass Rd, near Domino’s Pizza, Bethel Nagar, Ponmeni, Madurai, Tamil Nadu 625016, India",
    "neighborhood": "Bethel Nagar, Ponmeni",
    "street": "Aristo Hospital, 6, Bypass Rd, near Domino’s Pizza",
    "city": "Madurai",
    "postalCode": "625016",
    "state": "Tamil Nadu",
    "countryCode": "IN",
    "website": "https://site.dgtechsoln.com/hello-cars/",
    "phone": "+919585050000",
    "phoneUnformatted": "+919585050000",
    "location": {
      "lat": 9.9194145,
      "lng": 78.0926842
    },
    "totalScore": 4.5,
    "permanentlyClosed": false,
    "temporarilyClosed": false,
    "placeId": "ChIJZc8d9-_PADsRL6b1dD4onXc",
    "categories": [
      "Car dealer"
    ],
    "reviewsCount": 21,
    "imagesCount": 25,
    "openingHours": [
      {
        "day": "Monday",
        "hours": "9 AM to 10 PM"
      },
      {
        "day": "Tuesday",
        "hours": "9 AM to 10 PM"
      },
      {
        "day": "Wednesday",
        "hours": "9 AM to 10 PM"
      },
      {
        "day": "Thursday",
        "hours": "9 AM to 10 PM"
      },
      {
        "day": "Friday",
        "hours": "9 AM to 10 PM"
      },
      {
        "day": "Saturday",
        "hours": "9 AM to 10 PM"
      },
      {
        "day": "Sunday",
        "hours": "9 AM to 10 PM"
      }
    ],
    "imageUrl": "https://media.indianluxurycars.com/google/da879b322ec148cb5f90af5a4cc738c0f82ab967827bb36b1b6b44a134ca51bc.jpg",
    "url": "https://www.google.com/maps/search/?api=1&query=Hello%20Cars&query_place_id=ChIJZc8d9-_PADsRL6b1dD4onXc"
  },
  {
    "title": "Innova Car Rental In Madurai - Mudra",
    "categoryName": "Car rental agency",
    "address": "Shriram Complex, No : 13, Bypass Rd, near Value City, Madurai, Tamil Nadu 625016, India",
    "street": "Shriram Complex, No : 13, Bypass Rd, near Value City",
    "city": "Madurai",
    "postalCode": "625016",
    "state": "Tamil Nadu",
    "countryCode": "IN",
    "website": "http://www.maduraimudratravels.com/",
    "phone": "+919159156669",
    "phoneUnformatted": "+919159156669",
    "location": {
      "lat": 9.9273623,
      "lng": 78.0956063
    },
    "totalScore": 5,
    "permanentlyClosed": false,
    "temporarilyClosed": false,
    "placeId": "ChIJCW3P8NvPADsRsbzI2S0s1Z8",
    "categories": [
      "Car rental agency"
    ],
    "reviewsCount": 8,
    "imagesCount": 182,
    "openingHours": [
      {
        "day": "Monday",
        "hours": "Open 24 hours"
      },
      {
        "day": "Tuesday",
        "hours": "Open 24 hours"
      },
      {
        "day": "Wednesday",
        "hours": "Open 24 hours"
      },
      {
        "day": "Thursday",
        "hours": "Open 24 hours"
      },
      {
        "day": "Friday",
        "hours": "Open 24 hours"
      },
      {
        "day": "Saturday",
        "hours": "Open 24 hours"
      },
      {
        "day": "Sunday",
        "hours": "Open 24 hours"
      }
    ],
    "imageUrl": "https://media.indianluxurycars.com/google/91bea882e7e9e5f509f69dd2d3590353dfc55cef10a7c14ca3d86a2de1486bc7.jpg",
    "url": "https://www.google.com/maps/search/?api=1&query=Innova%20Car%20Rental%20In%20Madurai%20-%20Mudra&query_place_id=ChIJCW3P8NvPADsRsbzI2S0s1Z8"
  },
  {
    "title": "K4 TOUR WORLD | Travel Agency In Madurai",
    "categoryName": "Car leasing service",
    "address": "17, Gokhale Rd, near PWD office, Madurai, Tamil Nadu 625002, India",
    "street": "17, Gokhale Rd, near PWD office",
    "city": "Madurai",
    "postalCode": "625002",
    "state": "Tamil Nadu",
    "countryCode": "IN",
    "website": "http://www.k4tourworld.com/",
    "phone": "+919843111922",
    "phoneUnformatted": "+919843111922",
    "location": {
      "lat": 9.933464,
      "lng": 78.1331487
    },
    "totalScore": 4.8,
    "permanentlyClosed": false,
    "temporarilyClosed": false,
    "placeId": "ChIJazws9erFADsR1nJUMGiTdfQ",
    "categories": [
      "Car leasing service",
      "Airline ticket agency",
      "Boat tour agency",
      "Bus ticket agency",
      "Tour operator",
      "Cruise agency",
      "Serviced accommodation",
      "Taxi service",
      "Tour agency",
      "Visa and passport office"
    ],
    "reviewsCount": 264,
    "imagesCount": 143,
    "openingHours": [],
    "imageUrl": "https://media.indianluxurycars.com/google/1ebd9115897c45d76a2de0c4b54a64d9db72786c4ce6e4b9718bfb017e6cdda6.jpg",
    "url": "https://www.google.com/maps/search/?api=1&query=K4%20TOUR%20WORLD%20%7C%20Travel%20Agency%20In%20Madurai&query_place_id=ChIJazws9erFADsR1nJUMGiTdfQ"
  },
  {
    "title": "Kia Car Service - ARAS Kia, Madurai",
    "categoryName": "Car repair and maintenance service",
    "address": "38, Tirupparankunram Rd, near Crime branch City Center, Periyar, Madurai Main, Madurai, Tamil Nadu 625001, India",
    "neighborhood": "Periyar, Madurai Main",
    "street": "38, Tirupparankunram Rd, near Crime branch City Center",
    "city": "Madurai",
    "postalCode": "625001",
    "state": "Tamil Nadu",
    "countryCode": "IN",
    "website": "http://www.arasgroup.org/kia/",
    "phone": "+917305965357",
    "phoneUnformatted": "+917305965357",
    "location": {
      "lat": 9.9112255,
      "lng": 78.1123239
    },
    "totalScore": 4.8,
    "permanentlyClosed": false,
    "temporarilyClosed": false,
    "placeId": "ChIJ897ufUfFADsRf47GoDx6ffo",
    "categories": [
      "Car repair and maintenance service",
      "Wheel alignment service"
    ],
    "reviewsCount": 995,
    "imagesCount": 237,
    "openingHours": [
      {
        "day": "Monday",
        "hours": "9:30 AM to 6 PM"
      },
      {
        "day": "Tuesday",
        "hours": "9:30 AM to 6 PM"
      },
      {
        "day": "Wednesday",
        "hours": "9:30 AM to 6 PM"
      },
      {
        "day": "Thursday",
        "hours": "9:30 AM to 6 PM"
      },
      {
        "day": "Friday",
        "hours": "9:30 AM to 6 PM"
      },
      {
        "day": "Saturday",
        "hours": "9:30 AM to 6 PM"
      },
      {
        "day": "Sunday",
        "hours": "Closed"
      }
    ],
    "imageUrl": "https://media.indianluxurycars.com/google/af9e05ed70cf6b9d7bdd2ce25c724f2ad7147ad53202c90dc2c770740559b779.jpg",
    "url": "https://www.google.com/maps/search/?api=1&query=Kia%20Car%20Service%20-%20ARAS%20Kia%2C%20Madurai&query_place_id=ChIJ897ufUfFADsRf47GoDx6ffo"
  },
  {
    "title": "KK Travels Madurai",
    "categoryName": "Car rental agency",
    "address": "No 6, Medona Cottage, Anbu 1st Cross Street, Bethaniyapuram, Madurai, Tamil Nadu 625016, India",
    "neighborhood": "Voc Nagar, chavadi",
    "street": "No 6, Medona Cottage, Anbu 1st Cross Street, Bethaniyapuram",
    "city": "Madurai",
    "postalCode": "625016",
    "state": "Tamil Nadu",
    "countryCode": "IN",
    "website": "http://www.maduraikktravels.com/",
    "phone": "+919585450222",
    "phoneUnformatted": "+919585450222",
    "location": {
      "lat": 9.93861,
      "lng": 78.090906
    },
    "totalScore": 4.5,
    "permanentlyClosed": false,
    "temporarilyClosed": false,
    "placeId": "ChIJ5VqFYELPADsR_gFvCNsHtBM",
    "categories": [
      "Car rental agency",
      "Tour operator",
      "Travel agency"
    ],
    "reviewsCount": 95,
    "imagesCount": 4,
    "openingHours": [
      {
        "day": "Monday",
        "hours": "7 AM to 11 PM"
      },
      {
        "day": "Tuesday",
        "hours": "7 AM to 11 PM"
      },
      {
        "day": "Wednesday",
        "hours": "7 AM to 11 PM"
      },
      {
        "day": "Thursday",
        "hours": "7 AM to 11 PM"
      },
      {
        "day": "Friday",
        "hours": "7 AM to 11 PM"
      },
      {
        "day": "Saturday",
        "hours": "7 AM to 11 PM"
      },
      {
        "day": "Sunday",
        "hours": "7 AM to 11 PM"
      }
    ],
    "imageUrl": "https://media.indianluxurycars.com/google/badfa3b15fc90d09246ccc932ecec43ab19ba9809112802714c818f046a096c0.jpg",
    "url": "https://www.google.com/maps/search/?api=1&query=KK%20Travels%20Madurai&query_place_id=ChIJ5VqFYELPADsR_gFvCNsHtBM"
  },
  {
    "title": "KS Travels",
    "categoryName": "Car rental agency",
    "address": "C/15, Sev Nagar, JK Nagar, 3rd St, Narayanapuram, Madurai, Tamil Nadu 625002, India",
    "neighborhood": "Narayanapuram",
    "street": "C/15, Sev Nagar, JK Nagar, 3rd St",
    "city": "Madurai",
    "postalCode": "625002",
    "state": "Tamil Nadu",
    "countryCode": "IN",
    "website": "http://www.kstourandtravels.com/innova-crysta-car-rental-in-madurai",
    "phone": "+919600384444",
    "phoneUnformatted": "+919600384444",
    "location": {
      "lat": 9.9300193,
      "lng": 78.1270778
    },
    "totalScore": 4.8,
    "permanentlyClosed": false,
    "temporarilyClosed": false,
    "placeId": "ChIJacKTLeDRADsRq7uiaY7t2kI",
    "categories": [
      "Car rental agency",
      "Car leasing service",
      "Travel agency",
      "Tour agency",
      "Tourist information center",
      "Transportation service"
    ],
    "reviewsCount": 92,
    "imagesCount": 20,
    "openingHours": [
      {
        "day": "Monday",
        "hours": "Open 24 hours"
      },
      {
        "day": "Tuesday",
        "hours": "Open 24 hours"
      },
      {
        "day": "Wednesday",
        "hours": "Open 24 hours"
      },
      {
        "day": "Thursday",
        "hours": "Open 24 hours"
      },
      {
        "day": "Friday",
        "hours": "Open 24 hours"
      },
      {
        "day": "Saturday",
        "hours": "Open 24 hours"
      },
      {
        "day": "Sunday",
        "hours": "Open 24 hours"
      }
    ],
    "imageUrl": "https://media.indianluxurycars.com/google/0f23ee335ca7d3cad695076b435c48812d89111278c827ccf40e123d461df81e.jpg",
    "url": "https://www.google.com/maps/search/?api=1&query=KS%20Travels&query_place_id=ChIJacKTLeDRADsRq7uiaY7t2kI"
  },
  {
    "title": "Kumar Carz",
    "subTitle": "குமார் கார்ஸ்",
    "categoryName": "Used car dealer",
    "address": "10, S Veli St, South Gate, Periyar, Madurai Main, Madurai, Tamil Nadu 625001, India",
    "neighborhood": "South Gate, Periyar, Madurai Main",
    "street": "10, S Veli St",
    "city": "Madurai",
    "postalCode": "625001",
    "state": "Tamil Nadu",
    "countryCode": "IN",
    "phone": "+917373595954",
    "phoneUnformatted": "+917373595954",
    "location": {
      "lat": 9.9114051,
      "lng": 78.1166717
    },
    "totalScore": 4.8,
    "permanentlyClosed": false,
    "temporarilyClosed": false,
    "placeId": "ChIJh0kT6njFADsR26sHj4aEoKA",
    "categories": [
      "Used car dealer"
    ],
    "reviewsCount": 56,
    "imagesCount": 252,
    "openingHours": [
      {
        "day": "Monday",
        "hours": "Open 24 hours"
      },
      {
        "day": "Tuesday",
        "hours": "Open 24 hours"
      },
      {
        "day": "Wednesday",
        "hours": "Open 24 hours"
      },
      {
        "day": "Thursday",
        "hours": "Open 24 hours"
      },
      {
        "day": "Friday",
        "hours": "Open 24 hours"
      },
      {
        "day": "Saturday",
        "hours": "Open 24 hours"
      },
      {
        "day": "Sunday",
        "hours": "Closed"
      }
    ],
    "imageUrl": "https://media.indianluxurycars.com/google/883a6e7c73025c4bc2eea648895721b0ef1321d7eca11eb3271e88c5237da8c6.jpg",
    "url": "https://www.google.com/maps/search/?api=1&query=Kumar%20Carz&query_place_id=ChIJh0kT6njFADsR26sHj4aEoKA"
  },
  {
    "title": "LOTUS self drive cars",
    "categoryName": "Car rental agency",
    "address": "Near Old chinthamani theater, E Veli St, Madurai, Tamil Nadu 625001, India",
    "street": "Near Old chinthamani theater, E Veli St",
    "city": "Madurai",
    "postalCode": "625001",
    "state": "Tamil Nadu",
    "countryCode": "IN",
    "phone": "+918608603088",
    "phoneUnformatted": "+918608603088",
    "location": {
      "lat": 9.9190483,
      "lng": 78.1267141
    },
    "totalScore": 4.7,
    "permanentlyClosed": false,
    "temporarilyClosed": false,
    "placeId": "ChIJUZKX4CjFADsRMSyFGWociGg",
    "categories": [
      "Car rental agency",
      "Car leasing service",
      "Travel agency"
    ],
    "reviewsCount": 228,
    "imagesCount": 37,
    "openingHours": [
      {
        "day": "Monday",
        "hours": "Open 24 hours"
      },
      {
        "day": "Tuesday",
        "hours": "Open 24 hours"
      },
      {
        "day": "Wednesday",
        "hours": "Open 24 hours"
      },
      {
        "day": "Thursday",
        "hours": "Open 24 hours"
      },
      {
        "day": "Friday",
        "hours": "Open 24 hours"
      },
      {
        "day": "Saturday",
        "hours": "Open 24 hours"
      },
      {
        "day": "Sunday",
        "hours": "Open 24 hours"
      }
    ],
    "imageUrl": "https://media.indianluxurycars.com/google/1f6eb98a0ca55030196fab3be26bc0e38b5f941fb0e4de0994e1795622123efc.jpg",
    "url": "https://www.google.com/maps/search/?api=1&query=LOTUS%20self%20drive%20cars&query_place_id=ChIJUZKX4CjFADsRMSyFGWociGg"
  },
  {
    "title": "Luxury Seat Covers & Decors | Car seat cover in madurai | Car Accessories in Madurai | Top Car accessory dealer Madurai",
    "categoryName": "Car accessories store",
    "address": "GST main road, Pasumalai, Madurai, Tamil Nadu 625005, India",
    "neighborhood": "Pasumalai",
    "street": "GST main road",
    "city": "Madurai",
    "postalCode": "625005",
    "state": "Tamil Nadu",
    "countryCode": "IN",
    "phone": "+919677756323",
    "phoneUnformatted": "+919677756323",
    "location": {
      "lat": 9.8927814,
      "lng": 78.0766395
    },
    "totalScore": 5,
    "permanentlyClosed": false,
    "temporarilyClosed": false,
    "placeId": "ChIJvXeIRcPPADsRJXXE2u9R2VE",
    "categories": [
      "Car accessories store",
      "Auto accessories wholesaler",
      "Seat dealer"
    ],
    "reviewsCount": 76,
    "imagesCount": 51,
    "openingHours": [
      {
        "day": "Monday",
        "hours": "9 AM to 8:30 PM"
      },
      {
        "day": "Tuesday",
        "hours": "9 AM to 8:30 PM"
      },
      {
        "day": "Wednesday",
        "hours": "9 AM to 8:30 PM"
      },
      {
        "day": "Thursday",
        "hours": "9 AM to 8:30 PM"
      },
      {
        "day": "Friday",
        "hours": "9 AM to 8:30 PM"
      },
      {
        "day": "Saturday",
        "hours": "9 AM to 8:30 PM"
      },
      {
        "day": "Sunday",
        "hours": "9 AM to 2 PM"
      }
    ],
    "imageUrl": "https://media.indianluxurycars.com/google/7118986328b2e92cc2b0b4d60470b7bf7d19f18664623759e144f8003f73d8e1.jpg",
    "url": "https://www.google.com/maps/search/?api=1&query=Luxury%20Seat%20Covers%20%26%20Decors%20%7C%20Car%20seat%20cover%20in%20madurai%20%7C%20Car%20Accessories%20in%20Madurai%20%7C%20Top%20Car%20accessory%20dealer%20Madurai&query_place_id=ChIJvXeIRcPPADsRJXXE2u9R2VE"
  },
  {
    "title": "Madurai Car Rental",
    "subTitle": "மதுரை கார் வாடகை",
    "categoryName": "Car rental agency",
    "address": "Kazimar St, Periyar, Madurai Main, Madurai, Tamil Nadu 625001, India",
    "neighborhood": "Periyar, Madurai Main",
    "street": "Kazimar St",
    "city": "Madurai",
    "postalCode": "625001",
    "state": "Tamil Nadu",
    "countryCode": "IN",
    "phone": "+919952838786",
    "phoneUnformatted": "+919952838786",
    "location": {
      "lat": 9.9131877,
      "lng": 78.1134087
    },
    "totalScore": 4.8,
    "permanentlyClosed": false,
    "temporarilyClosed": false,
    "placeId": "ChIJT6Z7KYPFADsRKYihi0BGyTY",
    "categories": [
      "Car rental agency",
      "Car leasing service",
      "Tour agency",
      "Tour operator",
      "Travel agency"
    ],
    "reviewsCount": 133,
    "imagesCount": 115,
    "openingHours": [
      {
        "day": "Monday",
        "hours": "Open 24 hours"
      },
      {
        "day": "Tuesday",
        "hours": "Open 24 hours"
      },
      {
        "day": "Wednesday",
        "hours": "Open 24 hours"
      },
      {
        "day": "Thursday",
        "hours": "Open 24 hours"
      },
      {
        "day": "Friday",
        "hours": "Open 24 hours"
      },
      {
        "day": "Saturday",
        "hours": "Open 24 hours"
      },
      {
        "day": "Sunday",
        "hours": "Open 24 hours"
      }
    ],
    "imageUrl": "https://media.indianluxurycars.com/google/ad5073133420adc38bb44e10c0d484f683ab1df7bdeb121e8be03b909f4497d2.jpg",
    "url": "https://www.google.com/maps/search/?api=1&query=Madurai%20Car%20Rental&query_place_id=ChIJT6Z7KYPFADsRKYihi0BGyTY"
  },
  {
    "title": "Madurai Taxi - Royal Travels",
    "subTitle": "ராயல் டிராவல்ஸ்",
    "categoryName": "Car rental agency",
    "address": "# 8G/2, NRV Complex, Bypass Rd, Thikathir, Madurai, Tamil Nadu 625018, India",
    "neighborhood": "Thikathir",
    "street": "# 8G/2, NRV Complex, Bypass Rd",
    "city": "Madurai",
    "postalCode": "625018",
    "state": "Tamil Nadu",
    "countryCode": "IN",
    "website": "http://www.maduraitaxi.com/",
    "phone": "+919842335457",
    "phoneUnformatted": "+919842335457",
    "location": {
      "lat": 9.941052,
      "lng": 78.099138
    },
    "totalScore": 5,
    "permanentlyClosed": false,
    "temporarilyClosed": false,
    "placeId": "ChIJdXIKykTPADsR34fkUleVONg",
    "categories": [
      "Car rental agency",
      "Car leasing service",
      "Taxi service",
      "Minibus taxi service",
      "Sightseeing tour agency",
      "Tour agency",
      "Tour operator",
      "Travel agency"
    ],
    "reviewsCount": 1,
    "imagesCount": 1,
    "openingHours": [],
    "imageUrl": "https://media.indianluxurycars.com/google/205fb97ac45b0b9af2e56b3bdafd13e241e20df4ce7b815e252ff5283f3a3303.jpg",
    "url": "https://www.google.com/maps/search/?api=1&query=Madurai%20Taxi%20-%20Royal%20Travels&query_place_id=ChIJdXIKykTPADsR34fkUleVONg"
  },
  {
    "title": "Madurai Thendral Tour's and Travels",
    "categoryName": "Car rental agency",
    "address": "railway junction, Madurai, Tamil Nadu 625001, India",
    "street": "railway junction",
    "city": "Madurai",
    "postalCode": "625001",
    "state": "Tamil Nadu",
    "countryCode": "IN",
    "website": "http://maduraithendraltoursandtravels.com/",
    "phone": "+919080904161",
    "phoneUnformatted": "+919080904161",
    "location": {
      "lat": 9.9192515,
      "lng": 78.1104964
    },
    "totalScore": 5,
    "permanentlyClosed": false,
    "temporarilyClosed": false,
    "placeId": "ChIJdw9_aVDPADsRK7ulev2H4AE",
    "categories": [
      "Car rental agency"
    ],
    "reviewsCount": 103,
    "imagesCount": 72,
    "openingHours": [
      {
        "day": "Monday",
        "hours": "Open 24 hours"
      },
      {
        "day": "Tuesday",
        "hours": "Open 24 hours"
      },
      {
        "day": "Wednesday",
        "hours": "Open 24 hours"
      },
      {
        "day": "Thursday",
        "hours": "Open 24 hours"
      },
      {
        "day": "Friday",
        "hours": "Open 24 hours"
      },
      {
        "day": "Saturday",
        "hours": "Open 24 hours"
      },
      {
        "day": "Sunday",
        "hours": "Open 24 hours"
      }
    ],
    "imageUrl": "https://media.indianluxurycars.com/google/d31864c9c298654a86444240b4abd04e3c5667e91e0aecc30cb546ba531e8949.jpg",
    "url": "https://www.google.com/maps/search/?api=1&query=Madurai%20Thendral%20Tour's%20and%20Travels&query_place_id=ChIJdw9_aVDPADsRK7ulev2H4AE"
  },
  {
    "title": "Madurai Travels",
    "subTitle": "மதுரை டிராவல்ஸ்",
    "categoryName": "Car rental agency",
    "address": "New college House, Town Hall Rd, Madurai Main, Madurai, Tamil Nadu 625001, India",
    "neighborhood": "Madurai Main",
    "street": "New college House, Town Hall Rd",
    "city": "Madurai",
    "postalCode": "625001",
    "state": "Tamil Nadu",
    "countryCode": "IN",
    "phone": "+919626533499",
    "phoneUnformatted": "+919626533499",
    "location": {
      "lat": 9.918288,
      "lng": 78.112316
    },
    "totalScore": 4.5,
    "permanentlyClosed": false,
    "temporarilyClosed": false,
    "placeId": "ChIJE1dQNYfFADsRR3EYAE2v8L8",
    "categories": [
      "Car rental agency",
      "Car leasing service",
      "Hotel",
      "Lodging",
      "Tour operator",
      "Travel agency"
    ],
    "reviewsCount": 20,
    "imagesCount": 15,
    "openingHours": [],
    "imageUrl": "https://media.indianluxurycars.com/google/f2da0cc9b629737c04f08abfacf3f1b326cd5ef49359d17ca4ceff50ced1206b.jpg",
    "url": "https://www.google.com/maps/search/?api=1&query=Madurai%20Travels&query_place_id=ChIJE1dQNYfFADsRR3EYAE2v8L8"
  },
  {
    "title": "ManiRaja Travels",
    "categoryName": "Car rental agency",
    "address": "2-1/28, Anna Main Veethi, opp. St Antony Middle School, Koodal Nagar, Madurai, Tamil Nadu 625018, India",
    "neighborhood": "Koodal Nagar",
    "street": "2-1/28, Anna Main Veethi, opp. St Antony Middle School",
    "city": "Madurai",
    "postalCode": "625018",
    "state": "Tamil Nadu",
    "countryCode": "IN",
    "website": "http://www.maduraimanirajatravels.in/",
    "phone": "+917305512453",
    "phoneUnformatted": "+917305512453",
    "location": {
      "lat": 9.9590899,
      "lng": 78.1002022
    },
    "totalScore": 4.8,
    "permanentlyClosed": false,
    "temporarilyClosed": false,
    "placeId": "ChIJf5AxfVrPADsR8rIizpgukCM",
    "categories": [
      "Car rental agency",
      "Car leasing service",
      "Taxi service",
      "Minibus taxi service",
      "Motoring club",
      "Sightseeing tour agency",
      "Tour operator",
      "Travel agency",
      "Van rental agency"
    ],
    "reviewsCount": 347,
    "imagesCount": 54,
    "openingHours": [],
    "imageUrl": "https://media.indianluxurycars.com/google/317b0098ee930e6acad0efc182e93f05d2748ba3383f20eaf8011bacb2db1869.jpg",
    "url": "https://www.google.com/maps/search/?api=1&query=ManiRaja%20Travels&query_place_id=ChIJf5AxfVrPADsR8rIizpgukCM"
  },
  {
    "title": "Paul Cars",
    "subTitle": "பவுல் கார்கள்",
    "categoryName": "Used car dealer",
    "address": "Shop No. 50/3, 50, Chokkalinganagar Main Rd, Chokkalinga Nagar, Ponmeni, Madurai, Tamil Nadu 625016, India",
    "neighborhood": "Chokkalinga Nagar, Ponmeni",
    "street": "Shop No. 50/3, 50, Chokkalinganagar Main Rd",
    "city": "Madurai",
    "postalCode": "625016",
    "state": "Tamil Nadu",
    "countryCode": "IN",
    "website": "https://paulcars2000.wixsite.com/pc20",
    "phone": "+919842150753",
    "phoneUnformatted": "+919842150753",
    "location": {
      "lat": 9.926894,
      "lng": 78.0935931
    },
    "totalScore": 3.5,
    "permanentlyClosed": false,
    "temporarilyClosed": false,
    "placeId": "ChIJv1JynG7PADsRAbV0KscUvPQ",
    "categories": [
      "Used car dealer"
    ],
    "reviewsCount": 19,
    "imagesCount": 106,
    "openingHours": [
      {
        "day": "Monday",
        "hours": "9:30 AM to 8 PM"
      },
      {
        "day": "Tuesday",
        "hours": "9:30 AM to 8 PM"
      },
      {
        "day": "Wednesday",
        "hours": "9:30 AM to 8 PM"
      },
      {
        "day": "Thursday",
        "hours": "9:30 AM to 8 PM"
      },
      {
        "day": "Friday",
        "hours": "9:30 AM to 8 PM"
      },
      {
        "day": "Saturday",
        "hours": "9:30 AM to 8 PM"
      },
      {
        "day": "Sunday",
        "hours": "9:30 AM to 8 PM"
      }
    ],
    "imageUrl": "https://media.indianluxurycars.com/google/1cb35eea19fb6e818665b7402bff75da8d86b6a83ff8d5a3b80154aa953a1a17.jpg",
    "url": "https://www.google.com/maps/search/?api=1&query=Paul%20Cars&query_place_id=ChIJv1JynG7PADsRAbV0KscUvPQ"
  },
  {
    "title": "Ragavendhra Tourism",
    "categoryName": "Car rental agency",
    "address": "5a, Vilachery Main Rd, Indra Nagar, Kala Malai, Pasumalai, Madurai, Tamil Nadu 625004, India",
    "neighborhood": "Indra Nagar, Kala Malai, Pasumalai",
    "street": "5a, Vilachery Main Rd",
    "city": "Madurai",
    "postalCode": "625004",
    "state": "Tamil Nadu",
    "countryCode": "IN",
    "location": {
      "lat": 9.8986468,
      "lng": 78.070987
    },
    "totalScore": 5,
    "permanentlyClosed": false,
    "temporarilyClosed": false,
    "placeId": "ChIJ6x9gxCTPADsRvtTJI0SDshk",
    "categories": [
      "Car rental agency",
      "Car leasing service",
      "Taxi service",
      "Chauffeur service",
      "Motoring club",
      "Taxicab Stand",
      "Tour agency",
      "Tourist information center",
      "Travel agency"
    ],
    "reviewsCount": 28,
    "imagesCount": 89,
    "openingHours": [],
    "imageUrl": "https://media.indianluxurycars.com/google/cadf1978864d111268c0ee61ddd520fd3c962c221ae4646e2305b0495f73927d.jpg",
    "url": "https://www.google.com/maps/search/?api=1&query=Ragavendhra%20Tourism&query_place_id=ChIJ6x9gxCTPADsRvtTJI0SDshk"
  },
  {
    "title": "RAMYA TRAVELS | TRAVEL AGENT IN MADURAI | CAR RENTAL MADURAI",
    "categoryName": "Car leasing service",
    "address": "No14,Upstairs of vignesh bakary, Travelers Bunglow Rd, Bharathidasan Saalai, Mahaboopa palayam, Madurai, Tamil Nadu 625016, India",
    "neighborhood": "Bharathidasan Saalai, Mahaboopa palayam",
    "street": "No14,Upstairs of vignesh bakary, Travelers Bunglow Rd",
    "city": "Madurai",
    "postalCode": "625016",
    "state": "Tamil Nadu",
    "countryCode": "IN",
    "website": "https://ramyatoursandtravels.com/",
    "phone": "+918098859239",
    "phoneUnformatted": "+918098859239",
    "location": {
      "lat": 9.9210393,
      "lng": 78.105917
    },
    "totalScore": 4.3,
    "permanentlyClosed": false,
    "temporarilyClosed": false,
    "placeId": "ChIJUXOzPOrPADsR_G8Drootu-M",
    "categories": [
      "Car leasing service",
      "Travel agency",
      "Minibus taxi service",
      "Tour operator"
    ],
    "reviewsCount": 33,
    "imagesCount": 193,
    "openingHours": [
      {
        "day": "Monday",
        "hours": "Open 24 hours"
      },
      {
        "day": "Tuesday",
        "hours": "Open 24 hours"
      },
      {
        "day": "Wednesday",
        "hours": "Open 24 hours"
      },
      {
        "day": "Thursday",
        "hours": "Open 24 hours"
      },
      {
        "day": "Friday",
        "hours": "Open 24 hours"
      },
      {
        "day": "Saturday",
        "hours": "Open 24 hours"
      },
      {
        "day": "Sunday",
        "hours": "Open 24 hours"
      }
    ],
    "imageUrl": "https://media.indianluxurycars.com/google/9c26a3d9614d348d60e983dbc2f20385b8c7d7c6af7fb6fb5b969ddb7743328a.jpg",
    "url": "https://www.google.com/maps/search/?api=1&query=RAMYA%20TRAVELS%20%7C%20TRAVEL%20AGENT%20IN%20MADURAI%20%7C%20CAR%20RENTAL%20MADURAI&query_place_id=ChIJUXOzPOrPADsR_G8Drootu-M"
  },
  {
    "title": "RRGtravels madurai",
    "categoryName": "Car leasing service",
    "address": "Sambakulam Main Rd, Swami Vivekananda Nagar, Madurai, Tamil Nadu 625007, India",
    "neighborhood": "Swami Vivekananda Nagar",
    "street": "Sambakulam Main Rd",
    "city": "Madurai",
    "postalCode": "625007",
    "state": "Tamil Nadu",
    "countryCode": "IN",
    "website": "http://www.madurairrgtravels.in/",
    "location": {
      "lat": 9.9509239,
      "lng": 78.1547402
    },
    "totalScore": 4.6,
    "permanentlyClosed": false,
    "temporarilyClosed": false,
    "placeId": "ChIJD2K0yCHFADsRiSfLNEv3LVw",
    "categories": [
      "Car leasing service",
      "Taxi service"
    ],
    "reviewsCount": 45,
    "imagesCount": 14,
    "openingHours": [],
    "imageUrl": "https://media.indianluxurycars.com/google/2bc6e5d77caf0fd1f8fd3680a99e823c244d49a2a6bdc801b3ca7eb674b47507.jpg",
    "url": "https://www.google.com/maps/search/?api=1&query=RRGtravels%20madurai&query_place_id=ChIJD2K0yCHFADsRiSfLNEv3LVw"
  },
  {
    "title": "S P R Travels",
    "categoryName": "Car rental agency",
    "address": "Rajangam Veethi, Nagu Nagar, Madurai, Tamil Nadu 625016, India",
    "neighborhood": "Nagu Nagar",
    "street": "Rajangam Veethi",
    "city": "Madurai",
    "postalCode": "625016",
    "state": "Tamil Nadu",
    "countryCode": "IN",
    "phone": "+917305150188",
    "phoneUnformatted": "+917305150188",
    "location": {
      "lat": 9.9387932,
      "lng": 78.0974575
    },
    "totalScore": 5,
    "permanentlyClosed": false,
    "temporarilyClosed": false,
    "placeId": "ChIJY_qZ8YbPADsRJq_hKtYGBGQ",
    "categories": [
      "Car rental agency",
      "Bus tour agency",
      "Car leasing service",
      "Taxi service",
      "Tour agency",
      "Tour operator",
      "Van rental agency"
    ],
    "reviewsCount": 144,
    "imagesCount": 91,
    "openingHours": [
      {
        "day": "Monday",
        "hours": "Open 24 hours"
      },
      {
        "day": "Tuesday",
        "hours": "Open 24 hours"
      },
      {
        "day": "Wednesday",
        "hours": "Open 24 hours"
      },
      {
        "day": "Thursday",
        "hours": "Open 24 hours"
      },
      {
        "day": "Friday",
        "hours": "Open 24 hours"
      },
      {
        "day": "Saturday",
        "hours": "Open 24 hours"
      },
      {
        "day": "Sunday",
        "hours": "Open 24 hours"
      }
    ],
    "imageUrl": "https://media.indianluxurycars.com/google/5a4cfaa97dceff034ae9c41c65c3b64c22dad7b90fffd1fa896367096f76bed6.jpg",
    "url": "https://www.google.com/maps/search/?api=1&query=S%20P%20R%20Travels&query_place_id=ChIJY_qZ8YbPADsRJq_hKtYGBGQ"
  },
  {
    "title": "Sibicabs",
    "subTitle": "சிபிகாப்ஸ்",
    "categoryName": "Car rental agency",
    "address": "21, greenpark extension, Sikkandar Savadi, Koodal Nagar, Madurai, Tamil Nadu 625018, India",
    "neighborhood": "greenpark extension, Sikkandar Savadi, Koodal Nagar",
    "street": "21",
    "city": "Madurai",
    "postalCode": "625018",
    "state": "Tamil Nadu",
    "countryCode": "IN",
    "website": "http://sibicabs.in/",
    "phone": "+917904188859",
    "phoneUnformatted": "+917904188859",
    "location": {
      "lat": 9.980342,
      "lng": 78.0948765
    },
    "totalScore": 5,
    "permanentlyClosed": false,
    "temporarilyClosed": false,
    "placeId": "ChIJVewxVQDPADsRlop-hIS3QIk",
    "categories": [
      "Car rental agency",
      "Car leasing service",
      "Taxi service",
      "Sightseeing tour agency",
      "Tour operator",
      "Travel agency"
    ],
    "reviewsCount": 135,
    "imagesCount": 103,
    "openingHours": [],
    "imageUrl": "https://media.indianluxurycars.com/google/7d3cb99c85b675befc221dc9af15bffded3df8d8d8013d28bfc847fa357da407.jpg",
    "url": "https://www.google.com/maps/search/?api=1&query=Sibicabs&query_place_id=ChIJVewxVQDPADsRlop-hIS3QIk"
  },
  {
    "title": "SKAH TOURISM",
    "subTitle": "ஸ்கா டூரிஸம்",
    "categoryName": "Car rental agency",
    "address": "22,Maruthu pandian nagar3rd, street, Narimedu, Madurai, Tamil Nadu 625002, India",
    "neighborhood": "Narimedu",
    "street": "22,Maruthu pandian nagar3rd, street",
    "city": "Madurai",
    "postalCode": "625002",
    "state": "Tamil Nadu",
    "countryCode": "IN",
    "website": "http://www.skahtourism.com/",
    "phone": "+918903862713",
    "phoneUnformatted": "+918903862713",
    "location": {
      "lat": 9.9418975,
      "lng": 78.1259717
    },
    "totalScore": 5,
    "permanentlyClosed": false,
    "temporarilyClosed": false,
    "placeId": "ChIJQS_5ku7FADsR70OuLa5lkFw",
    "categories": [
      "Car rental agency",
      "Travel agency"
    ],
    "reviewsCount": 27,
    "imagesCount": 58,
    "openingHours": [
      {
        "day": "Monday",
        "hours": "Open 24 hours"
      },
      {
        "day": "Tuesday",
        "hours": "Open 24 hours"
      },
      {
        "day": "Wednesday",
        "hours": "Open 24 hours"
      },
      {
        "day": "Thursday",
        "hours": "Open 24 hours"
      },
      {
        "day": "Friday",
        "hours": "Open 24 hours"
      },
      {
        "day": "Saturday",
        "hours": "Open 24 hours"
      },
      {
        "day": "Sunday",
        "hours": "Open 24 hours"
      }
    ],
    "imageUrl": "https://media.indianluxurycars.com/google/920a11021378dc6016811962cbb0a42ebb7caf04427b9a5038a227a2dcb17199.jpg",
    "url": "https://www.google.com/maps/search/?api=1&query=SKAH%20TOURISM&query_place_id=ChIJQS_5ku7FADsR70OuLa5lkFw"
  },
  {
    "title": "SRI DEVI CARS | Used Car Dealers in Madurai | Second Hand Car Dealer in Madurai | Used Cars in Madurai",
    "categoryName": "Used car dealer",
    "address": "37, Thathaneri Main Rd, Thikathir, Madurai, Tamil Nadu 625018, India",
    "neighborhood": "Thikathir",
    "street": "37, Thathaneri Main Rd",
    "city": "Madurai",
    "postalCode": "625018",
    "state": "Tamil Nadu",
    "countryCode": "IN",
    "website": "https://sridevicars.com/",
    "phone": "+919789432432",
    "phoneUnformatted": "+919789432432",
    "location": {
      "lat": 9.9437787,
      "lng": 78.1007333
    },
    "totalScore": 4.9,
    "permanentlyClosed": false,
    "temporarilyClosed": false,
    "placeId": "ChIJA-VOFQDPADsRgJpiwI80cnE",
    "categories": [
      "Used car dealer",
      "Auto restoration service",
      "Car dealer"
    ],
    "reviewsCount": 498,
    "imagesCount": 68,
    "openingHours": [
      {
        "day": "Monday",
        "hours": "9 AM to 8 PM"
      },
      {
        "day": "Tuesday",
        "hours": "9 AM to 8 PM"
      },
      {
        "day": "Wednesday",
        "hours": "9 AM to 8 PM"
      },
      {
        "day": "Thursday",
        "hours": "9 AM to 8 PM"
      },
      {
        "day": "Friday",
        "hours": "9 AM to 8 PM"
      },
      {
        "day": "Saturday",
        "hours": "9 AM to 8 PM"
      },
      {
        "day": "Sunday",
        "hours": "9 AM to 8 PM"
      }
    ],
    "imageUrl": "https://media.indianluxurycars.com/google/5124a960195f1ce16f690a7add02c1444eb3c8e01d1b01b99019a90937c5fd45.jpg",
    "url": "https://www.google.com/maps/search/?api=1&query=SRI%20DEVI%20CARS%20%7C%20Used%20Car%20Dealers%20in%20Madurai%20%7C%20Second%20Hand%20Car%20Dealer%20in%20Madurai%20%7C%20Used%20Cars%20in%20Madurai&query_place_id=ChIJA-VOFQDPADsRgJpiwI80cnE"
  },
  {
    "title": "Sri Gopuram tours & travels | Best Travels Agent in Madurai | Tempo traveller Urbania",
    "categoryName": "Car rental agency",
    "address": "Old Central Market, meenakshi amman multi level car parking, no 44, N Avani Moola St, vedhi, Madurai Main, Madurai, Tamil Nadu 625001, India",
    "neighborhood": "vedhi, Madurai Main",
    "street": "Old Central Market, meenakshi amman multi level car parking, no 44, N Avani Moola St",
    "city": "Madurai",
    "postalCode": "625001",
    "state": "Tamil Nadu",
    "countryCode": "IN",
    "website": "http://www.srigopuramtoursandtravels.com/",
    "phone": "+919797971007",
    "phoneUnformatted": "+919797971007",
    "location": {
      "lat": 9.9214595,
      "lng": 78.1207238
    },
    "totalScore": 5,
    "permanentlyClosed": false,
    "temporarilyClosed": false,
    "placeId": "ChIJwX9Yv6XFADsRD3MHzc0w-SY",
    "categories": [
      "Car rental agency",
      "Car leasing service",
      "Van rental agency",
      "Sightseeing tour agency",
      "Taxi service",
      "Tour operator",
      "Travel agency"
    ],
    "reviewsCount": 45,
    "imagesCount": 24,
    "openingHours": [
      {
        "day": "Monday",
        "hours": "Open 24 hours"
      },
      {
        "day": "Tuesday",
        "hours": "Open 24 hours"
      },
      {
        "day": "Wednesday",
        "hours": "Open 24 hours"
      },
      {
        "day": "Thursday",
        "hours": "Open 24 hours"
      },
      {
        "day": "Friday",
        "hours": "Open 24 hours"
      },
      {
        "day": "Saturday",
        "hours": "Open 24 hours"
      },
      {
        "day": "Sunday",
        "hours": "Open 24 hours"
      }
    ],
    "imageUrl": "https://media.indianluxurycars.com/google/e90b1a2a5d759884612b4234ccf0a26743b56754aabc42258865283af8a43f46.jpg",
    "url": "https://www.google.com/maps/search/?api=1&query=Sri%20Gopuram%20tours%20%26%20travels%20%7C%20Best%20Travels%20Agent%20in%20Madurai%20%7C%20Tempo%20traveller%20Urbania&query_place_id=ChIJwX9Yv6XFADsRD3MHzc0w-SY"
  },
  {
    "title": "Sri Raam cabs",
    "categoryName": "Car rental agency",
    "address": "13A, Krishnapuram Colony 4th St, Indira Nagar, Viswanathapuram, Madurai, Tamil Nadu 625014, India",
    "neighborhood": "Indira Nagar, Viswanathapuram",
    "street": "13A, Krishnapuram Colony 4th St",
    "city": "Madurai",
    "postalCode": "625014",
    "state": "Tamil Nadu",
    "countryCode": "IN",
    "website": "http://www.sriraamcabs.com/",
    "phone": "+919244331133",
    "phoneUnformatted": "+919244331133",
    "location": {
      "lat": 9.9488649,
      "lng": 78.1275129
    },
    "totalScore": 4.8,
    "permanentlyClosed": false,
    "temporarilyClosed": false,
    "placeId": "ChIJozZqEi_FADsRmdiByroBnYM",
    "categories": [
      "Car rental agency",
      "Car leasing service",
      "Taxi service",
      "Travel agency"
    ],
    "reviewsCount": 49,
    "imagesCount": 108,
    "openingHours": [
      {
        "day": "Monday",
        "hours": "Open 24 hours"
      },
      {
        "day": "Tuesday",
        "hours": "Open 24 hours"
      },
      {
        "day": "Wednesday",
        "hours": "Open 24 hours"
      },
      {
        "day": "Thursday",
        "hours": "Open 24 hours"
      },
      {
        "day": "Friday",
        "hours": "Open 24 hours"
      },
      {
        "day": "Saturday",
        "hours": "Open 24 hours"
      },
      {
        "day": "Sunday",
        "hours": "Open 24 hours"
      }
    ],
    "imageUrl": "https://media.indianluxurycars.com/google/80dc62e7b158d7187d3f02f86e7dc34151af385fae8e0dd0dd992a4d3ddaec79.jpg",
    "url": "https://www.google.com/maps/search/?api=1&query=Sri%20Raam%20cabs&query_place_id=ChIJozZqEi_FADsRmdiByroBnYM"
  },
  {
    "title": "Thamarai Rental cars",
    "categoryName": "Car rental agency",
    "address": "Plot no: 25, thaai moogambigai nagar, Pandi kovil old via, karuppayurani, post, Madurai, Tamil Nadu 625020, India",
    "street": "Plot no: 25, thaai moogambigai nagar, Pandi kovil old via, karuppayurani, post",
    "city": "Madurai",
    "postalCode": "625020",
    "state": "Tamil Nadu",
    "countryCode": "IN",
    "phone": "+919363266907",
    "phoneUnformatted": "+919363266907",
    "location": {
      "lat": 9.9314119,
      "lng": 78.1667668
    },
    "totalScore": 5,
    "permanentlyClosed": false,
    "temporarilyClosed": false,
    "placeId": "ChIJ1UnjVjbFADsRuzjkdhJwews",
    "categories": [
      "Car rental agency"
    ],
    "reviewsCount": 41,
    "imagesCount": 11,
    "openingHours": [
      {
        "day": "Monday",
        "hours": "Open 24 hours"
      },
      {
        "day": "Tuesday",
        "hours": "Open 24 hours"
      },
      {
        "day": "Wednesday",
        "hours": "Open 24 hours"
      },
      {
        "day": "Thursday",
        "hours": "Open 24 hours"
      },
      {
        "day": "Friday",
        "hours": "Open 24 hours"
      },
      {
        "day": "Saturday",
        "hours": "Open 24 hours"
      },
      {
        "day": "Sunday",
        "hours": "Open 24 hours"
      }
    ],
    "imageUrl": "https://media.indianluxurycars.com/google/1707f62e27fe03d6691246cfbfaaeb5bacca1e95926bee30c8bd37087db999c1.jpg",
    "url": "https://www.google.com/maps/search/?api=1&query=Thamarai%20Rental%20cars&query_place_id=ChIJ1UnjVjbFADsRuzjkdhJwews"
  },
  {
    "title": "Travels In Madurai - Sun Travels",
    "categoryName": "Car rental agency",
    "address": "12H, Sriram Complex, Bypass Rd, near Value City, S.B.O. Second Colony, Madurai, Tamil Nadu 625016, India",
    "neighborhood": "S.B.O. Second Colony",
    "street": "12H, Sriram Complex, Bypass Rd, near Value City",
    "city": "Madurai",
    "postalCode": "625016",
    "state": "Tamil Nadu",
    "countryCode": "IN",
    "website": "https://maduraisuntravels.com/",
    "phone": "+918438432400",
    "phoneUnformatted": "+918438432400",
    "location": {
      "lat": 9.9172129,
      "lng": 78.0948724
    },
    "totalScore": 4.7,
    "permanentlyClosed": false,
    "temporarilyClosed": false,
    "placeId": "ChIJmTRRsebPADsR_4XcCSNHHbY",
    "categories": [
      "Car rental agency",
      "Travel agency"
    ],
    "reviewsCount": 141,
    "imagesCount": 331,
    "openingHours": [
      {
        "day": "Monday",
        "hours": "Open 24 hours"
      },
      {
        "day": "Tuesday",
        "hours": "Open 24 hours"
      },
      {
        "day": "Wednesday",
        "hours": "Open 24 hours"
      },
      {
        "day": "Thursday",
        "hours": "Open 24 hours"
      },
      {
        "day": "Friday",
        "hours": "Open 24 hours"
      },
      {
        "day": "Saturday",
        "hours": "Open 24 hours"
      },
      {
        "day": "Sunday",
        "hours": "Open 24 hours"
      }
    ],
    "imageUrl": "https://media.indianluxurycars.com/google/91bea882e7e9e5f509f69dd2d3590353dfc55cef10a7c14ca3d86a2de1486bc7.jpg",
    "url": "https://www.google.com/maps/search/?api=1&query=Travels%20In%20Madurai%20-%20Sun%20Travels&query_place_id=ChIJmTRRsebPADsR_4XcCSNHHbY"
  },
  {
    "title": "Vijay Seat Cover",
    "subTitle": "விஜய் சீட் கவர்",
    "categoryName": "Car accessories store",
    "address": "32/141-A, Thavittusantai, East Marret St, Madurai, Tamil Nadu 625001, India",
    "neighborhood": "Panthadi Area, Madurai Main",
    "street": "32/141-A, Thavittusantai, East Marret St",
    "city": "Madurai",
    "postalCode": "625001",
    "state": "Tamil Nadu",
    "countryCode": "IN",
    "phone": "+914522332630",
    "phoneUnformatted": "+914522332630",
    "location": {
      "lat": 9.9120674,
      "lng": 78.1234694
    },
    "totalScore": 4.4,
    "permanentlyClosed": false,
    "temporarilyClosed": false,
    "placeId": "ChIJl9doxHfFADsRWAjujYLFivs",
    "categories": [
      "Car accessories store",
      "Auto upholsterer"
    ],
    "reviewsCount": 79,
    "imagesCount": 22,
    "openingHours": [
      {
        "day": "Monday",
        "hours": "9:30 AM to 8:30 PM"
      },
      {
        "day": "Tuesday",
        "hours": "9:30 AM to 8:30 PM"
      },
      {
        "day": "Wednesday",
        "hours": "9:30 AM to 8:30 PM"
      },
      {
        "day": "Thursday",
        "hours": "9:30 AM to 8:30 PM"
      },
      {
        "day": "Friday",
        "hours": "9:30 AM to 8:30 PM"
      },
      {
        "day": "Saturday",
        "hours": "9:30 AM to 8:30 PM"
      },
      {
        "day": "Sunday",
        "hours": "Closed"
      }
    ],
    "imageUrl": "https://media.indianluxurycars.com/google/bd197bb60b1421763916e5ab340a6430bc52a07732803f117706f16cb9dc06ba.jpg",
    "url": "https://www.google.com/maps/search/?api=1&query=Vijay%20Seat%20Cover&query_place_id=ChIJl9doxHfFADsRWAjujYLFivs"
  },
  {
    "title": "VP Carkitzs - Car Accessories Madurai",
    "categoryName": "Car accessories store",
    "address": "Plot No, 19, Pandi Kovil Ring Rd, opp. Sukrith Hyundai, Pandi Kovil, Madurai, Tamil Nadu 625107, India",
    "street": "Plot No, 19, Pandi Kovil Ring Rd, opp. Sukrith Hyundai, Pandi Kovil",
    "city": "Madurai",
    "postalCode": "625107",
    "state": "Tamil Nadu",
    "countryCode": "IN",
    "phone": "+919700083338",
    "phoneUnformatted": "+919700083338",
    "location": {
      "lat": 9.944547,
      "lng": 78.164416
    },
    "totalScore": 4.6,
    "permanentlyClosed": false,
    "temporarilyClosed": false,
    "placeId": "ChIJSyFQBjHEADsRmgvSdxCvPIA",
    "categories": [
      "Car accessories store",
      "Auto accessories wholesaler",
      "Auto electrical service",
      "Auto painting",
      "Auto upholsterer",
      "Car security system installer",
      "Car stereo store",
      "Car wash",
      "Tire shop",
      "Wheel alignment service"
    ],
    "reviewsCount": 278,
    "imagesCount": 1248,
    "openingHours": [
      {
        "day": "Monday",
        "hours": "10 AM to 8 PM"
      },
      {
        "day": "Tuesday",
        "hours": "10 AM to 8 PM"
      },
      {
        "day": "Wednesday",
        "hours": "10 AM to 8 PM"
      },
      {
        "day": "Thursday",
        "hours": "10 AM to 8 PM"
      },
      {
        "day": "Friday",
        "hours": "10 AM to 8 PM"
      },
      {
        "day": "Saturday",
        "hours": "10 AM to 8 PM"
      },
      {
        "day": "Sunday",
        "hours": "Closed"
      }
    ],
    "imageUrl": "https://media.indianluxurycars.com/google/7023863f16dbac428c0dc38d4a87b57b21e809eb13e423dc15bb628ee4ed89b2.jpg",
    "url": "https://www.google.com/maps/search/?api=1&query=VP%20Carkitzs%20-%20Car%20Accessories%20Madurai&query_place_id=ChIJSyFQBjHEADsRmgvSdxCvPIA"
  },
  {
    "title": "W Holidays - Tours & Travel agency",
    "categoryName": "Car leasing service",
    "address": "Minor Jail, 19A, kamachipuram Kamarajar salai, near lane, Madurai, Tamil Nadu 625009, India",
    "street": "Minor Jail, 19A, kamachipuram Kamarajar salai, near lane",
    "city": "Madurai",
    "postalCode": "625009",
    "state": "Tamil Nadu",
    "countryCode": "IN",
    "website": "http://www.wholidays.co/",
    "phone": "+918903814555",
    "phoneUnformatted": "+918903814555",
    "location": {
      "lat": 9.9139244,
      "lng": 78.1387622
    },
    "totalScore": 4.8,
    "permanentlyClosed": false,
    "temporarilyClosed": false,
    "placeId": "ChIJOUw7_KzFADsR1W5kG3srB0s",
    "categories": [
      "Car leasing service",
      "Airline ticket agency",
      "Bus tour agency",
      "Travel agency",
      "Group accommodation",
      "Lodging",
      "Taxi service",
      "Tour agency",
      "Tour operator",
      "Van rental agency"
    ],
    "reviewsCount": 166,
    "imagesCount": 316,
    "openingHours": [],
    "imageUrl": "https://media.indianluxurycars.com/google/b445e9d34d3b843ade175742633849dd7368be9e3ccefa29a6b14bbd1eea6bba.jpg",
    "url": "https://www.google.com/maps/search/?api=1&query=W%20Holidays%20-%20Tours%20%26%20Travel%20agency&query_place_id=ChIJOUw7_KzFADsR1W5kG3srB0s"
  }
]
