[
  {
    "title": "ALMISBAH CAR RENTALS",
    "categoryName": "Car rental agency",
    "address": "2ND FLOOR 208, second floor PARADISE, CITADEL PARADISE, opposite UNITED TOYOTA, nearby new DC OFFICE, Padil, Mangaluru, Karnataka 575007, India",
    "neighborhood": "Padil",
    "street": "2ND FLOOR 208, second floor PARADISE, CITADEL PARADISE, opposite UNITED TOYOTA, nearby new DC OFFICE",
    "city": "Mangaluru",
    "postalCode": "575007",
    "state": "Karnataka",
    "countryCode": "IN",
    "website": "http://www.almisbahcars.com/",
    "phone": "+919980313017",
    "phoneUnformatted": "+919980313017",
    "location": {
      "lat": 12.8710967,
      "lng": 74.8842136
    },
    "totalScore": 4.7,
    "permanentlyClosed": false,
    "temporarilyClosed": false,
    "placeId": "ChIJIat6Hh5XozsRt9s0wVy4OOU",
    "categories": [
      "Car rental agency"
    ],
    "reviewsCount": 985,
    "imagesCount": 148,
    "openingHours": [
      {
        "day": "Monday",
        "hours": "Open 24 hours"
      },
      {
        "day": "Tuesday",
        "hours": "Open 24 hours"
      },
      {
        "day": "Wednesday",
        "hours": "Open 24 hours"
      },
      {
        "day": "Thursday",
        "hours": "Open 24 hours"
      },
      {
        "day": "Friday",
        "hours": "Open 24 hours"
      },
      {
        "day": "Saturday",
        "hours": "Open 24 hours"
      },
      {
        "day": "Sunday",
        "hours": "Open 24 hours"
      }
    ],
    "imageUrl": "https://media.indianluxurycars.com/google/ce8055d7ae6b659dc4c6b1887b8868b8240ce37de421e2820ce65402ec97f2bc.jpg",
    "url": "https://www.google.com/maps/search/?api=1&query=ALMISBAH%20CAR%20RENTALS&query_place_id=ChIJIat6Hh5XozsRt9s0wVy4OOU"
  },
  {
    "title": "Anil rent cars Mangalore",
    "categoryName": "Car rental agency",
    "address": "5-4-240, Ballalbagh, Kodailbail, Mangaluru, Karnataka 575003, India",
    "neighborhood": "Ballalbagh, Kodailbail",
    "street": "5-4-240",
    "city": "Mangaluru",
    "postalCode": "575003",
    "state": "Karnataka",
    "countryCode": "IN",
    "phone": "+919902155798",
    "phoneUnformatted": "+919902155798",
    "location": {
      "lat": 12.88151,
      "lng": 74.8384469
    },
    "totalScore": 5,
    "permanentlyClosed": false,
    "temporarilyClosed": true,
    "placeId": "ChIJ8TRGibFbozsRdCqKwqpj8AY",
    "categories": [
      "Car rental agency"
    ],
    "reviewsCount": 13,
    "imagesCount": 4,
    "openingHours": [],
    "imageUrl": "https://media.indianluxurycars.com/google/2f67abcbe6e386d08bdc28aaa3e4a6a192a32d274d075c6b5b7e9481bf3bcd32.jpg",
    "url": "https://www.google.com/maps/search/?api=1&query=Anil%20rent%20cars%20Mangalore&query_place_id=ChIJ8TRGibFbozsRdCqKwqpj8AY"
  },
  {
    "title": "Asiatic Cars",
    "categoryName": "Used car dealer",
    "address": "Kuntikana, Nh 66, Chowki Road, Kottara, Mangaluru, Karnataka 575006, India",
    "neighborhood": "Kottara",
    "street": "Kuntikana, Nh 66, Chowki Road",
    "city": "Mangaluru",
    "postalCode": "575006",
    "state": "Karnataka",
    "countryCode": "IN",
    "phone": "+919449004909",
    "phoneUnformatted": "+919449004909",
    "location": {
      "lat": 12.904103,
      "lng": 74.839645
    },
    "totalScore": 3.7,
    "permanentlyClosed": false,
    "temporarilyClosed": false,
    "placeId": "ChIJ9XLBsjpbozsR_ku4EoFRg0E",
    "categories": [
      "Used car dealer"
    ],
    "reviewsCount": 36,
    "imagesCount": 7,
    "openingHours": [
      {
        "day": "Monday",
        "hours": "9 AM to 7 PM"
      },
      {
        "day": "Tuesday",
        "hours": "9 AM to 7 PM"
      },
      {
        "day": "Wednesday",
        "hours": "9 AM to 7 PM"
      },
      {
        "day": "Thursday",
        "hours": "9 AM to 7 PM"
      },
      {
        "day": "Friday",
        "hours": "9 AM to 7 PM"
      },
      {
        "day": "Saturday",
        "hours": "9 AM to 7 PM"
      },
      {
        "day": "Sunday",
        "hours": "9 AM to 7 PM"
      }
    ],
    "imageUrl": "https://media.indianluxurycars.com/google/9d3f5308668eb100f7330e710224b5fa3ee3408316caef9ccfdff5481331d9e1.jpg",
    "url": "https://www.google.com/maps/search/?api=1&query=Asiatic%20Cars&query_place_id=ChIJ9XLBsjpbozsR_ku4EoFRg0E"
  },
  {
    "title": "Avani.taxi - Mangalore Taxi Services",
    "categoryName": "Car rental agency",
    "address": "S-23, Shreenidhi\", I, 1945/3, Marigudi Cross Road, Urwa Market, Ladyhill, Mangaluru, Karnataka 575006, India",
    "neighborhood": "Urwa Market, Ladyhill",
    "street": "S-23, Shreenidhi\", I, 1945/3, Marigudi Cross Road",
    "city": "Mangaluru",
    "postalCode": "575006",
    "state": "Karnataka",
    "countryCode": "IN",
    "website": "https://www.avanimangalore.com/",
    "phone": "+917411334939",
    "phoneUnformatted": "+917411334939",
    "location": {
      "lat": 12.8909359,
      "lng": 74.8300503
    },
    "totalScore": 5,
    "permanentlyClosed": false,
    "temporarilyClosed": false,
    "placeId": "ChIJWXpDTCxbozsR-93N0aMz9-8",
    "categories": [
      "Car rental agency",
      "Car leasing service",
      "Taxi service",
      "Minibus taxi service",
      "Travel agency",
      "Van rental agency"
    ],
    "reviewsCount": 92,
    "imagesCount": 17,
    "openingHours": [],
    "imageUrl": "https://media.indianluxurycars.com/google/c318fa428bf51fbd5d91dd645e194ec64b5de39cdd7a20e14dbfbfb7bc98bedb.jpg",
    "url": "https://www.google.com/maps/search/?api=1&query=Avani.taxi%20-%20Mangalore%20Taxi%20Services&query_place_id=ChIJWXpDTCxbozsR-93N0aMz9-8"
  },
  {
    "title": "Balki Consulting. Balki cars",
    "subTitle": "ಬಾಲ್ಕಿ ಕನ್ಸಲ್ಟಿಂಗ್. ಬಾಲ್ಕಿ ಕಾರ್ಸ್",
    "categoryName": "Used car dealer",
    "address": "Pinto's Ln, Boloor, Kadri, Mangaluru, Karnataka 575003, India",
    "neighborhood": "Boloor, Kadri",
    "street": "Pinto's Ln",
    "city": "Mangaluru",
    "postalCode": "575003",
    "state": "Karnataka",
    "countryCode": "IN",
    "location": {
      "lat": 12.8790328,
      "lng": 74.8468984
    },
    "totalScore": 5,
    "permanentlyClosed": false,
    "temporarilyClosed": false,
    "placeId": "ChIJW29rXUdaozsR0w-x4G5Ocxw",
    "categories": [
      "Used car dealer"
    ],
    "reviewsCount": 7,
    "imagesCount": 183,
    "openingHours": [
      {
        "day": "Monday",
        "hours": "9 AM to 7 PM"
      },
      {
        "day": "Tuesday",
        "hours": "9 AM to 7 PM"
      },
      {
        "day": "Wednesday",
        "hours": "9 AM to 7 PM"
      },
      {
        "day": "Thursday",
        "hours": "9 AM to 7 PM"
      },
      {
        "day": "Friday",
        "hours": "9 AM to 7 PM"
      },
      {
        "day": "Saturday",
        "hours": "9 AM to 6:30 PM"
      },
      {
        "day": "Sunday",
        "hours": "9 AM to 1 PM"
      }
    ],
    "imageUrl": "https://media.indianluxurycars.com/google/1fce9194cc261fe281fe231d2a3400d859c60b2511fd193526764b375576d2d6.jpg",
    "url": "https://www.google.com/maps/search/?api=1&query=Balki%20Consulting.%20Balki%20cars&query_place_id=ChIJW29rXUdaozsR0w-x4G5Ocxw"
  },
  {
    "title": "Cab World",
    "subTitle": "ಕ್ಯಾಬ್ ವಿಶ್ವ",
    "categoryName": "Car rental agency",
    "address": "near Chalukya Bar, Shakti Nagar, Mangaluru, Karnataka 575016, India",
    "neighborhood": "Shakti Nagar",
    "street": "near Chalukya Bar",
    "city": "Mangaluru",
    "postalCode": "575016",
    "state": "Karnataka",
    "countryCode": "IN",
    "phone": "+918904216510",
    "phoneUnformatted": "+918904216510",
    "location": {
      "lat": 12.8973918,
      "lng": 74.8769719
    },
    "totalScore": 4.9,
    "permanentlyClosed": false,
    "temporarilyClosed": false,
    "placeId": "ChIJ3f9nVvZZozsRrshJL4mwpH0",
    "categories": [
      "Car rental agency",
      "Car leasing service",
      "Taxi service",
      "Van rental agency"
    ],
    "reviewsCount": 53,
    "imagesCount": 18,
    "openingHours": [
      {
        "day": "Monday",
        "hours": "7 AM to 11 PM"
      },
      {
        "day": "Tuesday",
        "hours": "7 AM to 11 PM"
      },
      {
        "day": "Wednesday",
        "hours": "7 AM to 11 PM"
      },
      {
        "day": "Thursday",
        "hours": "7 AM to 11 PM"
      },
      {
        "day": "Friday",
        "hours": "7 AM to 11 PM"
      },
      {
        "day": "Saturday",
        "hours": "7 AM to 11 PM"
      },
      {
        "day": "Sunday",
        "hours": "7 AM to 11 PM"
      }
    ],
    "imageUrl": "https://media.indianluxurycars.com/google/214948ace9038b87a7cadc45935ffc8946ca72b5b73c9cf9deb6ad864b2233ab.jpg",
    "url": "https://www.google.com/maps/search/?api=1&query=Cab%20World&query_place_id=ChIJ3f9nVvZZozsRrshJL4mwpH0"
  },
  {
    "title": "Cabs in Mangalore",
    "categoryName": "Car rental agency",
    "address": "2nd floor, KSRTC, Regal Towers, opp. Rasa Prakash Building, Bejai, Mangaluru, Karnataka 575004, India",
    "neighborhood": "Bejai",
    "street": "2nd floor, KSRTC, Regal Towers, opp. Rasa Prakash Building",
    "city": "Mangaluru",
    "postalCode": "575004",
    "state": "Karnataka",
    "countryCode": "IN",
    "website": "http://cabsinmangalore.in/",
    "phone": "+917026227400",
    "phoneUnformatted": "+917026227400",
    "location": {
      "lat": 12.8856768,
      "lng": 74.8426562
    },
    "totalScore": 5,
    "permanentlyClosed": false,
    "temporarilyClosed": false,
    "placeId": "ChIJjaugPFRbozsRf09JqKvJHtE",
    "categories": [
      "Car rental agency"
    ],
    "reviewsCount": 1,
    "imagesCount": 3,
    "openingHours": [
      {
        "day": "Monday",
        "hours": "Open 24 hours"
      },
      {
        "day": "Tuesday",
        "hours": "Open 24 hours"
      },
      {
        "day": "Wednesday",
        "hours": "Open 24 hours"
      },
      {
        "day": "Thursday",
        "hours": "Open 24 hours"
      },
      {
        "day": "Friday",
        "hours": "Open 24 hours"
      },
      {
        "day": "Saturday",
        "hours": "Open 24 hours"
      },
      {
        "day": "Sunday",
        "hours": "9 AM to 5 PM"
      }
    ],
    "imageUrl": "https://media.indianluxurycars.com/google/df01530811b0e1fd51653a0aca4e2264f0d0e94eae164aa469cc925d6b556598.png",
    "url": "https://www.google.com/maps/search/?api=1&query=Cabs%20in%20Mangalore&query_place_id=ChIJjaugPFRbozsRf09JqKvJHtE"
  },
  {
    "title": "Car club car accessories",
    "categoryName": "Car accessories store",
    "address": "Kankanady Old Rd, near Cochin village, Kankanady, Mangaluru, Karnataka 575002, India",
    "neighborhood": "Kankanady",
    "street": "Kankanady Old Rd, near Cochin village",
    "city": "Mangaluru",
    "postalCode": "575002",
    "state": "Karnataka",
    "countryCode": "IN",
    "phone": "+919353152127",
    "phoneUnformatted": "+919353152127",
    "location": {
      "lat": 12.8670537,
      "lng": 74.8595973
    },
    "totalScore": 4.9,
    "permanentlyClosed": false,
    "temporarilyClosed": false,
    "placeId": "ChIJFwPUIq1bozsRTTnaIrUO0DM",
    "categories": [
      "Car accessories store"
    ],
    "reviewsCount": 175,
    "imagesCount": 46,
    "openingHours": [
      {
        "day": "Monday",
        "hours": "9 AM to 8:30 PM"
      },
      {
        "day": "Tuesday",
        "hours": "9 AM to 8:30 PM"
      },
      {
        "day": "Wednesday",
        "hours": "9 AM to 8:30 PM"
      },
      {
        "day": "Thursday",
        "hours": "9 AM to 8:30 PM"
      },
      {
        "day": "Friday",
        "hours": "9 AM to 8:30 PM"
      },
      {
        "day": "Saturday",
        "hours": "9 AM to 8:30 PM"
      },
      {
        "day": "Sunday",
        "hours": "Closed"
      }
    ],
    "imageUrl": "https://media.indianluxurycars.com/google/18c8ccf82c6a53215ef0db0583b4ed76495f01eea1c7ddfdb0f350db0d29b258.jpg",
    "url": "https://www.google.com/maps/search/?api=1&query=Car%20club%20car%20accessories&query_place_id=ChIJFwPUIq1bozsRTTnaIrUO0DM"
  },
  {
    "title": "CAR FACTORY",
    "categoryName": "Used car dealer",
    "address": "near Prestige International School, Mogaru, Jappina, Mangaluru, Karnataka 575009, India",
    "neighborhood": "Mogaru, Jappina",
    "street": "near Prestige International School",
    "city": "Mangaluru",
    "postalCode": "575009",
    "state": "Karnataka",
    "countryCode": "IN",
    "phone": "+919964045743",
    "phoneUnformatted": "+919964045743",
    "location": {
      "lat": 12.8486269,
      "lng": 74.8617002
    },
    "totalScore": 5,
    "permanentlyClosed": false,
    "temporarilyClosed": false,
    "placeId": "ChIJyU3PAVFbozsRj2Siyu6EKiA",
    "categories": [
      "Used car dealer"
    ],
    "reviewsCount": 8,
    "imagesCount": 13,
    "openingHours": [
      {
        "day": "Monday",
        "hours": "9:30 AM to 6:30 PM"
      },
      {
        "day": "Tuesday",
        "hours": "9:30 AM to 6:30 PM"
      },
      {
        "day": "Wednesday",
        "hours": "9:30 AM to 6:30 PM"
      },
      {
        "day": "Thursday",
        "hours": "9:30 AM to 6:30 PM"
      },
      {
        "day": "Friday",
        "hours": "9:30 AM to 6:30 PM"
      },
      {
        "day": "Saturday",
        "hours": "9:30 AM to 6:30 PM"
      },
      {
        "day": "Sunday",
        "hours": "Closed"
      }
    ],
    "imageUrl": "https://media.indianluxurycars.com/google/ba219ddd7173931873a8550d7bb121a7ca9ccc1d498e7086a3296dc6c43d662f.jpg",
    "url": "https://www.google.com/maps/search/?api=1&query=CAR%20FACTORY&query_place_id=ChIJyU3PAVFbozsRj2Siyu6EKiA"
  },
  {
    "title": "Car Max Used Cars",
    "subTitle": "ಕಾರ್ ಮ್ಯಾಕ್ಸ್ ಉಸ್ಡ್ ಕಾರ್ಸ್",
    "categoryName": "Used car dealer",
    "address": "Usman Bhag, opp. Masood Education, near Infant Jesus Church, Bikarnakatte Kaikamba, Mangaluru, Karnataka 575005, India",
    "neighborhood": "Bikarnakatte Kaikamba",
    "street": "Usman Bhag, opp. Masood Education, near Infant Jesus Church",
    "city": "Mangaluru",
    "postalCode": "575005",
    "state": "Karnataka",
    "countryCode": "IN",
    "website": "https://www.carmax.com/cars",
    "phone": "+919008055177",
    "phoneUnformatted": "+919008055177",
    "location": {
      "lat": 12.8834716,
      "lng": 74.8705194
    },
    "totalScore": 4.6,
    "permanentlyClosed": false,
    "temporarilyClosed": false,
    "placeId": "ChIJCZ7f0iZaozsRbV3p7aYs96o",
    "categories": [
      "Used car dealer",
      "Auto broker"
    ],
    "reviewsCount": 68,
    "imagesCount": 54,
    "openingHours": [
      {
        "day": "Monday",
        "hours": "8:30 AM to 6:30 PM"
      },
      {
        "day": "Tuesday",
        "hours": "8:30 AM to 6:30 PM"
      },
      {
        "day": "Wednesday",
        "hours": "8:30 AM to 6:30 PM"
      },
      {
        "day": "Thursday",
        "hours": "8:30 AM to 6:30 PM"
      },
      {
        "day": "Friday",
        "hours": "8:30 AM to 6:30 PM"
      },
      {
        "day": "Saturday",
        "hours": "8:30 AM to 6:30 PM"
      },
      {
        "day": "Sunday",
        "hours": "Closed"
      }
    ],
    "imageUrl": "https://media.indianluxurycars.com/google/ef3694179858397b59ed5a87fd2d7c573f13ee2a010f1908d3ee3f199390dd84.jpg",
    "url": "https://www.google.com/maps/search/?api=1&query=Car%20Max%20Used%20Cars&query_place_id=ChIJCZ7f0iZaozsRbV3p7aYs96o"
  },
  {
    "title": "car&bike (By Mahindra First Choice) Karnataka Agencies Mangalore",
    "subTitle": "ಮಹೀಂದ್ರಾ ಫಸ್ಟ್ ಚಾಯ್ಸ್ ವೀಲ್ಸ್ ಲಿಮಿಟೆಡ್",
    "categoryName": "Used car dealer",
    "address": "Karnataka Agencies Mahindra NH 66, Kottara Chowki, Post, Ashok Nagar, Mangaluru, Karnataka 575006, India",
    "neighborhood": "Ashok Nagar",
    "street": "Karnataka Agencies Mahindra NH 66, Kottara Chowki, Post",
    "city": "Mangaluru",
    "postalCode": "575006",
    "state": "Karnataka",
    "countryCode": "IN",
    "website": "https://www.carandbike.com/used/car-dealers/karnatka-agencies-in-mangalore-4588/buy?utm_source=GMB",
    "phone": "+919513882828",
    "phoneUnformatted": "+919513882828",
    "location": {
      "lat": 12.9064441,
      "lng": 74.838089
    },
    "totalScore": 4.1,
    "permanentlyClosed": false,
    "temporarilyClosed": false,
    "placeId": "ChIJq6qqan1aozsRXPkUhHyBsI4",
    "categories": [
      "Used car dealer",
      "Auto broker",
      "Car dealer",
      "Motor vehicle dealer",
      "Vehicle inspection service"
    ],
    "reviewsCount": 86,
    "imagesCount": 110,
    "openingHours": [
      {
        "day": "Monday",
        "hours": "9:30 AM to 6:30 PM"
      },
      {
        "day": "Tuesday",
        "hours": "9:30 AM to 6:30 PM"
      },
      {
        "day": "Wednesday",
        "hours": "9:30 AM to 6:30 PM"
      },
      {
        "day": "Thursday",
        "hours": "9:30 AM to 6:30 PM"
      },
      {
        "day": "Friday",
        "hours": "9:30 AM to 6:30 PM"
      },
      {
        "day": "Saturday",
        "hours": "9:30 AM to 6:30 PM"
      },
      {
        "day": "Sunday",
        "hours": "9 AM to 5 PM"
      }
    ],
    "imageUrl": "https://media.indianluxurycars.com/google/0339dfed08ed434fbd44583757a6ef40eeb4786670f2337faed87834b8c78a6a.jpg",
    "url": "https://www.google.com/maps/search/?api=1&query=car%26bike%20(By%20Mahindra%20First%20Choice)%20Karnataka%20Agencies%20Mangalore&query_place_id=ChIJq6qqan1aozsRXPkUhHyBsI4"
  },
  {
    "title": "CARS24 - Georgina Cars | Sell Used Cars in Mangalore",
    "categoryName": "Used car dealer",
    "address": "S Cube Centro NH66, Opposite SKS Planet Kadri Village, Post, Bejai, Mangaluru, Karnataka 575004, India",
    "neighborhood": "Bejai",
    "street": "S Cube Centro NH66, Opposite SKS Planet Kadri Village, Post",
    "city": "Mangaluru",
    "postalCode": "575004",
    "state": "Karnataka",
    "countryCode": "IN",
    "website": "https://www.cars24.com/",
    "phone": "+918929506659",
    "phoneUnformatted": "+918929506659",
    "location": {
      "lat": 12.892715,
      "lng": 74.8494257
    },
    "totalScore": 4.8,
    "permanentlyClosed": false,
    "temporarilyClosed": false,
    "placeId": "ChIJO337yydbozsRDL-3CDZZAlM",
    "categories": [
      "Used car dealer",
      "Audi dealer",
      "BMW dealer",
      "Car finance and loan company",
      "Honda dealer",
      "Hyundai dealer",
      "Jeep dealer",
      "Kia dealer",
      "Suzuki dealer",
      "Toyota dealer"
    ],
    "reviewsCount": 31,
    "imagesCount": 79,
    "openingHours": [
      {
        "day": "Monday",
        "hours": "10 AM to 7 PM"
      },
      {
        "day": "Tuesday",
        "hours": "10 AM to 7 PM"
      },
      {
        "day": "Wednesday",
        "hours": "10 AM to 7 PM"
      },
      {
        "day": "Thursday",
        "hours": "10 AM to 7 PM"
      },
      {
        "day": "Friday",
        "hours": "10 AM to 7 PM"
      },
      {
        "day": "Saturday",
        "hours": "10 AM to 7 PM"
      },
      {
        "day": "Sunday",
        "hours": "10 AM to 7 PM"
      }
    ],
    "imageUrl": "https://media.indianluxurycars.com/google/c5d09ed5fd629b0e1983abd8029b99a0a528b9578357f9a4d5ea782802f907fe.jpg",
    "url": "https://www.google.com/maps/search/?api=1&query=CARS24%20-%20Georgina%20Cars%20%7C%20Sell%20Used%20Cars%20in%20Mangalore&query_place_id=ChIJO337yydbozsRDL-3CDZZAlM"
  },
  {
    "title": "Eio Cars",
    "categoryName": "Car dealer",
    "address": "Ground floor, Laxman Building, Kottara Flyover, Derebail, Mangaluru, Karnataka 575006, India",
    "neighborhood": "Derebail",
    "street": "Ground floor, Laxman Building, Kottara Flyover",
    "city": "Mangaluru",
    "postalCode": "575006",
    "state": "Karnataka",
    "countryCode": "IN",
    "phone": "+918050982777",
    "phoneUnformatted": "+918050982777",
    "location": {
      "lat": 12.9098775,
      "lng": 74.8368888
    },
    "totalScore": 4.8,
    "permanentlyClosed": false,
    "temporarilyClosed": false,
    "placeId": "ChIJgWCo0r9RozsRouGOMgJIEz0",
    "categories": [
      "Car dealer"
    ],
    "reviewsCount": 66,
    "imagesCount": 53,
    "openingHours": [
      {
        "day": "Monday",
        "hours": "9 AM to 8 PM"
      },
      {
        "day": "Tuesday",
        "hours": "9 AM to 8 PM"
      },
      {
        "day": "Wednesday",
        "hours": "9 AM to 8 PM"
      },
      {
        "day": "Thursday",
        "hours": "9 AM to 8 PM"
      },
      {
        "day": "Friday",
        "hours": "9 AM to 8 PM"
      },
      {
        "day": "Saturday",
        "hours": "9 AM to 8 PM"
      },
      {
        "day": "Sunday",
        "hours": "9 AM to 2 PM"
      }
    ],
    "imageUrl": "https://media.indianluxurycars.com/google/447d5619d52273cddfb902e805de4bc91114289a287a65423edb6275820e75ac.jpg",
    "url": "https://www.google.com/maps/search/?api=1&query=Eio%20Cars&query_place_id=ChIJgWCo0r9RozsRouGOMgJIEz0"
  },
  {
    "title": "Esperto",
    "subTitle": "ಎಸ್ಪೆರ್ತೋ",
    "categoryName": "Car detailing service",
    "address": "Airport Rd, Kings Park Layout 2, Konchady, Mangaluru, Karnataka 575008, India",
    "neighborhood": "Kings Park Layout 2, Konchady",
    "street": "Airport Rd",
    "city": "Mangaluru",
    "postalCode": "575008",
    "state": "Karnataka",
    "countryCode": "IN",
    "phone": "+918137062092",
    "phoneUnformatted": "+918137062092",
    "location": {
      "lat": 12.9054202,
      "lng": 74.8638209
    },
    "totalScore": 4.6,
    "permanentlyClosed": false,
    "temporarilyClosed": false,
    "placeId": "ChIJadca-oxbozsRQzrxfQuUBZM",
    "categories": [
      "Car detailing service"
    ],
    "reviewsCount": 48,
    "imagesCount": 88,
    "openingHours": [
      {
        "day": "Monday",
        "hours": "9 AM to 7:30 PM"
      },
      {
        "day": "Tuesday",
        "hours": "9 AM to 7:30 PM"
      },
      {
        "day": "Wednesday",
        "hours": "9 AM to 7:30 PM"
      },
      {
        "day": "Thursday",
        "hours": "9 AM to 7:30 PM"
      },
      {
        "day": "Friday",
        "hours": "9 AM to 7:30 PM"
      },
      {
        "day": "Saturday",
        "hours": "9 AM to 7:30 PM"
      },
      {
        "day": "Sunday",
        "hours": "9 AM to 1 PM"
      }
    ],
    "imageUrl": "https://media.indianluxurycars.com/google/c7afe9addee4a7747df03fd88e47c89d1724d5c5eb5aea3602b72fa1ea31f334.jpg",
    "url": "https://www.google.com/maps/search/?api=1&query=Esperto&query_place_id=ChIJadca-oxbozsRQzrxfQuUBZM"
  },
  {
    "title": "Friends Auto Cars",
    "subTitle": "ಸ್ನೇಹಿತರು ಆಟೋ ಕಾರುಗಳು",
    "categoryName": "Used car dealer",
    "address": "Tharethota, Kamala Complex, Solapur - Mangaluru Hwy, near Pumpwell, Mallikatte, Kadri, Mangaluru, Karnataka 575002, India",
    "neighborhood": "Mallikatte, Kadri",
    "street": "Tharethota, Kamala Complex, Solapur - Mangaluru Hwy, near Pumpwell",
    "city": "Mangaluru",
    "postalCode": "575002",
    "state": "Karnataka",
    "countryCode": "IN",
    "phone": "+919886670718",
    "phoneUnformatted": "+919886670718",
    "location": {
      "lat": 12.877436,
      "lng": 74.864845
    },
    "totalScore": 3.8,
    "permanentlyClosed": false,
    "temporarilyClosed": false,
    "placeId": "ChIJhW8ahy9aozsRSG0PEKGacWU",
    "categories": [
      "Used car dealer"
    ],
    "reviewsCount": 69,
    "imagesCount": 54,
    "openingHours": [
      {
        "day": "Monday",
        "hours": "9 AM to 7 PM"
      },
      {
        "day": "Tuesday",
        "hours": "9 AM to 7 PM"
      },
      {
        "day": "Wednesday",
        "hours": "9 AM to 7 PM"
      },
      {
        "day": "Thursday",
        "hours": "9 AM to 7 PM"
      },
      {
        "day": "Friday",
        "hours": "9 AM to 7 PM"
      },
      {
        "day": "Saturday",
        "hours": "9 AM to 7 PM"
      },
      {
        "day": "Sunday",
        "hours": "10:30 AM to 1:30 PM"
      }
    ],
    "imageUrl": "https://media.indianluxurycars.com/google/314aef77547968424ce8585c3088fff8bd2db861d130ef81f38e14e62fcdc038.jpg",
    "url": "https://www.google.com/maps/search/?api=1&query=Friends%20Auto%20Cars&query_place_id=ChIJhW8ahy9aozsRSG0PEKGacWU"
  },
  {
    "title": "Golden Cars Kudla",
    "categoryName": "Car dealer",
    "address": "2nd Cross Rd, Anegundi, Bejai, Mangaluru, Karnataka 575004, India",
    "neighborhood": "Anegundi, Bejai",
    "street": "2nd Cross Rd",
    "city": "Mangaluru",
    "postalCode": "575004",
    "state": "Karnataka",
    "countryCode": "IN",
    "phone": "+918880099999",
    "phoneUnformatted": "+918880099999",
    "location": {
      "lat": 12.8900795,
      "lng": 74.8442071
    },
    "totalScore": 5,
    "permanentlyClosed": false,
    "temporarilyClosed": false,
    "placeId": "ChIJw6uS63xbozsRUdK46ZQVQ94",
    "categories": [
      "Car dealer"
    ],
    "reviewsCount": 15,
    "imagesCount": 17,
    "openingHours": [
      {
        "day": "Monday",
        "hours": "9:30 AM to 6:30 PM"
      },
      {
        "day": "Tuesday",
        "hours": "9:30 AM to 6:30 PM"
      },
      {
        "day": "Wednesday",
        "hours": "9:30 AM to 6:30 PM"
      },
      {
        "day": "Thursday",
        "hours": "9:30 AM to 6:30 PM"
      },
      {
        "day": "Friday",
        "hours": "9:30 AM to 6:30 PM"
      },
      {
        "day": "Saturday",
        "hours": "9:30 AM to 6:30 PM"
      },
      {
        "day": "Sunday",
        "hours": "Closed"
      }
    ],
    "imageUrl": "https://media.indianluxurycars.com/google/7d8fdb97cb590543f31c52d6ca822c0ef6824270034eb931da59fd8fc9175333.jpg",
    "url": "https://www.google.com/maps/search/?api=1&query=Golden%20Cars%20Kudla&query_place_id=ChIJw6uS63xbozsRUdK46ZQVQ94"
  },
  {
    "title": "IGOZA Taxi & Travel - Car Rental Agent & Services Mangalore",
    "subTitle": "ಇಗೋಜಾ ಟ್ಯಾಕ್ಸಿ & ಟ್ರಾವೆಲ್ - ಕಾರ್ ರೆಂಟಲ್ ಏಜೆಂಟ್ & ಸರ್ವಿಸಸ್ ಮಂಗಳೂರು",
    "categoryName": "Car dealer",
    "address": "Mary Hill, Gurunagar, Mangaluru, Karnataka 575008, India",
    "neighborhood": "Mary Hill, Gurunagar",
    "city": "Mangaluru",
    "postalCode": "575008",
    "state": "Karnataka",
    "countryCode": "IN",
    "website": "http://www.igoza.in/",
    "phone": "+919620227226",
    "phoneUnformatted": "+919620227226",
    "location": {
      "lat": 12.907445,
      "lng": 74.86608
    },
    "totalScore": 4.9,
    "permanentlyClosed": false,
    "temporarilyClosed": false,
    "placeId": "ChIJbxkf7gZaozsRHCiWRM6htZM",
    "categories": [
      "Car dealer",
      "Bus tour agency",
      "Taxi service",
      "Car rental agency",
      "Chauffeur service",
      "Minibus taxi service",
      "Tour agency",
      "Tour operator",
      "Travel agency"
    ],
    "reviewsCount": 829,
    "imagesCount": 7,
    "openingHours": [],
    "imageUrl": "https://media.indianluxurycars.com/google/dcca1ecaa21ea497727e0b17e048552e519d613960b059f82a0ed5857669f1da.jpg",
    "url": "https://www.google.com/maps/search/?api=1&query=IGOZA%20Taxi%20%26%20Travel%20-%20Car%20Rental%20Agent%20%26%20Services%20Mangalore&query_place_id=ChIJbxkf7gZaozsRHCiWRM6htZM"
  },
  {
    "title": "Lobo's Used Cars",
    "categoryName": "Used car dealer",
    "address": "Yeyyadi K9 restro, opp. anagha Suzuki showroom, Yeyyadi, Mangaluru, Karnataka 575008, India",
    "neighborhood": "Yeyyadi",
    "street": "Yeyyadi K9 restro, opp. anagha Suzuki showroom",
    "city": "Mangaluru",
    "postalCode": "575008",
    "state": "Karnataka",
    "countryCode": "IN",
    "phone": "+919845333384",
    "phoneUnformatted": "+919845333384",
    "location": {
      "lat": 12.8945118,
      "lng": 74.8591269
    },
    "totalScore": 3.9,
    "permanentlyClosed": false,
    "temporarilyClosed": false,
    "placeId": "ChIJE3RrINlbozsR3UlsmKMk5C4",
    "categories": [
      "Used car dealer",
      "Auto broker"
    ],
    "reviewsCount": 19,
    "imagesCount": 26,
    "openingHours": [
      {
        "day": "Monday",
        "hours": "8:30 AM to 7 PM"
      },
      {
        "day": "Tuesday",
        "hours": "8:30 AM to 7 PM"
      },
      {
        "day": "Wednesday",
        "hours": "8:30 AM to 7 PM"
      },
      {
        "day": "Thursday",
        "hours": "8:30 AM to 7 PM"
      },
      {
        "day": "Friday",
        "hours": "8:30 AM to 7 PM"
      },
      {
        "day": "Saturday",
        "hours": "8:30 AM to 7 PM"
      },
      {
        "day": "Sunday",
        "hours": "Closed"
      }
    ],
    "imageUrl": "https://media.indianluxurycars.com/google/459ce8d60bb0c8683f9eb02553d99ad8bba45d7cd4bd3aee8d4a245192679422.jpg",
    "url": "https://www.google.com/maps/search/?api=1&query=Lobo's%20Used%20Cars&query_place_id=ChIJE3RrINlbozsR3UlsmKMk5C4"
  },
  {
    "title": "Mangalore cars",
    "subTitle": "ಮಂಗಳೂರು ಕಾರ್ಸ್",
    "categoryName": "Car dealer",
    "address": "Kuntikan, Mangaluru, Karnataka 575004, India",
    "neighborhood": "Kuntikan",
    "city": "Mangaluru",
    "postalCode": "575004",
    "state": "Karnataka",
    "countryCode": "IN",
    "phone": "+919845304496",
    "phoneUnformatted": "+919845304496",
    "location": {
      "lat": 12.9002702,
      "lng": 74.8443244
    },
    "totalScore": 4.1,
    "permanentlyClosed": false,
    "temporarilyClosed": false,
    "placeId": "ChIJQWj8KvBbozsRW-S8oO-oUtc",
    "categories": [
      "Car dealer",
      "Auto broker"
    ],
    "reviewsCount": 16,
    "imagesCount": 44,
    "openingHours": [
      {
        "day": "Monday",
        "hours": "9:30 AM to 9 PM"
      },
      {
        "day": "Tuesday",
        "hours": "9:30 AM to 9 PM"
      },
      {
        "day": "Wednesday",
        "hours": "9:30 AM to 12 AM"
      },
      {
        "day": "Thursday",
        "hours": "12 AM to 9 PM"
      },
      {
        "day": "Friday",
        "hours": "9:30 AM to 9 PM"
      },
      {
        "day": "Saturday",
        "hours": "9:30 AM to 9 PM"
      },
      {
        "day": "Sunday",
        "hours": "Closed"
      }
    ],
    "imageUrl": "https://media.indianluxurycars.com/google/15c260f55fd5d3fa08b1c7437df8f65683b98ee8a3383ef189321270ae9c1b85.jpg",
    "url": "https://www.google.com/maps/search/?api=1&query=Mangalore%20cars&query_place_id=ChIJQWj8KvBbozsRW-S8oO-oUtc"
  },
  {
    "title": "Mangalore Taxi",
    "categoryName": "Car rental agency",
    "address": "Hailmary Complex, Guddethota Naguri, Kankanady, Mangaluru, Karnataka 575002, India",
    "neighborhood": "Guddethota Naguri, Kankanady",
    "street": "Hailmary Complex",
    "city": "Mangaluru",
    "postalCode": "575002",
    "state": "Karnataka",
    "countryCode": "IN",
    "website": "https://mangaloretaxi.in/",
    "phone": "+919632973868",
    "phoneUnformatted": "+919632973868",
    "location": {
      "lat": 12.8706804,
      "lng": 74.8773172
    },
    "totalScore": 4.9,
    "permanentlyClosed": false,
    "temporarilyClosed": false,
    "placeId": "ChIJldOVis5bozsRNaOsrNOg_J0",
    "categories": [
      "Car rental agency",
      "Car leasing service",
      "Taxi service",
      "Taxicab Stand",
      "Tour agency",
      "Tour operator",
      "Travel agency"
    ],
    "reviewsCount": 625,
    "imagesCount": 160,
    "openingHours": [],
    "imageUrl": "https://media.indianluxurycars.com/google/b263dcf06d05971a137bc843df3b2357076736097b93344f7538636b8644a04b.jpg",
    "url": "https://www.google.com/maps/search/?api=1&query=Mangalore%20Taxi&query_place_id=ChIJldOVis5bozsRNaOsrNOg_J0"
  },
  {
    "title": "Mangalore Travels Corporation - The Ultimate taxi service in Mangalore",
    "categoryName": "Car leasing service",
    "address": "Shop No: 5, 3rd floor, Circle, Bendoorwell, Kankanady, Mangaluru, Karnataka 575002, India",
    "neighborhood": "Bendoorwell, Kankanady",
    "street": "Shop No: 5, 3rd floor, Circle",
    "city": "Mangaluru",
    "postalCode": "575002",
    "state": "Karnataka",
    "countryCode": "IN",
    "website": "https://mangaloretravelscorporation.com/taxi-service-in-mangalore/",
    "phone": "+919880797829",
    "phoneUnformatted": "+919880797829",
    "location": {
      "lat": 12.8708689,
      "lng": 74.8571552
    },
    "totalScore": 4.9,
    "permanentlyClosed": false,
    "temporarilyClosed": false,
    "placeId": "ChIJpa_FFqpQozsR_cVs9LaEoUQ",
    "categories": [
      "Car leasing service",
      "Airport shuttle service",
      "Bus tour agency",
      "Taxi service",
      "Minibus taxi service",
      "Tour operator",
      "Tourist information center"
    ],
    "reviewsCount": 1591,
    "imagesCount": 78,
    "openingHours": [],
    "imageUrl": "https://media.indianluxurycars.com/google/0ee1994e670c2699d8f8dc98ba32735e343c7ecc212ddb41da2eb39cf5b6bb7d.jpg",
    "url": "https://www.google.com/maps/search/?api=1&query=Mangalore%20Travels%20Corporation%20-%20The%20Ultimate%20taxi%20service%20in%20Mangalore&query_place_id=ChIJpa_FFqpQozsR_cVs9LaEoUQ"
  },
  {
    "title": "Mangaluru Taxi",
    "categoryName": "Car rental agency",
    "address": "3-92, Marikambha Temple Rd, near in Marikambha Temple, Maroli, Mangaluru, Karnataka 575005, India",
    "neighborhood": "Maroli",
    "street": "3-92, Marikambha Temple Rd, near in Marikambha Temple",
    "city": "Mangaluru",
    "postalCode": "575005",
    "state": "Karnataka",
    "countryCode": "IN",
    "website": "https://www.mangalurutaxi.com/",
    "phone": "+919380036693",
    "phoneUnformatted": "+919380036693",
    "location": {
      "lat": 12.8795829,
      "lng": 74.868208
    },
    "totalScore": 5,
    "permanentlyClosed": false,
    "temporarilyClosed": false,
    "placeId": "ChIJpa4VqgJbozsRC5zaCWDBctQ",
    "categories": [
      "Car rental agency",
      "Airport shuttle service",
      "Car leasing service",
      "Taxi service",
      "Tour agency",
      "Tour operator",
      "Tourist attraction",
      "Travel agency"
    ],
    "reviewsCount": 61,
    "imagesCount": 140,
    "openingHours": [],
    "imageUrl": "https://media.indianluxurycars.com/google/fcaccc9c4e494f2697eabcfd715fff970f8934a2ee31ce1a237289d8436dedfa.jpg",
    "url": "https://www.google.com/maps/search/?api=1&query=Mangaluru%20Taxi&query_place_id=ChIJpa4VqgJbozsRC5zaCWDBctQ"
  },
  {
    "title": "Maruti Suzuki TRUE VALUE (Mandovi Motors, Mangalore, Falnir)",
    "subTitle": "ಮಾಂಡೋವಿ ಮೋಟಾರ್ಸ್ ಪ್ರೈವೇಟ್ ಲಿಮಿಟೆಡ್",
    "categoryName": "Used car dealer",
    "address": "True Value Falnir, Bendoor, Mangaluru, Karnataka 575002, India",
    "neighborhood": "Bendoor",
    "street": "True Value Falnir",
    "city": "Mangaluru",
    "postalCode": "575002",
    "state": "Karnataka",
    "countryCode": "IN",
    "website": "http://truevalueoffalnirmlr.com/?utm_source=gmb&utm_medium=google&utm_campaign=seo-local",
    "phone": "+918071650914",
    "phoneUnformatted": "+918071650914",
    "location": {
      "lat": 12.8684076,
      "lng": 74.8514957
    },
    "totalScore": 4.8,
    "permanentlyClosed": false,
    "temporarilyClosed": false,
    "placeId": "ChIJgyZQqzdaozsRpsQPdPaprbU",
    "categories": [
      "Used car dealer"
    ],
    "reviewsCount": 1970,
    "imagesCount": 121,
    "openingHours": [
      {
        "day": "Monday",
        "hours": "9 AM to 6 PM"
      },
      {
        "day": "Tuesday",
        "hours": "9 AM to 6 PM"
      },
      {
        "day": "Wednesday",
        "hours": "9 AM to 6 PM"
      },
      {
        "day": "Thursday",
        "hours": "9 AM to 6 PM"
      },
      {
        "day": "Friday",
        "hours": "9 AM to 6 PM"
      },
      {
        "day": "Saturday",
        "hours": "9 AM to 6 PM"
      },
      {
        "day": "Sunday",
        "hours": "9 AM to 6 PM"
      }
    ],
    "imageUrl": "https://media.indianluxurycars.com/google/7d1babee4e9d6e7167e5effbf9dd2a01b4d628fa19b8abe68ee0535776353121.jpg",
    "url": "https://www.google.com/maps/search/?api=1&query=Maruti%20Suzuki%20TRUE%20VALUE%20(Mandovi%20Motors%2C%20Mangalore%2C%20Falnir)&query_place_id=ChIJgyZQqzdaozsRpsQPdPaprbU"
  },
  {
    "title": "MASTER CARS",
    "categoryName": "Used car dealer",
    "address": "5-4-179/2 Shri Adhi Shakti Nilaya Kodialguttu west, Ballalbagh, Kodailbail, Mangaluru, Karnataka 575003, India",
    "neighborhood": "Ballalbagh, Kodailbail",
    "street": "5-4-179/2 Shri Adhi Shakti Nilaya Kodialguttu west",
    "city": "Mangaluru",
    "postalCode": "575003",
    "state": "Karnataka",
    "countryCode": "IN",
    "website": "http://mastercars.in/",
    "location": {
      "lat": 12.8803367,
      "lng": 74.8383666
    },
    "totalScore": 3.5,
    "permanentlyClosed": false,
    "temporarilyClosed": false,
    "placeId": "ChIJFeP6_p5bozsRot7SRAfu6vQ",
    "categories": [
      "Used car dealer"
    ],
    "reviewsCount": 22,
    "imagesCount": 9,
    "openingHours": [
      {
        "day": "Monday",
        "hours": "10:30 AM to 6:30 PM"
      },
      {
        "day": "Tuesday",
        "hours": "10:30 AM to 6:30 PM"
      },
      {
        "day": "Wednesday",
        "hours": "10:30 AM to 6:30 PM"
      },
      {
        "day": "Thursday",
        "hours": "10:30 AM to 6:30 PM"
      },
      {
        "day": "Friday",
        "hours": "10:30 AM to 6:30 PM"
      },
      {
        "day": "Saturday",
        "hours": "10:30 AM to 6:30 PM"
      },
      {
        "day": "Sunday",
        "hours": "Closed"
      }
    ],
    "imageUrl": "https://media.indianluxurycars.com/google/cc82c9bac8ec61a7b3a12123a02f69ca4f1a2324c9943363238874919bc50e15.jpg",
    "url": "https://www.google.com/maps/search/?api=1&query=MASTER%20CARS&query_place_id=ChIJFeP6_p5bozsRot7SRAfu6vQ"
  },
  {
    "title": "NEXA (Mandovi Motors, Mangaluru, Airport Road)",
    "categoryName": "Car dealer",
    "address": "Summit Apartment Building, Airport Rd, Mary Hill, Mangaluru, Karnataka 575008, India",
    "neighborhood": "Mary Hill, Konchady",
    "street": "Summit Apartment Building, Airport Rd",
    "city": "Mangaluru",
    "postalCode": "575008",
    "state": "Karnataka",
    "countryCode": "IN",
    "website": "http://nexaofairportroadmangalore.com/?utm_source=gmb&utm_medium=google",
    "phone": "+918062216603",
    "phoneUnformatted": "+918062216603",
    "location": {
      "lat": 12.9051346,
      "lng": 74.8640873
    },
    "totalScore": 4.9,
    "permanentlyClosed": false,
    "temporarilyClosed": false,
    "placeId": "ChIJDZW83gVaozsRnZazjhiyNXI",
    "categories": [
      "Car dealer"
    ],
    "reviewsCount": 4295,
    "imagesCount": 483,
    "openingHours": [
      {
        "day": "Monday",
        "hours": "9 AM to 8 PM"
      },
      {
        "day": "Tuesday",
        "hours": "9 AM to 8 PM"
      },
      {
        "day": "Wednesday",
        "hours": "9 AM to 8 PM"
      },
      {
        "day": "Thursday",
        "hours": "9 AM to 8 PM"
      },
      {
        "day": "Friday",
        "hours": "9 AM to 8 PM"
      },
      {
        "day": "Saturday",
        "hours": "9 AM to 8 PM"
      },
      {
        "day": "Sunday",
        "hours": "9 AM to 8 PM"
      }
    ],
    "imageUrl": "https://media.indianluxurycars.com/google/74cfdf6a7736d391d3036609ba68d202394459dc9481edad66596749cbd7261e.jpg",
    "url": "https://www.google.com/maps/search/?api=1&query=NEXA%20(Mandovi%20Motors%2C%20Mangaluru%2C%20Airport%20Road)&query_place_id=ChIJDZW83gVaozsRnZazjhiyNXI"
  },
  {
    "title": "Prasad Associates",
    "categoryName": "Used car dealer",
    "address": "Kodialguthu East 2nd cross, MG Rd, Mangaluru, Karnataka 575003, India",
    "neighborhood": "Kodailbail",
    "street": "Kodialguthu East 2nd cross, MG Rd",
    "city": "Mangaluru",
    "postalCode": "575003",
    "state": "Karnataka",
    "countryCode": "IN",
    "phone": "+918792133333",
    "phoneUnformatted": "+918792133333",
    "location": {
      "lat": 12.8811853,
      "lng": 74.8421334
    },
    "totalScore": 5,
    "permanentlyClosed": false,
    "temporarilyClosed": false,
    "placeId": "ChIJLZ-9YkRaozsRGptWsu9JXfA",
    "categories": [
      "Used car dealer",
      "Construction company",
      "Internet marketing service",
      "Property investment company",
      "Property maintenance",
      "Property management company",
      "Real estate consultant"
    ],
    "reviewsCount": 15,
    "imagesCount": 24,
    "openingHours": [
      {
        "day": "Monday",
        "hours": "9 AM to 5 PM"
      },
      {
        "day": "Tuesday",
        "hours": "9 AM to 5 PM"
      },
      {
        "day": "Wednesday",
        "hours": "9 AM to 5 PM"
      },
      {
        "day": "Thursday",
        "hours": "9 AM to 5 PM"
      },
      {
        "day": "Friday",
        "hours": "9 AM to 5 PM"
      },
      {
        "day": "Saturday",
        "hours": "9 AM to 5 PM"
      },
      {
        "day": "Sunday",
        "hours": "Closed"
      }
    ],
    "imageUrl": "https://media.indianluxurycars.com/google/1eb3f44d80032f666cff3ff499141c29692d40931be15ec5fa22c842a1a34911.jpg",
    "url": "https://www.google.com/maps/search/?api=1&query=Prasad%20Associates&query_place_id=ChIJLZ-9YkRaozsRGptWsu9JXfA"
  },
  {
    "title": "Rachana Travels",
    "subTitle": "ರಚನಾ ಪ್ರವಾಸ",
    "categoryName": "Car rental agency",
    "address": "Shop No.11, Akash Towers, Urwa Store, Chillimbi, Ashok Nagar Post Mangalore, Karnataka, 575006, Kulur Ferry Rd, Urwa, Mangaluru, Karnataka 575006, India",
    "neighborhood": "Urwa",
    "street": "Shop No.11, Akash Towers, Urwa Store, Chillimbi, Ashok Nagar Post Mangalore, Karnataka, 575006, Kulur Ferry Rd",
    "city": "Mangaluru",
    "postalCode": "575006",
    "state": "Karnataka",
    "countryCode": "IN",
    "website": "https://rachanatravelz.com/contact/",
    "phone": "+919902266800",
    "phoneUnformatted": "+919902266800",
    "location": {
      "lat": 12.8962415,
      "lng": 74.8356967
    },
    "totalScore": 4.5,
    "permanentlyClosed": false,
    "temporarilyClosed": false,
    "placeId": "ChIJabXE3mRaozsRKThjXQc8RqE",
    "categories": [
      "Car rental agency",
      "Bus tour agency",
      "Car leasing service",
      "Travel agency",
      "Sightseeing tour agency",
      "Taxi service",
      "Taxicab Stand",
      "Tour agency",
      "Tour operator"
    ],
    "reviewsCount": 117,
    "imagesCount": 7,
    "openingHours": [
      {
        "day": "Monday",
        "hours": "6 AM to 10 PM"
      },
      {
        "day": "Tuesday",
        "hours": "6 AM to 10 PM"
      },
      {
        "day": "Wednesday",
        "hours": "9 AM to 9 PM"
      },
      {
        "day": "Thursday",
        "hours": "9 AM to 9 PM"
      },
      {
        "day": "Friday",
        "hours": "9 AM to 9 PM"
      },
      {
        "day": "Saturday",
        "hours": "9 AM to 9 PM"
      },
      {
        "day": "Sunday",
        "hours": "9 AM to 9 PM"
      }
    ],
    "imageUrl": "https://media.indianluxurycars.com/google/cf665adb331fe8cd487623a0b7dbfe007d98c3faf49b2e8156b89899ff2b9bbc.jpg",
    "url": "https://www.google.com/maps/search/?api=1&query=Rachana%20Travels&query_place_id=ChIJabXE3mRaozsRKThjXQc8RqE"
  },
  {
    "title": "RM Car Rentals (OPC) Private Limited.",
    "categoryName": "Car rental agency",
    "address": "VENTURA\" RM Corporation, 9, KPT Jct, Mallikatte, Bejai, Mangaluru, Karnataka 575004, India",
    "neighborhood": "Mallikatte, Bejai",
    "street": "VENTURA\" RM Corporation, 9, KPT Jct",
    "city": "Mangaluru",
    "postalCode": "575004",
    "state": "Karnataka",
    "countryCode": "IN",
    "phone": "+919740097300",
    "phoneUnformatted": "+919740097300",
    "location": {
      "lat": 12.8872978,
      "lng": 74.8509293
    },
    "totalScore": 4.6,
    "permanentlyClosed": false,
    "temporarilyClosed": false,
    "placeId": "ChIJ87b9mUFaozsRkCNDoAEJmG4",
    "categories": [
      "Car rental agency",
      "Car leasing service"
    ],
    "reviewsCount": 55,
    "imagesCount": 155,
    "openingHours": [
      {
        "day": "Monday",
        "hours": "Open 24 hours"
      },
      {
        "day": "Tuesday",
        "hours": "Open 24 hours"
      },
      {
        "day": "Wednesday",
        "hours": "Open 24 hours"
      },
      {
        "day": "Thursday",
        "hours": "Open 24 hours"
      },
      {
        "day": "Friday",
        "hours": "Open 24 hours"
      },
      {
        "day": "Saturday",
        "hours": "Open 24 hours"
      },
      {
        "day": "Sunday",
        "hours": "Open 24 hours"
      }
    ],
    "imageUrl": "https://media.indianluxurycars.com/google/e40f79929556b8b9f4bc645fd377ec4b90c243d448e4700b4e677377129e754a.jpg",
    "url": "https://www.google.com/maps/search/?api=1&query=RM%20Car%20Rentals%20(OPC)%20Private%20Limited.&query_place_id=ChIJ87b9mUFaozsRkCNDoAEJmG4"
  },
  {
    "title": "Royal Cars Mangalore",
    "subTitle": "ರಾಯಲ್ ಕಾರ್ಸ್",
    "categoryName": "Used car dealer",
    "address": "NH 66, Ujjodi, near Alva’s tyre care, Pumpwell, Mangaluru, Karnataka 575002, India",
    "neighborhood": "Pumpwell",
    "street": "NH 66, Ujjodi, near Alva’s tyre care",
    "city": "Mangaluru",
    "postalCode": "575002",
    "state": "Karnataka",
    "countryCode": "IN",
    "website": "https://whatsapp.com/channel/0029Va4QmbL3LdQaHT9MzH3G",
    "phone": "+919448378583",
    "phoneUnformatted": "+919448378583",
    "location": {
      "lat": 12.8626055,
      "lng": 74.8668361
    },
    "totalScore": 4.6,
    "permanentlyClosed": false,
    "temporarilyClosed": false,
    "placeId": "ChIJC4cIldNbozsRPvLlUA5gO9A",
    "categories": [
      "Used car dealer"
    ],
    "reviewsCount": 766,
    "imagesCount": 230,
    "openingHours": [
      {
        "day": "Monday",
        "hours": "9 AM to 8 PM"
      },
      {
        "day": "Tuesday",
        "hours": "9 AM to 8 PM"
      },
      {
        "day": "Wednesday",
        "hours": "9 AM to 8 PM"
      },
      {
        "day": "Thursday",
        "hours": "9 AM to 8 PM"
      },
      {
        "day": "Friday",
        "hours": "9 AM to 8 PM"
      },
      {
        "day": "Saturday",
        "hours": "9 AM to 8 PM"
      },
      {
        "day": "Sunday",
        "hours": "9 AM to 8 PM"
      }
    ],
    "imageUrl": "https://media.indianluxurycars.com/google/c21c7b54bf9715bee0b511c912fc613065615fdf1060fbb36d999d867d3cc030.jpg",
    "url": "https://www.google.com/maps/search/?api=1&query=Royal%20Cars%20Mangalore&query_place_id=ChIJC4cIldNbozsRPvLlUA5gO9A"
  },
  {
    "title": "SECOND WHEELZ",
    "categoryName": "Used car dealer",
    "address": "Shop No 247, 2nd Floor, Sahakari Sadana Building, Rao & Rao Circle, Uppinagadi Village, Mangaluru, Karnataka 575001, India",
    "neighborhood": "Uppinagadi Village",
    "street": "Shop No 247, 2nd Floor, Sahakari Sadana Building, Rao & Rao Circle",
    "city": "Mangaluru",
    "postalCode": "575001",
    "state": "Karnataka",
    "countryCode": "IN",
    "location": {
      "lat": 12.8633073,
      "lng": 74.8359148
    },
    "totalScore": 5,
    "permanentlyClosed": false,
    "temporarilyClosed": false,
    "placeId": "ChIJucCj25VbozsRkPbY2UDDsto",
    "categories": [
      "Used car dealer"
    ],
    "reviewsCount": 2,
    "imagesCount": 9,
    "openingHours": [
      {
        "day": "Monday",
        "hours": "10 AM to 6 PM"
      },
      {
        "day": "Tuesday",
        "hours": "10 AM to 6 PM"
      },
      {
        "day": "Wednesday",
        "hours": "10 AM to 6 PM"
      },
      {
        "day": "Thursday",
        "hours": "10 AM to 6 PM"
      },
      {
        "day": "Friday",
        "hours": "10 AM to 6 PM"
      },
      {
        "day": "Saturday",
        "hours": "10 AM to 6 PM"
      },
      {
        "day": "Sunday",
        "hours": "Closed"
      }
    ],
    "imageUrl": "https://media.indianluxurycars.com/google/8150a0f26b62c503f2d7810a6a9e1d435433509fa29aa1c7ba0bc48e03544fe3.jpg",
    "url": "https://www.google.com/maps/search/?api=1&query=SECOND%20WHEELZ&query_place_id=ChIJucCj25VbozsRkPbY2UDDsto"
  },
  {
    "title": "Self Drive Car Rentals Mangalore",
    "categoryName": "Car rental agency",
    "address": "Near, Gadukallu Derebail, Konchady, Mangaluru, Karnataka 575006, India",
    "neighborhood": "Konchady",
    "street": "Near, Gadukallu Derebail",
    "city": "Mangaluru",
    "postalCode": "575006",
    "state": "Karnataka",
    "countryCode": "IN",
    "website": "http://mangalorecar.com/",
    "phone": "+916360973779",
    "phoneUnformatted": "+916360973779",
    "location": {
      "lat": 12.9129568,
      "lng": 74.8426185
    },
    "totalScore": 4.9,
    "permanentlyClosed": false,
    "temporarilyClosed": false,
    "placeId": "ChIJt-PxUZxQozsRDKfB0hEWqI0",
    "categories": [
      "Car rental agency",
      "Airport shuttle service",
      "Taxi service",
      "Tour operator",
      "Travel agency"
    ],
    "reviewsCount": 308,
    "imagesCount": 76,
    "openingHours": [
      {
        "day": "Monday",
        "hours": "7 AM to 11 PM"
      },
      {
        "day": "Tuesday",
        "hours": "7 AM to 11 PM"
      },
      {
        "day": "Wednesday",
        "hours": "7 AM to 11 PM"
      },
      {
        "day": "Thursday",
        "hours": "7 AM to 11 PM"
      },
      {
        "day": "Friday",
        "hours": "7 AM to 11 PM"
      },
      {
        "day": "Saturday",
        "hours": "7 AM to 11 PM"
      },
      {
        "day": "Sunday",
        "hours": "7 AM to 11 PM"
      }
    ],
    "imageUrl": "https://media.indianluxurycars.com/google/98bd0391cbd2a98c59e3b279a1de5ff0875f723e177dddc92ad98cf27598aaba.png",
    "url": "https://www.google.com/maps/search/?api=1&query=Self%20Drive%20Car%20Rentals%20Mangalore&query_place_id=ChIJt-PxUZxQozsRDKfB0hEWqI0"
  },
  {
    "title": "Sri Siddhivinayaka Tours and Travels Mangalore",
    "categoryName": "Car leasing service",
    "address": "130-2650/6, near Francis Doris Skate City In, Ashok Nagar, Mangaluru, Karnataka 575006, India",
    "neighborhood": "Ashok Nagar",
    "street": "130-2650/6, near Francis Doris Skate City In",
    "city": "Mangaluru",
    "postalCode": "575006",
    "state": "Karnataka",
    "countryCode": "IN",
    "website": "https://www.srisiddivinayakatourstravels.com/",
    "phone": "+919448113055",
    "phoneUnformatted": "+919448113055",
    "location": {
      "lat": 12.8973618,
      "lng": 74.8270699
    },
    "totalScore": 5,
    "permanentlyClosed": false,
    "temporarilyClosed": false,
    "placeId": "ChIJd8G5pv5bozsRWlcptMoTlc0",
    "categories": [
      "Car leasing service",
      "Airport shuttle service",
      "Taxi service",
      "Sightseeing tour agency",
      "Tour operator",
      "Travel agency"
    ],
    "reviewsCount": 6,
    "imagesCount": 14,
    "openingHours": [],
    "imageUrl": "https://media.indianluxurycars.com/google/d413891dc3cbaaf8a4fd0eaaa2cf0f75c6dc5fcf51aa033db32350422f459222.jpg",
    "url": "https://www.google.com/maps/search/?api=1&query=Sri%20Siddhivinayaka%20Tours%20and%20Travels%20Mangalore&query_place_id=ChIJd8G5pv5bozsRWlcptMoTlc0"
  },
  {
    "title": "Zoom Car Rental and Self-Drive Cars",
    "categoryName": "Car rental agency",
    "address": "near Solitaire Land Trades, Chilimbi, Urwa, Mangaluru, Karnataka 575006, India",
    "neighborhood": "Chilimbi, Urwa",
    "street": "near Solitaire Land Trades",
    "city": "Mangaluru",
    "postalCode": "575006",
    "state": "Karnataka",
    "countryCode": "IN",
    "website": "https://www.zoomcar.com/in",
    "phone": "+917204380284",
    "phoneUnformatted": "+917204380284",
    "location": {
      "lat": 12.8933985,
      "lng": 74.8354697
    },
    "totalScore": 4.6,
    "permanentlyClosed": false,
    "temporarilyClosed": false,
    "placeId": "ChIJSWFlZABbozsR44VZRdWbitI",
    "categories": [
      "Car rental agency"
    ],
    "reviewsCount": 84,
    "imagesCount": 18,
    "openingHours": [
      {
        "day": "Monday",
        "hours": "9 AM to 5 PM"
      },
      {
        "day": "Tuesday",
        "hours": "9 AM to 5 PM"
      },
      {
        "day": "Wednesday",
        "hours": "9 AM to 5 PM"
      },
      {
        "day": "Thursday",
        "hours": "9 AM to 5 PM"
      },
      {
        "day": "Friday",
        "hours": "9 AM to 5 PM"
      },
      {
        "day": "Saturday",
        "hours": "9 AM to 5 PM"
      },
      {
        "day": "Sunday",
        "hours": "Closed"
      }
    ],
    "imageUrl": "https://media.indianluxurycars.com/google/ced9d9b5e49c8e3e8607b1916c6a881d658323168b145050ce6141c69f29edc8.jpg",
    "url": "https://www.google.com/maps/search/?api=1&query=Zoom%20Car%20Rental%20and%20Self-Drive%20Cars&query_place_id=ChIJSWFlZABbozsR44VZRdWbitI"
  }
]
