[
  {
    "title": "Balaji Car Rentals | Airport Taxi | Corporate Cabs Service | Corporate Taxi Service | Corporate Car Rental",
    "categoryName": "Car rental agency",
    "address": "543, 19th Cross, 4th Main Rd, Vidyaranyapura, Mysuru, Karnataka 570008, India",
    "neighborhood": "Industrial Suburb, Vidyaranyapura",
    "street": "543, 19th Cross, 4th Main Rd",
    "city": "Mysuru, Visveshwara Nagar",
    "postalCode": "570008",
    "state": "Karnataka",
    "countryCode": "IN",
    "website": "https://www.balajicarrentals.in/",
    "phone": "+919591855656",
    "phoneUnformatted": "+919591855656",
    "location": {
      "lat": 12.2805114,
      "lng": 76.6481119
    },
    "totalScore": 4.6,
    "permanentlyClosed": false,
    "temporarilyClosed": false,
    "placeId": "ChIJBcNg2ZZvrzsRXsVB_A6rIL0",
    "categories": [
      "Car rental agency",
      "Car leasing service",
      "Taxi service",
      "Minibus taxi service"
    ],
    "reviewsCount": 21,
    "imagesCount": 44,
    "openingHours": [],
    "imageUrl": "https://media.indianluxurycars.com/google/606ca78b7dd32312584643747fceada6b47aec36e96d9f3487999ffce97bc4fd.jpg",
    "url": "https://www.google.com/maps/search/?api=1&query=Balaji%20Car%20Rentals%20%7C%20Airport%20Taxi%20%7C%20Corporate%20Cabs%20Service%20%7C%20Corporate%20Taxi%20Service%20%7C%20Corporate%20Car%20Rental&query_place_id=ChIJBcNg2ZZvrzsRXsVB_A6rIL0"
  },
  {
    "title": "Hi-Fi Self Drive Car's Mysore",
    "categoryName": "Car rental agency",
    "address": "Main Rd, opp. Maharshi Public School, JP Nagar, Mysuru, Visveshwara Nagar, Karnataka 570008, India",
    "neighborhood": "JP Nagar",
    "street": "Main Rd, opp. Maharshi Public School",
    "city": "Mysuru, Visveshwara Nagar",
    "postalCode": "570008",
    "state": "Karnataka",
    "countryCode": "IN",
    "website": "http://www.hi-fiselfdrivecars.in/",
    "phone": "+919449821700",
    "phoneUnformatted": "+919449821700",
    "location": {
      "lat": 12.2716468,
      "lng": 76.6456998
    },
    "totalScore": 4.6,
    "permanentlyClosed": false,
    "temporarilyClosed": false,
    "placeId": "ChIJgzDGJs9vrzsR_NzyB4kHcsc",
    "categories": [
      "Car rental agency",
      "Car leasing service",
      "Tour agency",
      "Travel agency"
    ],
    "reviewsCount": 65,
    "imagesCount": 26,
    "openingHours": [
      {
        "day": "Monday",
        "hours": "5 AM to 11 PM"
      },
      {
        "day": "Tuesday",
        "hours": "5 AM to 11 PM"
      },
      {
        "day": "Wednesday",
        "hours": "5 AM to 11 PM"
      },
      {
        "day": "Thursday",
        "hours": "5 AM to 11 PM"
      },
      {
        "day": "Friday",
        "hours": "5 AM to 11 PM"
      },
      {
        "day": "Saturday",
        "hours": "5 AM to 11 PM"
      },
      {
        "day": "Sunday",
        "hours": "5 AM to 11 PM"
      }
    ],
    "imageUrl": "https://media.indianluxurycars.com/google/0e0a483dbc391b0212753b447359627d32d3a5dca0af9496b05332450f64a787.jpg",
    "url": "https://www.google.com/maps/search/?api=1&query=Hi-Fi%20Self%20Drive%20Car's%20Mysore&query_place_id=ChIJgzDGJs9vrzsR_NzyB4kHcsc"
  },
  {
    "title": "SOUTH CARS ( CAR DEALERSHIP & CAR SPA )",
    "categoryName": "Car dealer",
    "address": "First Right, Nithyananda Kalyanamantapa, 99/G, Industrial Suburb, Vidyaranyapura, Mysuru, Visveshwara Nagar, Karnataka 570008, India",
    "neighborhood": "Industrial Suburb, Vidyaranyapura",
    "street": "First Right, Nithyananda Kalyanamantapa, 99/G",
    "city": "Mysuru, Visveshwara Nagar",
    "postalCode": "570008",
    "state": "Karnataka",
    "countryCode": "IN",
    "phone": "+919739313398",
    "phoneUnformatted": "+919739313398",
    "location": {
      "lat": 12.2785712,
      "lng": 76.6456007
    },
    "totalScore": 5,
    "permanentlyClosed": false,
    "temporarilyClosed": false,
    "placeId": "ChIJ9_FILqJvrzsRGZLyGHfOBzM",
    "categories": [
      "Car dealer"
    ],
    "reviewsCount": 23,
    "imagesCount": 55,
    "openingHours": [
      {
        "day": "Monday",
        "hours": "8:30 AM to 6 PM"
      },
      {
        "day": "Tuesday",
        "hours": "8:30 AM to 6 PM"
      },
      {
        "day": "Wednesday",
        "hours": "8:30 AM to 6 PM"
      },
      {
        "day": "Thursday",
        "hours": "8:30 AM to 6 PM"
      },
      {
        "day": "Friday",
        "hours": "8:30 AM to 6 PM"
      },
      {
        "day": "Saturday",
        "hours": "8:30 AM to 6 PM"
      },
      {
        "day": "Sunday",
        "hours": "8:30 AM to 2 PM"
      }
    ],
    "imageUrl": "https://media.indianluxurycars.com/google/06a856f3323948e5cbc444dad6ebc1b18d142ac3a4c73b13fc17ac582d375d00.jpg",
    "url": "https://www.google.com/maps/search/?api=1&query=SOUTH%20CARS%20(%20CAR%20DEALERSHIP%20%26%20CAR%20SPA%20)&query_place_id=ChIJ9_FILqJvrzsRGZLyGHfOBzM"
  },
  {
    "title": "South cars ( Used cars Mysore)",
    "categoryName": "Used car dealer",
    "address": "No 853,24th cross, 4th Main Rd, Vidyaranyapura, Mysuru, Karnataka 570008, India",
    "neighborhood": "Vidyaranyapura",
    "street": "No 853,24th cross, 4th Main Rd",
    "city": "Mysuru, Visveshwara Nagar",
    "postalCode": "570008",
    "state": "Karnataka",
    "countryCode": "IN",
    "location": {
      "lat": 12.2786452,
      "lng": 76.6456563
    },
    "totalScore": 3.9,
    "permanentlyClosed": false,
    "temporarilyClosed": false,
    "placeId": "ChIJFwC-ZENvrzsRlmAGpFjlqfM",
    "categories": [
      "Used car dealer",
      "Auto broker"
    ],
    "reviewsCount": 9,
    "imagesCount": 26,
    "openingHours": [
      {
        "day": "Monday",
        "hours": "9 AM to 8 PM"
      },
      {
        "day": "Tuesday",
        "hours": "9 AM to 8 PM"
      },
      {
        "day": "Wednesday",
        "hours": "9 AM to 8 PM"
      },
      {
        "day": "Thursday",
        "hours": "9 AM to 8 PM"
      },
      {
        "day": "Friday",
        "hours": "9 AM to 8 PM"
      },
      {
        "day": "Saturday",
        "hours": "9 AM to 8 PM"
      },
      {
        "day": "Sunday",
        "hours": "9 AM to 8 PM"
      }
    ],
    "imageUrl": "https://media.indianluxurycars.com/google/99cd87c294f38c949af661c5d456297ae84931bf48cf1cdf4cf7eded5e115e9b.jpg",
    "url": "https://www.google.com/maps/search/?api=1&query=South%20cars%20(%20Used%20cars%20Mysore)&query_place_id=ChIJFwC-ZENvrzsRlmAGpFjlqfM"
  }
]
