[
  {
    "title": "Al_arz car self drive",
    "subTitle": "ಅಲ್_ಆರ್ಜ್ ಕಾರ್ ಸೆಲ್ಫ್ ಡ್ರೈವ್",
    "categoryName": "Car rental agency",
    "address": "loyal world, Bannimantap 14th main road hudco, opposite road, near Balaji theatre, Bannimantap A Layout, Bannimantap, Mysuru, Karnataka 570015, India",
    "neighborhood": "Bannimantap A Layout, Bannimantap",
    "street": "loyal world, Bannimantap 14th main road hudco, opposite road, near Balaji theatre",
    "city": "Mysuru",
    "postalCode": "570015",
    "state": "Karnataka",
    "countryCode": "IN",
    "website": "https://alarzselfdrive.com/",
    "phone": "+918904440805",
    "phoneUnformatted": "+918904440805",
    "location": {
      "lat": 12.3417241,
      "lng": 76.6474005
    },
    "totalScore": 4.4,
    "permanentlyClosed": false,
    "temporarilyClosed": false,
    "placeId": "ChIJ2zpnFSZxrzsR-1EGqjELEjk",
    "categories": [
      "Car rental agency"
    ],
    "reviewsCount": 225,
    "imagesCount": 44,
    "openingHours": [
      {
        "day": "Monday",
        "hours": "Open 24 hours"
      },
      {
        "day": "Tuesday",
        "hours": "Open 24 hours"
      },
      {
        "day": "Wednesday",
        "hours": "Open 24 hours"
      },
      {
        "day": "Thursday",
        "hours": "Open 24 hours"
      },
      {
        "day": "Friday",
        "hours": "Open 24 hours"
      },
      {
        "day": "Saturday",
        "hours": "Open 24 hours"
      },
      {
        "day": "Sunday",
        "hours": "Open 24 hours"
      }
    ],
    "imageUrl": "https://media.indianluxurycars.com/google/e77def2a0f36d5520624be05817fdd0a8c029727177cdee49f50142fe7411bfd.jpg",
    "url": "https://www.google.com/maps/search/?api=1&query=Al_arz%20car%20self%20drive&query_place_id=ChIJ2zpnFSZxrzsR-1EGqjELEjk"
  },
  {
    "title": "Bairava Cars",
    "categoryName": "Car dealer",
    "address": "S.No, 28/2B, 1/A, Vishwamanava Jodi Road, near Andolana Circle, Ramakrishnanagar, Mysuru, Karnataka 570022, India",
    "neighborhood": "Block A, MUDA Employees Layout, Ramakrishnanagar",
    "street": "S.No, 28/2B, 1/A, Vishwamanava Jodi Road, near Andolana Circle",
    "city": "Mysuru",
    "postalCode": "570022",
    "state": "Karnataka",
    "countryCode": "IN",
    "phone": "+917483243404",
    "phoneUnformatted": "+917483243404",
    "location": {
      "lat": 12.2869578,
      "lng": 76.6159237
    },
    "totalScore": 5,
    "permanentlyClosed": false,
    "temporarilyClosed": false,
    "placeId": "ChIJobKiGYxlrzsRnFkI0gu31u4",
    "categories": [
      "Car dealer"
    ],
    "reviewsCount": 13,
    "imagesCount": 6,
    "openingHours": [
      {
        "day": "Monday",
        "hours": "10 AM to 8 PM"
      },
      {
        "day": "Tuesday",
        "hours": "10 AM to 8 PM"
      },
      {
        "day": "Wednesday",
        "hours": "10 AM to 8 PM"
      },
      {
        "day": "Thursday",
        "hours": "10 AM to 8 PM"
      },
      {
        "day": "Friday",
        "hours": "10 AM to 8 PM"
      },
      {
        "day": "Saturday",
        "hours": "10 AM to 8 PM"
      },
      {
        "day": "Sunday",
        "hours": "9 AM to 2 PM"
      }
    ],
    "imageUrl": "https://media.indianluxurycars.com/google/6218712c01bb7e62852b4fd5ad46005612708dcca79daf1df5ea75cca54b2f4b.jpg",
    "url": "https://www.google.com/maps/search/?api=1&query=Bairava%20Cars&query_place_id=ChIJobKiGYxlrzsRnFkI0gu31u4"
  },
  {
    "title": "Bajarangi travels",
    "categoryName": "Car rental agency",
    "address": "#15, A block, Jyothi Nagar, Mysuru, Karnataka 570011, India",
    "neighborhood": "Jyothi Nagar, Chamundi Vihar Layout",
    "street": "#15, A block",
    "city": "Mysuru",
    "postalCode": "570011",
    "state": "Karnataka",
    "countryCode": "IN",
    "phone": "+919590608011",
    "phoneUnformatted": "+919590608011",
    "location": {
      "lat": 12.3122431,
      "lng": 76.6772727
    },
    "totalScore": 4.8,
    "permanentlyClosed": false,
    "temporarilyClosed": false,
    "placeId": "ChIJTTxPIqBxrzsRAnYTqtoQCsk",
    "categories": [
      "Car rental agency"
    ],
    "reviewsCount": 77,
    "imagesCount": 53,
    "openingHours": [
      {
        "day": "Monday",
        "hours": "Open 24 hours"
      },
      {
        "day": "Tuesday",
        "hours": "Open 24 hours"
      },
      {
        "day": "Wednesday",
        "hours": "Open 24 hours"
      },
      {
        "day": "Thursday",
        "hours": "Open 24 hours"
      },
      {
        "day": "Friday",
        "hours": "Open 24 hours"
      },
      {
        "day": "Saturday",
        "hours": "Open 24 hours"
      },
      {
        "day": "Sunday",
        "hours": "Open 24 hours"
      }
    ],
    "imageUrl": "https://media.indianluxurycars.com/google/f436c6db053222d0a8fe25b8acd096c70f9b9b8d043c76779ccfaec7fc65e71f.jpg",
    "url": "https://www.google.com/maps/search/?api=1&query=Bajarangi%20travels&query_place_id=ChIJTTxPIqBxrzsRAnYTqtoQCsk"
  },
  {
    "title": "BLCK Luxury",
    "categoryName": "Car rental agency",
    "address": "405/A, A, D Devaraj Urs Rd, Devaraja Mohalla, Yadavagiri, Mysuru, Karnataka 570004, India",
    "neighborhood": "Devaraja Mohalla, Yadavagiri",
    "street": "405/A, A, D Devaraj Urs Rd",
    "city": "Mysuru",
    "postalCode": "570004",
    "state": "Karnataka",
    "countryCode": "IN",
    "website": "https://blckluxury.com/",
    "phone": "+919900085611",
    "phoneUnformatted": "+919900085611",
    "location": {
      "lat": 12.3092764,
      "lng": 76.6489376
    },
    "totalScore": 5,
    "permanentlyClosed": false,
    "temporarilyClosed": false,
    "placeId": "ChIJHfl-RwxwrzsRkgHJlMchmLc",
    "categories": [
      "Car rental agency"
    ],
    "reviewsCount": 2,
    "imagesCount": 2,
    "openingHours": [],
    "imageUrl": "https://media.indianluxurycars.com/google/204a2643620404b8295b3d0069fafe8b3a0eb66adcfb2154baf92a22b41587bf.jpg",
    "url": "https://www.google.com/maps/search/?api=1&query=BLCK%20Luxury&query_place_id=ChIJHfl-RwxwrzsRkgHJlMchmLc"
  },
  {
    "title": "CAR MERIDIAN - Pre - owned Car Showroom",
    "categoryName": "Used car dealer",
    "address": "8MJ3+RFJ, Bannimantap, Mysuru, Karnataka 570015, India",
    "neighborhood": "Bannimantap",
    "street": "8MJ3+RFJ",
    "city": "Mysuru",
    "postalCode": "570015",
    "state": "Karnataka",
    "countryCode": "IN",
    "phone": "+918880807010",
    "phoneUnformatted": "+918880807010",
    "location": {
      "lat": 12.3320875,
      "lng": 76.6536406
    },
    "totalScore": 4.6,
    "permanentlyClosed": false,
    "temporarilyClosed": false,
    "placeId": "ChIJs2eKEwBxrzsRDmA4kBTKUBg",
    "categories": [
      "Used car dealer"
    ],
    "reviewsCount": 10,
    "imagesCount": 12,
    "openingHours": [
      {
        "day": "Monday",
        "hours": "9:30 AM to 9:30 PM"
      },
      {
        "day": "Tuesday",
        "hours": "9:30 AM to 9:30 PM"
      },
      {
        "day": "Wednesday",
        "hours": "9:30 AM to 9:30 PM"
      },
      {
        "day": "Thursday",
        "hours": "9:30 AM to 9:30 PM"
      },
      {
        "day": "Friday",
        "hours": "9:30 AM to 9:30 PM"
      },
      {
        "day": "Saturday",
        "hours": "9:30 AM to 9:30 PM"
      },
      {
        "day": "Sunday",
        "hours": "9:30 AM to 9:30 PM"
      }
    ],
    "imageUrl": "https://media.indianluxurycars.com/google/5f922126e2f83f51f23bf7c7ec3b2ab854b43229613b3c8ed8eed0f322b7f063.jpg",
    "url": "https://www.google.com/maps/search/?api=1&query=CAR%20MERIDIAN%20-%20Pre%20-%20owned%20Car%20Showroom&query_place_id=ChIJs2eKEwBxrzsRDmA4kBTKUBg"
  },
  {
    "title": "Car nation Mysore",
    "categoryName": "Used car dealer",
    "address": "Jayaram Building, 2203/49, Sayyaji Rao Rd, Bamboo Bazar, Tilak Nagar, Mysuru, Karnataka 570001, India",
    "neighborhood": "Bamboo Bazar, Tilak Nagar",
    "street": "Jayaram Building, 2203/49, Sayyaji Rao Rd",
    "city": "Mysuru",
    "postalCode": "570001",
    "state": "Karnataka",
    "countryCode": "IN",
    "location": {
      "lat": 12.3271789,
      "lng": 76.6444613
    },
    "totalScore": 5,
    "permanentlyClosed": false,
    "temporarilyClosed": false,
    "placeId": "ChIJUSV05l1xrzsROxLRDxkxU8M",
    "categories": [
      "Used car dealer",
      "Auto broker"
    ],
    "reviewsCount": 7,
    "imagesCount": 34,
    "openingHours": [
      {
        "day": "Monday",
        "hours": "10 AM to 8:30 PM"
      },
      {
        "day": "Tuesday",
        "hours": "10 AM to 8:30 PM"
      },
      {
        "day": "Wednesday",
        "hours": "10 AM to 8:30 PM"
      },
      {
        "day": "Thursday",
        "hours": "10 AM to 8:30 PM"
      },
      {
        "day": "Friday",
        "hours": "10 AM to 8:30 PM"
      },
      {
        "day": "Saturday",
        "hours": "10 AM to 8:30 PM"
      },
      {
        "day": "Sunday",
        "hours": "10 AM to 8:30 PM"
      }
    ],
    "imageUrl": "https://media.indianluxurycars.com/google/2a29a51d131de4f559c1e3ec405b57bfe73e4f19c8e10232bb6ae68b242d8451.jpg",
    "url": "https://www.google.com/maps/search/?api=1&query=Car%20nation%20Mysore&query_place_id=ChIJUSV05l1xrzsROxLRDxkxU8M"
  },
  {
    "title": "car planet mysore",
    "categoryName": "Used car dealer",
    "address": "464, Sarvodaya Road, Nimishamba Layout, Kuvempu Nagara, Mysuru, Karnataka 570023, India",
    "neighborhood": "Kuvempu Nagar 1st Stage, Kuvempu Nagara",
    "street": "464, Sarvodaya Road, Nimishamba Layout",
    "city": "Mysuru",
    "postalCode": "570023",
    "state": "Karnataka",
    "countryCode": "IN",
    "phone": "+919980665004",
    "phoneUnformatted": "+919980665004",
    "location": {
      "lat": 12.2848609,
      "lng": 76.6234407
    },
    "totalScore": 4.8,
    "permanentlyClosed": false,
    "temporarilyClosed": false,
    "placeId": "ChIJfdONuU9lrzsRL73gPV9EPgo",
    "categories": [
      "Used car dealer",
      "Auto broker"
    ],
    "reviewsCount": 86,
    "imagesCount": 31,
    "openingHours": [
      {
        "day": "Monday",
        "hours": "9:30 AM to 8 PM"
      },
      {
        "day": "Tuesday",
        "hours": "9:30 AM to 8 PM"
      },
      {
        "day": "Wednesday",
        "hours": "9:30 AM to 8 PM"
      },
      {
        "day": "Thursday",
        "hours": "9:30 AM to 8:30 PM"
      },
      {
        "day": "Friday",
        "hours": "9:30 AM to 8:30 PM"
      },
      {
        "day": "Saturday",
        "hours": "9:30 AM to 8:30 PM"
      },
      {
        "day": "Sunday",
        "hours": "9:30 AM to 2 PM"
      }
    ],
    "imageUrl": "https://media.indianluxurycars.com/google/720b0dae04ff7fccd02e643d04d90b9b647ee32a643fe9a117882fb683f5d0d3.jpg",
    "url": "https://www.google.com/maps/search/?api=1&query=car%20planet%20mysore&query_place_id=ChIJfdONuU9lrzsRL73gPV9EPgo"
  },
  {
    "title": "Car Universe",
    "categoryName": "Used car dealer",
    "address": "558/A, New Kantharaj Urs Rd, Kuvempunagara North, Kuvempu Nagara, Mysuru, Karnataka 570023, India",
    "neighborhood": "Kuvempunagara North, Kuvempu Nagara",
    "street": "558/A, New Kantharaj Urs Rd",
    "city": "Mysuru",
    "postalCode": "570023",
    "state": "Karnataka",
    "countryCode": "IN",
    "website": "https://www.caruniversemysore.com/",
    "phone": "+919916586655",
    "phoneUnformatted": "+919916586655",
    "location": {
      "lat": 12.2959043,
      "lng": 76.6233282
    },
    "totalScore": 4.5,
    "permanentlyClosed": false,
    "temporarilyClosed": false,
    "placeId": "ChIJIXUilnl7rzsRWkgHd-Rlnw8",
    "categories": [
      "Used car dealer"
    ],
    "reviewsCount": 38,
    "imagesCount": 31,
    "openingHours": [
      {
        "day": "Monday",
        "hours": "9:30 AM to 7:30 PM"
      },
      {
        "day": "Tuesday",
        "hours": "9:30 AM to 7:30 PM"
      },
      {
        "day": "Wednesday",
        "hours": "9:30 AM to 7:30 PM"
      },
      {
        "day": "Thursday",
        "hours": "9:30 AM to 7:30 PM"
      },
      {
        "day": "Friday",
        "hours": "9:30 AM to 7:30 PM"
      },
      {
        "day": "Saturday",
        "hours": "9:30 AM to 7:30 PM"
      },
      {
        "day": "Sunday",
        "hours": "9:30 AM to 7:30 PM"
      }
    ],
    "imageUrl": "https://media.indianluxurycars.com/google/1537373861d95275331024192e4cfc69d2546cc6e5dec0d8145d08892819f146.jpg",
    "url": "https://www.google.com/maps/search/?api=1&query=Car%20Universe&query_place_id=ChIJIXUilnl7rzsRWkgHd-Rlnw8"
  },
  {
    "title": "CarMax",
    "categoryName": "Used car dealer",
    "address": "8th Cross Rd, Sunnadakeri, Rahmania Mohalla, Mysuru, Karnataka 570004, India",
    "neighborhood": "Sunnadakeri, Rahmania Mohalla",
    "street": "8th Cross Rd",
    "city": "Mysuru",
    "postalCode": "570004",
    "state": "Karnataka",
    "countryCode": "IN",
    "website": "https://www.carmax.com/",
    "phone": "+918951510909",
    "phoneUnformatted": "+918951510909",
    "location": {
      "lat": 12.2987136,
      "lng": 76.6458714
    },
    "totalScore": 4.7,
    "permanentlyClosed": false,
    "temporarilyClosed": false,
    "placeId": "ChIJ4ZWmEGFxrzsRUTft12ctjX4",
    "categories": [
      "Used car dealer"
    ],
    "reviewsCount": 66,
    "imagesCount": 235,
    "openingHours": [
      {
        "day": "Monday",
        "hours": "9 AM to 8 PM"
      },
      {
        "day": "Tuesday",
        "hours": "9 AM to 8 PM"
      },
      {
        "day": "Wednesday",
        "hours": "9 AM to 8 PM"
      },
      {
        "day": "Thursday",
        "hours": "9 AM to 8 PM"
      },
      {
        "day": "Friday",
        "hours": "9 AM to 8 PM"
      },
      {
        "day": "Saturday",
        "hours": "9 AM to 8 PM"
      },
      {
        "day": "Sunday",
        "hours": "9 AM to 2 PM"
      }
    ],
    "imageUrl": "https://media.indianluxurycars.com/google/560cf41cb3a518f0f6e8f938625cc826cd652521f0ccdc1d564f887f124f9e34.jpg",
    "url": "https://www.google.com/maps/search/?api=1&query=CarMax&query_place_id=ChIJ4ZWmEGFxrzsRUTft12ctjX4"
  },
  {
    "title": "City Cars",
    "subTitle": "ಸಿಟಿ ಕಾರ್ಸ್",
    "categoryName": "Car dealer",
    "address": "Tilak Nagar, Mysuru, Karnataka 570001, India",
    "neighborhood": "Tilak Nagar",
    "city": "Mysuru",
    "postalCode": "570001",
    "state": "Karnataka",
    "countryCode": "IN",
    "phone": "+919739738384",
    "phoneUnformatted": "+919739738384",
    "location": {
      "lat": 12.3256507,
      "lng": 76.6450713
    },
    "totalScore": 4.5,
    "permanentlyClosed": false,
    "temporarilyClosed": false,
    "placeId": "ChIJfffcxnlwrzsRGX7NSjtSIU4",
    "categories": [
      "Car dealer"
    ],
    "reviewsCount": 10,
    "imagesCount": 11,
    "openingHours": [
      {
        "day": "Monday",
        "hours": "10 AM to 8:45 PM"
      },
      {
        "day": "Tuesday",
        "hours": "10 AM to 8:45 PM"
      },
      {
        "day": "Wednesday",
        "hours": "10 AM to 8:45 PM"
      },
      {
        "day": "Thursday",
        "hours": "10 AM to 8:45 PM"
      },
      {
        "day": "Friday",
        "hours": "10 AM to 8:45 PM"
      },
      {
        "day": "Saturday",
        "hours": "10 AM to 8:45 PM"
      },
      {
        "day": "Sunday",
        "hours": "10 AM to 2:45 PM"
      }
    ],
    "imageUrl": "https://media.indianluxurycars.com/google/86e77aa4b7b8f6b050d066932884deafd486f6cb247ce5ad878196fc39c21d9d.jpg",
    "url": "https://www.google.com/maps/search/?api=1&query=City%20Cars&query_place_id=ChIJfffcxnlwrzsRGX7NSjtSIU4"
  },
  {
    "title": "Classic car rentals",
    "categoryName": "Car rental agency",
    "address": "908, near by JSS dental college, Shivarathreeshwara Nagar, Bannimantap, Mysuru, Karnataka 570015, India",
    "neighborhood": "Shivarathreeshwara Nagar, Bannimantap",
    "street": "908, near by JSS dental college",
    "city": "Mysuru",
    "postalCode": "570015",
    "state": "Karnataka",
    "countryCode": "IN",
    "website": "https://classiccarrentals.in/",
    "phone": "+919036444477",
    "phoneUnformatted": "+919036444477",
    "location": {
      "lat": 12.3461989,
      "lng": 76.6482981
    },
    "totalScore": 4.5,
    "permanentlyClosed": false,
    "temporarilyClosed": false,
    "placeId": "ChIJqZMhwRFxrzsRZlJQ11Qm8ss",
    "categories": [
      "Car rental agency"
    ],
    "reviewsCount": 250,
    "imagesCount": 80,
    "openingHours": [
      {
        "day": "Monday",
        "hours": "Open 24 hours"
      },
      {
        "day": "Tuesday",
        "hours": "Open 24 hours"
      },
      {
        "day": "Wednesday",
        "hours": "Open 24 hours"
      },
      {
        "day": "Thursday",
        "hours": "Open 24 hours"
      },
      {
        "day": "Friday",
        "hours": "Open 24 hours"
      },
      {
        "day": "Saturday",
        "hours": "Open 24 hours"
      },
      {
        "day": "Sunday",
        "hours": "Open 24 hours"
      }
    ],
    "imageUrl": "https://media.indianluxurycars.com/google/01ae1424fbbcb06a3f4f5ecfb16184977eae4981e4a576495170c13e96f9d275.jpg",
    "url": "https://www.google.com/maps/search/?api=1&query=Classic%20car%20rentals&query_place_id=ChIJqZMhwRFxrzsRZlJQ11Qm8ss"
  },
  {
    "title": "Classic Cars Mysore",
    "categoryName": "Car rental agency",
    "address": "No 653, B layout, S S Nagar, Shivarathreeshwara Nagar, Bannimantap, Mysuru, Karnataka 570015, India",
    "neighborhood": "S S Nagar, Shivarathreeshwara Nagar, Bannimantap",
    "street": "No 653, B layout",
    "city": "Mysuru",
    "postalCode": "570015",
    "state": "Karnataka",
    "countryCode": "IN",
    "website": "http://www.classiccarsmysore.autos/",
    "phone": "+917026444447",
    "phoneUnformatted": "+917026444447",
    "location": {
      "lat": 12.347465,
      "lng": 76.6528784
    },
    "totalScore": 5,
    "permanentlyClosed": false,
    "temporarilyClosed": false,
    "placeId": "ChIJXz8NM9lxrzsRhYmyLTmhju0",
    "categories": [
      "Car rental agency"
    ],
    "reviewsCount": 10,
    "imagesCount": 42,
    "openingHours": [
      {
        "day": "Monday",
        "hours": "8 AM to 11 PM"
      },
      {
        "day": "Tuesday",
        "hours": "8 AM to 11 PM"
      },
      {
        "day": "Wednesday",
        "hours": "8 AM to 11 PM"
      },
      {
        "day": "Thursday",
        "hours": "8 AM to 11 PM"
      },
      {
        "day": "Friday",
        "hours": "8 AM to 11 PM"
      },
      {
        "day": "Saturday",
        "hours": "8 AM to 11 PM"
      },
      {
        "day": "Sunday",
        "hours": "8 AM to 11 PM"
      }
    ],
    "imageUrl": "https://media.indianluxurycars.com/google/238f70f5472fdf1044f5e53fd577bd8890b7c83a6b7b8f3058be950a1c36a9ea.jpg",
    "url": "https://www.google.com/maps/search/?api=1&query=Classic%20Cars%20Mysore&query_place_id=ChIJXz8NM9lxrzsRhYmyLTmhju0"
  },
  {
    "title": "ctc cars - best used cars in mysore since 1992",
    "subTitle": "ಸಿಟಿಸಿ ಕಾರ್ಸ್",
    "categoryName": "Used car dealer",
    "address": "3629, 3rd Main Rd, Tilak Nagar, Mysuru, Karnataka 570001, India",
    "neighborhood": "Tilak Nagar",
    "street": "3629, 3rd Main Rd",
    "city": "Mysuru",
    "postalCode": "570001",
    "state": "Karnataka",
    "countryCode": "IN",
    "website": "http://ctccars.com/",
    "phone": "+919141113111",
    "phoneUnformatted": "+919141113111",
    "location": {
      "lat": 12.328751,
      "lng": 76.6451871
    },
    "totalScore": 4.9,
    "permanentlyClosed": false,
    "temporarilyClosed": false,
    "placeId": "ChIJN6DtuvhxrzsRlmo8vci8Ags",
    "categories": [
      "Used car dealer",
      "Auto broker"
    ],
    "reviewsCount": 513,
    "imagesCount": 3524,
    "openingHours": [
      {
        "day": "Monday",
        "hours": "9 AM to 9 PM"
      },
      {
        "day": "Tuesday",
        "hours": "9 AM to 9 PM"
      },
      {
        "day": "Wednesday",
        "hours": "9 AM to 9 PM"
      },
      {
        "day": "Thursday",
        "hours": "9 AM to 9 PM"
      },
      {
        "day": "Friday",
        "hours": "9 AM to 9 PM"
      },
      {
        "day": "Saturday",
        "hours": "9 AM to 9 PM"
      },
      {
        "day": "Sunday",
        "hours": "9 AM to 3 PM"
      }
    ],
    "imageUrl": "https://media.indianluxurycars.com/google/3c1c694af21eebde2e0653611391c50dea8bcb1ede4aaf45b17baba53572b678.jpg",
    "url": "https://www.google.com/maps/search/?api=1&query=ctc%20cars%20-%20best%20used%20cars%20in%20mysore%20since%201992&query_place_id=ChIJN6DtuvhxrzsRlmo8vci8Ags"
  },
  {
    "title": "Elite Cars",
    "categoryName": "Used car dealer",
    "address": "6, Nelson Mandela Road, next to Bank of Baroda, Devaraja Mohalla, Bannimantap A Layout, Yadavagiri, Mysuru, Karnataka 570001, India",
    "neighborhood": "Devaraja Mohalla, Bannimantap A Layout, Yadavagiri",
    "street": "6, Nelson Mandela Road, next to Bank of Baroda",
    "city": "Mysuru",
    "postalCode": "570001",
    "state": "Karnataka",
    "countryCode": "IN",
    "phone": "+919980532607",
    "phoneUnformatted": "+919980532607",
    "location": {
      "lat": 12.3132092,
      "lng": 76.6504961
    },
    "totalScore": 5,
    "permanentlyClosed": false,
    "temporarilyClosed": false,
    "placeId": "ChIJa0tG6nxwrzsRvxXUb2-zA7s",
    "categories": [
      "Used car dealer"
    ],
    "reviewsCount": 6,
    "imagesCount": 20,
    "openingHours": [
      {
        "day": "Monday",
        "hours": "Closed"
      },
      {
        "day": "Tuesday",
        "hours": "Closed"
      },
      {
        "day": "Wednesday",
        "hours": "Closed"
      },
      {
        "day": "Thursday",
        "hours": "Closed"
      },
      {
        "day": "Friday",
        "hours": "Closed"
      },
      {
        "day": "Saturday",
        "hours": "Closed"
      },
      {
        "day": "Sunday",
        "hours": "10 AM to 9 PM"
      }
    ],
    "imageUrl": "https://media.indianluxurycars.com/google/3698d2805a91e1f7270c80450c329756064807220837920fb4d114d5a2c5ab91.jpg",
    "url": "https://www.google.com/maps/search/?api=1&query=Elite%20Cars&query_place_id=ChIJa0tG6nxwrzsRvxXUb2-zA7s"
  },
  {
    "title": "Evershine Motors",
    "subTitle": "ಎವರ್‌ಶೈನ್ ಮೋಟರ್ಸ್",
    "categoryName": "Car dealer",
    "address": "#27/B, Gokulam Main Rd, Gokulam 2nd Stage, Vani Vilas Mohalla, Mysuru, Karnataka 570002, India",
    "neighborhood": "Gokulam 2nd Stage, Vani Vilas Mohalla",
    "street": "#27/B, Gokulam Main Rd",
    "city": "Mysuru",
    "postalCode": "570002",
    "state": "Karnataka",
    "countryCode": "IN",
    "phone": "+919945277067",
    "phoneUnformatted": "+919945277067",
    "location": {
      "lat": 12.3282552,
      "lng": 76.6289779
    },
    "totalScore": 4.2,
    "permanentlyClosed": false,
    "temporarilyClosed": false,
    "placeId": "ChIJ28fERI96rzsRBxKBnh-L-YE",
    "categories": [
      "Car dealer",
      "Consultant"
    ],
    "reviewsCount": 70,
    "imagesCount": 30,
    "openingHours": [
      {
        "day": "Monday",
        "hours": "11 AM to 8:30 PM"
      },
      {
        "day": "Tuesday",
        "hours": "11 AM to 8:30 PM"
      },
      {
        "day": "Wednesday",
        "hours": "11 AM to 8:30 PM"
      },
      {
        "day": "Thursday",
        "hours": "11 AM to 8:30 PM"
      },
      {
        "day": "Friday",
        "hours": "11 AM to 8:30 PM"
      },
      {
        "day": "Saturday",
        "hours": "11 AM to 8:30 PM"
      },
      {
        "day": "Sunday",
        "hours": "11 AM to 8:30 PM"
      }
    ],
    "imageUrl": "https://media.indianluxurycars.com/google/c0b79e87461991b10237ef98ab4d74a95edeed17b408bf2df38ecf55f30fd245.jpg",
    "url": "https://www.google.com/maps/search/?api=1&query=Evershine%20Motors&query_place_id=ChIJ28fERI96rzsRBxKBnh-L-YE"
  },
  {
    "title": "FABLOUS CARS",
    "categoryName": "Used car dealer",
    "address": "1116, Jhansi Rani Lakshmi Bai Rd, next to Karnataka bank, Chamundipuram, Vidyaranyapura, Mysuru, Karnataka 570008, India",
    "neighborhood": "Chamundipuram, Vidyaranyapura",
    "street": "1116, Jhansi Rani Lakshmi Bai Rd, next to Karnataka bank",
    "city": "Mysuru",
    "postalCode": "570008",
    "state": "Karnataka",
    "countryCode": "IN",
    "phone": "+919632013655",
    "phoneUnformatted": "+919632013655",
    "location": {
      "lat": 12.2867893,
      "lng": 76.6509027
    },
    "totalScore": 4.7,
    "permanentlyClosed": false,
    "temporarilyClosed": false,
    "placeId": "ChIJYwpXMz5vrzsRNCq2enhSjaM",
    "categories": [
      "Used car dealer",
      "Car dealer"
    ],
    "reviewsCount": 14,
    "imagesCount": 12,
    "openingHours": [
      {
        "day": "Monday",
        "hours": "9:30 AM to 7 PM"
      },
      {
        "day": "Tuesday",
        "hours": "9:30 AM to 7 PM"
      },
      {
        "day": "Wednesday",
        "hours": "9:30 AM to 7 PM"
      },
      {
        "day": "Thursday",
        "hours": "9:30 AM to 7 PM"
      },
      {
        "day": "Friday",
        "hours": "9:30 AM to 7 PM"
      },
      {
        "day": "Saturday",
        "hours": "9:30 AM to 7 PM"
      },
      {
        "day": "Sunday",
        "hours": "9:30 AM to 1 PM"
      }
    ],
    "imageUrl": "https://media.indianluxurycars.com/google/651aa0484b0979b7ff44bb908364230bb4f313cd15586e5d38ba95d8453d260d.jpg",
    "url": "https://www.google.com/maps/search/?api=1&query=FABLOUS%20CARS&query_place_id=ChIJYwpXMz5vrzsRNCq2enhSjaM"
  },
  {
    "title": "Galaxy Tours & Travels",
    "subTitle": "ಗ್ಯಾಲಕ್ಸಿ ಟೂರ್ಸ್ & ಟ್ರಾವೆಲ್ಸ್",
    "categoryName": "Car leasing service",
    "address": "4508, Maruthi Circle, 34/A, Bazaar Street, N R Mohalla, Rajendra Nagar, Mysuru, Karnataka 570007, India",
    "neighborhood": "N R Mohalla, Rajendra Nagar",
    "street": "4508, Maruthi Circle, 34/A, Bazaar Street",
    "city": "Mysuru",
    "postalCode": "570007",
    "state": "Karnataka",
    "countryCode": "IN",
    "phone": "+919980439786",
    "phoneUnformatted": "+919980439786",
    "location": {
      "lat": 12.3258077,
      "lng": 76.6647185
    },
    "totalScore": 4.8,
    "permanentlyClosed": false,
    "temporarilyClosed": false,
    "placeId": "ChIJ2fuvVl1wrzsRx7Aq5Z8UG3k",
    "categories": [
      "Car leasing service",
      "Airport shuttle service",
      "Taxi service",
      "Chauffeur service",
      "Limousine service",
      "Minibus taxi service",
      "Sightseeing tour agency",
      "Tour operator",
      "Transportation service",
      "Travel agency"
    ],
    "reviewsCount": 122,
    "imagesCount": 76,
    "openingHours": [],
    "imageUrl": "https://media.indianluxurycars.com/google/dbaae378133c2dcbc8480b35d89b3a38ffc9441d97144e6e67447464318a151f.jpg",
    "url": "https://www.google.com/maps/search/?api=1&query=Galaxy%20Tours%20%26%20Travels&query_place_id=ChIJ2fuvVl1wrzsRx7Aq5Z8UG3k"
  },
  {
    "title": "GoDrive Self Car Rental",
    "categoryName": "Car rental agency",
    "address": "198, 1st Main Rd, next to knowledge tree preschool, Subhash Nagar, R.S.Naidu Nagar, Mysuru, Karnataka 570007, India",
    "neighborhood": "Subhash Nagar, R.S.Naidu Nagar",
    "street": "198, 1st Main Rd, next to knowledge tree preschool",
    "city": "Mysuru",
    "postalCode": "570007",
    "state": "Karnataka",
    "countryCode": "IN",
    "phone": "+919108424849",
    "phoneUnformatted": "+919108424849",
    "location": {
      "lat": 12.3361482,
      "lng": 76.658192
    },
    "totalScore": 4.8,
    "permanentlyClosed": false,
    "temporarilyClosed": false,
    "placeId": "ChIJN6Y3RfJxrzsR2XTvhuLBoyo",
    "categories": [
      "Car rental agency"
    ],
    "reviewsCount": 78,
    "imagesCount": 34,
    "openingHours": [
      {
        "day": "Monday",
        "hours": "Open 24 hours"
      },
      {
        "day": "Tuesday",
        "hours": "Open 24 hours"
      },
      {
        "day": "Wednesday",
        "hours": "Open 24 hours"
      },
      {
        "day": "Thursday",
        "hours": "Open 24 hours"
      },
      {
        "day": "Friday",
        "hours": "Open 24 hours"
      },
      {
        "day": "Saturday",
        "hours": "Open 24 hours"
      },
      {
        "day": "Sunday",
        "hours": "Open 24 hours"
      }
    ],
    "imageUrl": "https://media.indianluxurycars.com/google/16ac027ec10a7aa6e60c7390aa0d0c85732d2948d74c0336c10b800746d8cc2b.jpg",
    "url": "https://www.google.com/maps/search/?api=1&query=GoDrive%20Self%20Car%20Rental&query_place_id=ChIJN6Y3RfJxrzsR2XTvhuLBoyo"
  },
  {
    "title": "Jain Autocars",
    "categoryName": "Used car dealer",
    "address": "480, Chithrabhanu Rd, Kuvempu Nagara, Mysuru, Karnataka 570023, India",
    "neighborhood": "Kuvempu Nagara",
    "street": "480, Chithrabhanu Rd",
    "city": "Mysuru",
    "postalCode": "570023",
    "state": "Karnataka",
    "countryCode": "IN",
    "website": "https://jainautocars.in/",
    "phone": "+919986619282",
    "phoneUnformatted": "+919986619282",
    "location": {
      "lat": 12.2877897,
      "lng": 76.6246513
    },
    "totalScore": 4.9,
    "permanentlyClosed": false,
    "temporarilyClosed": false,
    "placeId": "ChIJfXf3Y81lrzsRcMp1fB6SlEM",
    "categories": [
      "Used car dealer",
      "Car dealer"
    ],
    "reviewsCount": 114,
    "imagesCount": 86,
    "openingHours": [
      {
        "day": "Monday",
        "hours": "10 AM to 7 PM"
      },
      {
        "day": "Tuesday",
        "hours": "10 AM to 7 PM"
      },
      {
        "day": "Wednesday",
        "hours": "10 AM to 7 PM"
      },
      {
        "day": "Thursday",
        "hours": "10 AM to 7 PM"
      },
      {
        "day": "Friday",
        "hours": "10 AM to 7 PM"
      },
      {
        "day": "Saturday",
        "hours": "10 AM to 7 PM"
      },
      {
        "day": "Sunday",
        "hours": "10 AM to 1 PM"
      }
    ],
    "imageUrl": "https://media.indianluxurycars.com/google/e4b4c926c21e3fccf53357f7834104eed30af06a1026d7637692d1352a794fdc.jpg",
    "url": "https://www.google.com/maps/search/?api=1&query=Jain%20Autocars&query_place_id=ChIJfXf3Y81lrzsRcMp1fB6SlEM"
  },
  {
    "title": "Karthik Cars",
    "subTitle": "ಕಾರ್ತಿಕ್ ಕಾರುಗಳು",
    "categoryName": "Used car dealer",
    "address": "MIG 1, 17th Main Road, New Kantharaj Urs Rd, near Vijaya Bank, Kuvempu Nagara, Mysuru, Karnataka 570023, India",
    "neighborhood": "Kuvempu Nagara",
    "street": "MIG 1, 17th Main Road, New Kantharaj Urs Rd, near Vijaya Bank",
    "city": "Mysuru",
    "postalCode": "570023",
    "state": "Karnataka",
    "countryCode": "IN",
    "website": "https://karthikcars.com/",
    "phone": "+919845644882",
    "phoneUnformatted": "+919845644882",
    "location": {
      "lat": 12.2960696,
      "lng": 76.6269068
    },
    "totalScore": 4.7,
    "permanentlyClosed": false,
    "temporarilyClosed": false,
    "placeId": "ChIJH2OMgrF6rzsRK-ffyCBC0cc",
    "categories": [
      "Used car dealer",
      "Auto broker"
    ],
    "reviewsCount": 119,
    "imagesCount": 38,
    "openingHours": [],
    "imageUrl": "https://media.indianluxurycars.com/google/f51b188e758f1f61d14983fdb61f8eb07d30ee35d95aa2d8e646d48a218e0f2b.jpg",
    "url": "https://www.google.com/maps/search/?api=1&query=Karthik%20Cars&query_place_id=ChIJH2OMgrF6rzsRK-ffyCBC0cc"
  },
  {
    "title": "Metro Marvels",
    "categoryName": "Used car dealer",
    "address": "10, Vishwamanava Double Road, Kuvempunagara North, Saraswathipuram, Mysuru, Karnataka 570009, India",
    "neighborhood": "Kuvempunagara North, Saraswathipuram",
    "street": "10, Vishwamanava Double Road",
    "city": "Mysuru",
    "postalCode": "570009",
    "state": "Karnataka",
    "countryCode": "IN",
    "website": "https://metromarvels.com/",
    "phone": "+917760913336",
    "phoneUnformatted": "+917760913336",
    "location": {
      "lat": 12.3010424,
      "lng": 76.6261103
    },
    "totalScore": 4.3,
    "permanentlyClosed": false,
    "temporarilyClosed": false,
    "placeId": "ChIJQ7n4WOV7rzsR2z0LVqZQtvg",
    "categories": [
      "Used car dealer"
    ],
    "reviewsCount": 36,
    "imagesCount": 257,
    "openingHours": [
      {
        "day": "Monday",
        "hours": "10:30 AM to 7 PM"
      },
      {
        "day": "Tuesday",
        "hours": "10:30 AM to 7 PM"
      },
      {
        "day": "Wednesday",
        "hours": "10:30 AM to 7 PM"
      },
      {
        "day": "Thursday",
        "hours": "10:30 AM to 7 PM"
      },
      {
        "day": "Friday",
        "hours": "10:30 AM to 7 PM"
      },
      {
        "day": "Saturday",
        "hours": "10:30 AM to 7 PM"
      },
      {
        "day": "Sunday",
        "hours": "Closed"
      }
    ],
    "imageUrl": "https://media.indianluxurycars.com/google/9b6427ba7df2cb3bd060e784d2188ce8b59805c93c4f737f83f0eeb2478fca09.jpg",
    "url": "https://www.google.com/maps/search/?api=1&query=Metro%20Marvels&query_place_id=ChIJQ7n4WOV7rzsR2z0LVqZQtvg"
  },
  {
    "title": "My Cars Gallery",
    "categoryName": "Used car dealer",
    "address": "003, Ring Rd, near NH Hospital, 2nd Stage, R.S.Naidu Nagar, Mysuru, Karnataka 570019, India",
    "neighborhood": "2nd Stage, R.S.Naidu Nagar",
    "street": "003, Ring Rd, near NH Hospital",
    "city": "Mysuru",
    "postalCode": "570019",
    "state": "Karnataka",
    "countryCode": "IN",
    "phone": "+918105788630",
    "phoneUnformatted": "+918105788630",
    "location": {
      "lat": 12.347884,
      "lng": 76.6695184
    },
    "totalScore": 4.8,
    "permanentlyClosed": false,
    "temporarilyClosed": false,
    "placeId": "ChIJa4iUrxpxrzsRoFe8iN-r4uM",
    "categories": [
      "Used car dealer"
    ],
    "reviewsCount": 18,
    "imagesCount": 28,
    "openingHours": [
      {
        "day": "Monday",
        "hours": "10 AM to 9 PM"
      },
      {
        "day": "Tuesday",
        "hours": "10 AM to 9 PM"
      },
      {
        "day": "Wednesday",
        "hours": "10 AM to 9 PM"
      },
      {
        "day": "Thursday",
        "hours": "10 AM to 9 PM"
      },
      {
        "day": "Friday",
        "hours": "10 AM to 9 PM"
      },
      {
        "day": "Saturday",
        "hours": "10 AM to 9 PM"
      },
      {
        "day": "Sunday",
        "hours": "10 AM to 2 PM"
      }
    ],
    "imageUrl": "https://media.indianluxurycars.com/google/e852db03f59149bf6edc784f6ef1f2bed18316edf45ab4497f30ca1f5beee905.jpg",
    "url": "https://www.google.com/maps/search/?api=1&query=My%20Cars%20Gallery&query_place_id=ChIJa4iUrxpxrzsRoFe8iN-r4uM"
  },
  {
    "title": "Mysore City Travels",
    "subTitle": "ಮೈಸೂರು ಸಿಟಿ ಟ್ರಾವೆಲ್ಸ್",
    "categoryName": "Car rental agency",
    "address": "Hotel Pai Vista, 35/A, Bangalore Nilagiri Road, Mysuru, Karnataka 570004, India",
    "neighborhood": "Agrahara, Chamrajpura",
    "street": "Hotel Pai Vista, 35/A, Bangalore Nilagiri Road",
    "city": "Mysuru",
    "postalCode": "570004",
    "state": "Karnataka",
    "countryCode": "IN",
    "website": "http://mysorecitytravels.com/",
    "phone": "+919845442770",
    "phoneUnformatted": "+919845442770",
    "location": {
      "lat": 12.3016882,
      "lng": 76.6536338
    },
    "totalScore": 4.4,
    "permanentlyClosed": false,
    "temporarilyClosed": false,
    "placeId": "ChIJwc00UCd41zsRe6X5zqKkQKc",
    "categories": [
      "Car rental agency",
      "Travel agency",
      "Tour agency",
      "Tour operator"
    ],
    "reviewsCount": 21,
    "imagesCount": 10,
    "openingHours": [
      {
        "day": "Monday",
        "hours": "Open 24 hours"
      },
      {
        "day": "Tuesday",
        "hours": "Open 24 hours"
      },
      {
        "day": "Wednesday",
        "hours": "Open 24 hours"
      },
      {
        "day": "Thursday",
        "hours": "Open 24 hours"
      },
      {
        "day": "Friday",
        "hours": "Open 24 hours"
      },
      {
        "day": "Saturday",
        "hours": "Open 24 hours"
      },
      {
        "day": "Sunday",
        "hours": "Open 24 hours"
      }
    ],
    "imageUrl": "https://media.indianluxurycars.com/google/33d486df5d1118998b20c3cb06390bf4417e12c6ce06413fb36878de3dac5c70.jpg",
    "url": "https://www.google.com/maps/search/?api=1&query=Mysore%20City%20Travels&query_place_id=ChIJwc00UCd41zsRe6X5zqKkQKc"
  },
  {
    "title": "Mysore self drive car Rentals",
    "categoryName": "Car leasing service",
    "address": "Bus Depot, 46, 2nd Cross Rd, opp. K S R T C, Bannimantap, Mysuru, Karnataka 570015, India",
    "neighborhood": "Bannimantap",
    "street": "Bus Depot, 46, 2nd Cross Rd, opp. K S R T C",
    "city": "Mysuru",
    "postalCode": "570015",
    "state": "Karnataka",
    "countryCode": "IN",
    "website": "http://mysorecarrentals.in/",
    "phone": "+919036304872",
    "phoneUnformatted": "+919036304872",
    "location": {
      "lat": 12.3314397,
      "lng": 76.6498859
    },
    "totalScore": 4.9,
    "permanentlyClosed": false,
    "temporarilyClosed": false,
    "placeId": "ChIJkxAxZ_VxrzsRt26f4UBxN9c",
    "categories": [
      "Car leasing service"
    ],
    "reviewsCount": 216,
    "imagesCount": 115,
    "openingHours": [
      {
        "day": "Monday",
        "hours": "Open 24 hours"
      },
      {
        "day": "Tuesday",
        "hours": "Open 24 hours"
      },
      {
        "day": "Wednesday",
        "hours": "Open 24 hours"
      },
      {
        "day": "Thursday",
        "hours": "Open 24 hours"
      },
      {
        "day": "Friday",
        "hours": "Open 24 hours"
      },
      {
        "day": "Saturday",
        "hours": "Open 24 hours"
      },
      {
        "day": "Sunday",
        "hours": "Open 24 hours"
      }
    ],
    "imageUrl": "https://media.indianluxurycars.com/google/d562306dec297f891b98ccec039f32afd0628a12b3c176d075e842b411a696b0.png",
    "url": "https://www.google.com/maps/search/?api=1&query=Mysore%20self%20drive%20car%20Rentals&query_place_id=ChIJkxAxZ_VxrzsRt26f4UBxN9c"
  },
  {
    "title": "Mysore Trip Zone",
    "categoryName": "Car rental agency",
    "address": "1148, near Nimrah Masjid, 1st stage, Rajiv Nagar, Mysuru, Karnataka 570019, India",
    "neighborhood": "2nd Stage, 1st stage, Rajiv Nagar",
    "street": "1148, near Nimrah Masjid",
    "city": "Mysuru",
    "postalCode": "570019",
    "state": "Karnataka",
    "countryCode": "IN",
    "website": "http://www.mysoretripzone.com/",
    "phone": "+919880456344",
    "phoneUnformatted": "+919880456344",
    "location": {
      "lat": 12.3339736,
      "lng": 76.6838688
    },
    "totalScore": 4.8,
    "permanentlyClosed": false,
    "temporarilyClosed": false,
    "placeId": "ChIJjYcXT_pxrzsRlVSJrd5KLsA",
    "categories": [
      "Car rental agency",
      "Car leasing service",
      "Travel agency",
      "Taxi service",
      "Tour operator"
    ],
    "reviewsCount": 197,
    "imagesCount": 330,
    "openingHours": [
      {
        "day": "Monday",
        "hours": "9 AM to 10 PM"
      },
      {
        "day": "Tuesday",
        "hours": "9 AM to 10 PM"
      },
      {
        "day": "Wednesday",
        "hours": "9 AM to 10 PM"
      },
      {
        "day": "Thursday",
        "hours": "9 AM to 10 PM"
      },
      {
        "day": "Friday",
        "hours": "9 AM to 10 PM"
      },
      {
        "day": "Saturday",
        "hours": "9 AM to 10 PM"
      },
      {
        "day": "Sunday",
        "hours": "9 AM to 2 PM"
      }
    ],
    "imageUrl": "https://media.indianluxurycars.com/google/e830ccfbc8283208ee907699d343874776e6535dad94ebf343b0c82fa2527201.jpg",
    "url": "https://www.google.com/maps/search/?api=1&query=Mysore%20Trip%20Zone&query_place_id=ChIJjYcXT_pxrzsRlVSJrd5KLsA"
  },
  {
    "title": "MysoreCars - Used Cars in Mysore | Second hand Cars | #1 Used Car Dealer",
    "categoryName": "Car dealer",
    "address": "1555/3, Syed Abdul Rahman Rd, opp. Shabnam Function Hall, 2nd Stage, Rajiv Nagar, Mysuru, Karnataka 570019, India",
    "neighborhood": "2nd Stage, Rajiv Nagar",
    "street": "1555/3, Syed Abdul Rahman Rd, opp. Shabnam Function Hall",
    "city": "Mysuru",
    "postalCode": "570019",
    "state": "Karnataka",
    "countryCode": "IN",
    "phone": "+917411891339",
    "phoneUnformatted": "+917411891339",
    "location": {
      "lat": 12.3380771,
      "lng": 76.6748036
    },
    "totalScore": 4.8,
    "permanentlyClosed": false,
    "temporarilyClosed": false,
    "placeId": "ChIJq4Om1spxrzsRkzqxX1lJ8GU",
    "categories": [
      "Car dealer"
    ],
    "reviewsCount": 46,
    "imagesCount": 13,
    "openingHours": [
      {
        "day": "Monday",
        "hours": "Open 24 hours"
      },
      {
        "day": "Tuesday",
        "hours": "Open 24 hours"
      },
      {
        "day": "Wednesday",
        "hours": "Open 24 hours"
      },
      {
        "day": "Thursday",
        "hours": "Open 24 hours"
      },
      {
        "day": "Friday",
        "hours": "Open 24 hours"
      },
      {
        "day": "Saturday",
        "hours": "Open 24 hours"
      },
      {
        "day": "Sunday",
        "hours": "Open 24 hours"
      }
    ],
    "imageUrl": "https://media.indianluxurycars.com/google/0e97234cafa0ddae288063948ffa0bfee5f203f4ef2b5526878d133e987752ad.jpg",
    "url": "https://www.google.com/maps/search/?api=1&query=MysoreCars%20-%20Used%20Cars%20in%20Mysore%20%7C%20Second%20hand%20Cars%20%7C%20%231%20Used%20Car%20Dealer&query_place_id=ChIJq4Om1spxrzsRkzqxX1lJ8GU"
  },
  {
    "title": "Palace Škoda Showroom",
    "categoryName": "Skoda dealer",
    "address": "559, New Kantharaj Urs Rd, Kuvempunagara North, Saraswathipuram, TK Layout, Mysuru, Karnataka 570023, India",
    "neighborhood": "Kuvempunagara North, Saraswathipuram, TK Layout",
    "street": "559, New Kantharaj Urs Rd",
    "city": "Mysuru",
    "postalCode": "570023",
    "state": "Karnataka",
    "countryCode": "IN",
    "website": "https://dealers.skoda-auto.co.in/palace-skoda-showroom-shribalaji-autoagency-mysore-pvt-ltd-car-dealer-tk-layout-mysore-105670/Home",
    "phone": "+919742208080",
    "phoneUnformatted": "+919742208080",
    "location": {
      "lat": 12.2959065,
      "lng": 76.6233294
    },
    "totalScore": 4.5,
    "permanentlyClosed": false,
    "temporarilyClosed": false,
    "placeId": "ChIJfUL8UT17rzsRbdsMiK1eFd0",
    "categories": [
      "Skoda dealer",
      "Car dealer"
    ],
    "reviewsCount": 316,
    "imagesCount": 44,
    "openingHours": [
      {
        "day": "Monday",
        "hours": "9 AM to 6 PM"
      },
      {
        "day": "Tuesday",
        "hours": "9 AM to 6 PM"
      },
      {
        "day": "Wednesday",
        "hours": "9 AM to 6 PM"
      },
      {
        "day": "Thursday",
        "hours": "9 AM to 6 PM"
      },
      {
        "day": "Friday",
        "hours": "9 AM to 6 PM"
      },
      {
        "day": "Saturday",
        "hours": "9 AM to 6 PM"
      },
      {
        "day": "Sunday",
        "hours": "9 AM to 6 PM"
      }
    ],
    "imageUrl": "https://media.indianluxurycars.com/google/b63a30a2ba8163cf2dfd9d5b4e35676e80b1a57ef60e91de13ca50a73eb0d7ed.jpg",
    "url": "https://www.google.com/maps/search/?api=1&query=Palace%20%C5%A0koda%20Showroom&query_place_id=ChIJfUL8UT17rzsRbdsMiK1eFd0"
  },
  {
    "title": "PALACE TOYOTA - MYSORE CITY",
    "categoryName": "Car dealer",
    "address": "Ground Floor, No. 1216, New Kantharaj Urs Rd, Krishnamurthy Puram, Mysuru, Karnataka 570014, India",
    "neighborhood": "Krishnamurthy Puram",
    "street": "Ground Floor, No. 1216, New Kantharaj Urs Rd",
    "city": "Mysuru",
    "postalCode": "570014",
    "state": "Karnataka",
    "countryCode": "IN",
    "website": "https://www.palacetoyota.com/",
    "phone": "+918214248222",
    "phoneUnformatted": "+918214248222",
    "location": {
      "lat": 12.2951762,
      "lng": 76.6409452
    },
    "totalScore": 3.6,
    "permanentlyClosed": false,
    "temporarilyClosed": false,
    "placeId": "ChIJ93UroABwrzsRugVaaL-3acc",
    "categories": [
      "Car dealer"
    ],
    "reviewsCount": 48,
    "imagesCount": 14,
    "openingHours": [
      {
        "day": "Monday",
        "hours": "9:30 AM to 6:30 PM"
      },
      {
        "day": "Tuesday",
        "hours": "9:30 AM to 6:30 PM"
      },
      {
        "day": "Wednesday",
        "hours": "9:30 AM to 12 AM"
      },
      {
        "day": "Thursday",
        "hours": "12 to 6:30 AM, 9:30 AM to 6:30 PM"
      },
      {
        "day": "Friday",
        "hours": "9:30 AM to 6:30 PM"
      },
      {
        "day": "Saturday",
        "hours": "9:30 AM to 6:30 PM"
      },
      {
        "day": "Sunday",
        "hours": "9:30 AM to 6:30 PM"
      }
    ],
    "imageUrl": "https://media.indianluxurycars.com/google/6da7f335cefb11d66a30111113e9f554c1f1cea80b6449ec24d3a6686c8bd28c.jpg",
    "url": "https://www.google.com/maps/search/?api=1&query=PALACE%20TOYOTA%20-%20MYSORE%20CITY&query_place_id=ChIJ93UroABwrzsRugVaaL-3acc"
  },
  {
    "title": "Raj Car's Mysore",
    "categoryName": "Used car dealer",
    "address": "1614, Adichunchanagiri Road, P and T Block, Jayanagar, Kuvempu Nagara, Mysuru, Karnataka 570023, India",
    "neighborhood": "P and T Block, Jayanagar, Kuvempu Nagara",
    "street": "1614, Adichunchanagiri Road",
    "city": "Mysuru",
    "postalCode": "570023",
    "state": "Karnataka",
    "countryCode": "IN",
    "phone": "+919342001989",
    "phoneUnformatted": "+919342001989",
    "location": {
      "lat": 12.2932361,
      "lng": 76.6314049
    },
    "totalScore": 4.2,
    "permanentlyClosed": false,
    "temporarilyClosed": false,
    "placeId": "ChIJExmcQzl7rzsRxOHID1kkrlU",
    "categories": [
      "Used car dealer",
      "Auto broker"
    ],
    "reviewsCount": 63,
    "imagesCount": 22,
    "openingHours": [
      {
        "day": "Monday",
        "hours": "10 AM to 8 PM"
      },
      {
        "day": "Tuesday",
        "hours": "10 AM to 8 PM"
      },
      {
        "day": "Wednesday",
        "hours": "10 AM to 8 PM"
      },
      {
        "day": "Thursday",
        "hours": "10 AM to 8 PM"
      },
      {
        "day": "Friday",
        "hours": "10 AM to 8 PM"
      },
      {
        "day": "Saturday",
        "hours": "10 AM to 8 PM"
      },
      {
        "day": "Sunday",
        "hours": "10 AM to 2 PM"
      }
    ],
    "imageUrl": "https://media.indianluxurycars.com/google/9e0e6c86b9a81c8cc8c5051ecd8d25bd72eb2ccd2c10dd3d0479a43c426a2585.jpg",
    "url": "https://www.google.com/maps/search/?api=1&query=Raj%20Car's%20Mysore&query_place_id=ChIJExmcQzl7rzsRxOHID1kkrlU"
  },
  {
    "title": "RC Exotic Rides [ Mysore's Prestigious Luxury Car Hire Services] Premium & Economy Car Rental Service in Mysore",
    "categoryName": "Car rental agency",
    "address": "13, behind ESI Hospital, Subhash Nagar, Mysuru, Karnataka 570007, India",
    "neighborhood": "Subhash Nagar, Rajendra Nagar",
    "street": "13, behind ESI Hospital",
    "city": "Mysuru",
    "postalCode": "570007",
    "state": "Karnataka",
    "countryCode": "IN",
    "location": {
      "lat": 12.3317919,
      "lng": 76.6588186
    },
    "permanentlyClosed": false,
    "temporarilyClosed": false,
    "placeId": "ChIJCxrrHOVxrzsR2myoee0oAjY",
    "categories": [
      "Car rental agency"
    ],
    "imagesCount": 1,
    "openingHours": [
      {
        "day": "Monday",
        "hours": "Open 24 hours"
      },
      {
        "day": "Tuesday",
        "hours": "Open 24 hours"
      },
      {
        "day": "Wednesday",
        "hours": "Open 24 hours"
      },
      {
        "day": "Thursday",
        "hours": "Open 24 hours"
      },
      {
        "day": "Friday",
        "hours": "Open 24 hours"
      },
      {
        "day": "Saturday",
        "hours": "Open 24 hours"
      },
      {
        "day": "Sunday",
        "hours": "Open 24 hours"
      }
    ],
    "imageUrl": "https://media.indianluxurycars.com/google/f068b651169577d9084973f26358af4c33512254ba915113977080506d89ef2f.jpg",
    "url": "https://www.google.com/maps/search/?api=1&query=RC%20Exotic%20Rides%20%5B%20Mysore's%20Prestigious%20Luxury%20Car%20Hire%20Services%5D%20Premium%20%26%20Economy%20Car%20Rental%20Service%20in%20Mysore&query_place_id=ChIJCxrrHOVxrzsR2myoee0oAjY"
  },
  {
    "title": "Revv Self Drive Car Rental",
    "subTitle": "ರೇವ್ ಸೆಲ್ಪ್ ಡ್ರೈವ್ ಕಾರ್ ರೆಂಟಲ್",
    "categoryName": "Car rental agency",
    "address": "Helipad road, opposite to Karun Trust, KC Layout, Mysuru, Karnataka 570028, India",
    "neighborhood": "KC Layout",
    "street": "Helipad road, opposite to Karun Trust",
    "city": "Mysuru",
    "postalCode": "570028",
    "state": "Karnataka",
    "countryCode": "IN",
    "website": "http://www.revv.co.in/",
    "phone": "+917428370014",
    "phoneUnformatted": "+917428370014",
    "location": {
      "lat": 12.3001621,
      "lng": 76.6867508
    },
    "totalScore": 4,
    "permanentlyClosed": false,
    "temporarilyClosed": false,
    "placeId": "ChIJdZ3H5hVwrzsRpMMMXRbm2nw",
    "categories": [
      "Car rental agency",
      "Car leasing service"
    ],
    "reviewsCount": 199,
    "imagesCount": 95,
    "openingHours": [],
    "imageUrl": "https://media.indianluxurycars.com/google/c214079c7cead9fbe611c564a7e21bf9c698249a211df6a1a7954a210a4c5841.jpg",
    "url": "https://www.google.com/maps/search/?api=1&query=Revv%20Self%20Drive%20Car%20Rental&query_place_id=ChIJdZ3H5hVwrzsRpMMMXRbm2nw"
  },
  {
    "title": "Royal Cars Sales and Service Mysore",
    "categoryName": "Used car dealer",
    "address": "M -8 /A Ummer Khayam Road , Eidgah Ground, Tilak Nagar, Mysuru, Karnataka 570001, India",
    "neighborhood": "Tilak Nagar",
    "street": "M -8 /A Ummer Khayam Road , Eidgah Ground",
    "city": "Mysuru",
    "postalCode": "570001",
    "state": "Karnataka",
    "countryCode": "IN",
    "phone": "+919880878235",
    "phoneUnformatted": "+919880878235",
    "location": {
      "lat": 12.3274595,
      "lng": 76.6445706
    },
    "totalScore": 4.8,
    "permanentlyClosed": false,
    "temporarilyClosed": false,
    "placeId": "ChIJCaDyx7dxrzsRz3CaOiDhonE",
    "categories": [
      "Used car dealer",
      "Auto broker",
      "Auto repair shop"
    ],
    "reviewsCount": 155,
    "imagesCount": 67,
    "openingHours": [
      {
        "day": "Monday",
        "hours": "9:30 AM to 8:30 PM"
      },
      {
        "day": "Tuesday",
        "hours": "9:30 AM to 8:30 PM"
      },
      {
        "day": "Wednesday",
        "hours": "9:30 AM to 8:30 PM"
      },
      {
        "day": "Thursday",
        "hours": "9:30 AM to 8:30 PM"
      },
      {
        "day": "Friday",
        "hours": "9:30 AM to 8:30 PM"
      },
      {
        "day": "Saturday",
        "hours": "9:30 AM to 8:30 PM"
      },
      {
        "day": "Sunday",
        "hours": "10 AM to 2 PM"
      }
    ],
    "imageUrl": "https://media.indianluxurycars.com/google/65c396f44f850ac356542c1d23ac615bdc56c4aff4ebf9169545efb8291fc40c.jpg",
    "url": "https://www.google.com/maps/search/?api=1&query=Royal%20Cars%20Sales%20and%20Service%20Mysore&query_place_id=ChIJCaDyx7dxrzsRz3CaOiDhonE"
  },
  {
    "title": "ROYAL CLASSIC SELF DRIVES CARS 24/7",
    "categoryName": "Car rental agency",
    "address": "749, near MMA HOSPITAL, 2nd Stage, RAJINAGAR, Mysuru, Karnataka 570015, India",
    "neighborhood": "Jayalakshmipuram, 2nd Stage, RAJINAGAR, Bannimantap",
    "street": "749, near MMA HOSPITAL",
    "city": "Mysuru",
    "postalCode": "570015",
    "state": "Karnataka",
    "countryCode": "IN",
    "phone": "+919686077827",
    "phoneUnformatted": "+919686077827",
    "location": {
      "lat": 12.3414333,
      "lng": 76.6534887
    },
    "totalScore": 3.8,
    "permanentlyClosed": false,
    "temporarilyClosed": false,
    "placeId": "ChIJuWxfFThxrzsR3LzTw4sJYAE",
    "categories": [
      "Car rental agency"
    ],
    "reviewsCount": 125,
    "imagesCount": 26,
    "openingHours": [
      {
        "day": "Monday",
        "hours": "Open 24 hours"
      },
      {
        "day": "Tuesday",
        "hours": "Open 24 hours"
      },
      {
        "day": "Wednesday",
        "hours": "Open 24 hours"
      },
      {
        "day": "Thursday",
        "hours": "Open 24 hours"
      },
      {
        "day": "Friday",
        "hours": "Open 24 hours"
      },
      {
        "day": "Saturday",
        "hours": "Open 24 hours"
      },
      {
        "day": "Sunday",
        "hours": "Open 24 hours"
      }
    ],
    "imageUrl": "https://media.indianluxurycars.com/google/49fe34780025cfc18679e393ed5ff39669161d35d0628bcb06d3c3de71e63e25.jpg",
    "url": "https://www.google.com/maps/search/?api=1&query=ROYAL%20CLASSIC%20SELF%20DRIVES%20CARS%2024%2F7&query_place_id=ChIJuWxfFThxrzsR3LzTw4sJYAE"
  },
  {
    "title": "RS CAR DECOR",
    "categoryName": "Car stereo store",
    "address": "388: 18th cross, opposite Iskcon Temple, Jayanagar, Mysuru, Karnataka 570034, India",
    "neighborhood": "Jayanagar, Kuvempu Nagara",
    "street": "388: 18th cross, opposite Iskcon Temple",
    "city": "Mysuru",
    "postalCode": "570034",
    "state": "Karnataka",
    "countryCode": "IN",
    "website": "http://www.rscardecor.com/",
    "phone": "+918880670007",
    "phoneUnformatted": "+918880670007",
    "location": {
      "lat": 12.2859351,
      "lng": 76.6341081
    },
    "totalScore": 4.8,
    "permanentlyClosed": false,
    "temporarilyClosed": false,
    "placeId": "ChIJtdx3Zb9lrzsRFv8D_Ac5Yrk",
    "categories": [
      "Car stereo store",
      "Car security system installer"
    ],
    "reviewsCount": 120,
    "imagesCount": 545,
    "openingHours": [
      {
        "day": "Monday",
        "hours": "10:30 AM to 8 PM"
      },
      {
        "day": "Tuesday",
        "hours": "10:30 AM to 8 PM"
      },
      {
        "day": "Wednesday",
        "hours": "10:30 AM to 8 PM"
      },
      {
        "day": "Thursday",
        "hours": "10:30 AM to 8 PM"
      },
      {
        "day": "Friday",
        "hours": "10:30 AM to 8 PM"
      },
      {
        "day": "Saturday",
        "hours": "10:30 AM to 8 PM"
      },
      {
        "day": "Sunday",
        "hours": "10:30 AM to 3 PM"
      }
    ],
    "imageUrl": "https://media.indianluxurycars.com/google/627ec21233c6e3b22bd1353d4823e5de0f80506b2ab8a932a3761cb54d8a8ea6.jpg",
    "url": "https://www.google.com/maps/search/?api=1&query=RS%20CAR%20DECOR&query_place_id=ChIJtdx3Zb9lrzsRFv8D_Ac5Yrk"
  },
  {
    "title": "SARA CABS",
    "categoryName": "Car rental agency",
    "address": "No 569, Giridarshini Layout 1st floor, T Narasipura Main Rd, Alanahalli, Mysuru, Karnataka 570028, India",
    "neighborhood": "Alanahalli, Giridarshini Layout",
    "street": "No 569, Giridarshini Layout 1st floor, T Narasipura Main Rd",
    "city": "Mysuru",
    "postalCode": "570028",
    "state": "Karnataka",
    "countryCode": "IN",
    "website": "https://sara.cab/",
    "phone": "+919900747576",
    "phoneUnformatted": "+919900747576",
    "location": {
      "lat": 12.2979685,
      "lng": 76.6984652
    },
    "totalScore": 4.8,
    "permanentlyClosed": false,
    "temporarilyClosed": false,
    "placeId": "ChIJdSUaA_MTrzsRcwS_pni4wzE",
    "categories": [
      "Car rental agency",
      "Car leasing service"
    ],
    "reviewsCount": 37,
    "imagesCount": 205,
    "openingHours": [
      {
        "day": "Monday",
        "hours": "Open 24 hours"
      },
      {
        "day": "Tuesday",
        "hours": "Open 24 hours"
      },
      {
        "day": "Wednesday",
        "hours": "Open 24 hours"
      },
      {
        "day": "Thursday",
        "hours": "Open 24 hours"
      },
      {
        "day": "Friday",
        "hours": "Open 24 hours"
      },
      {
        "day": "Saturday",
        "hours": "Open 24 hours"
      },
      {
        "day": "Sunday",
        "hours": "Open 24 hours"
      }
    ],
    "imageUrl": "https://media.indianluxurycars.com/google/e9f6a6181b14288765a9d2584270fe22cd3b2348f2a83b6611676961d0fceb55.jpg",
    "url": "https://www.google.com/maps/search/?api=1&query=SARA%20CABS&query_place_id=ChIJdSUaA_MTrzsRcwS_pni4wzE"
  },
  {
    "title": "Self Drive cars Royal Tours &Travels Mysore",
    "categoryName": "Car rental agency",
    "address": "51 , 4th cross road, Siddiqui Nagar Main Road, B layout, Siddique Nagar, Bannimantap, Mysuru, Karnataka 570015, India",
    "neighborhood": "S S Nagar, B layout, Siddique Nagar, Bannimantap",
    "street": "51 , 4th cross road, Siddiqui Nagar Main Road",
    "city": "Mysuru",
    "postalCode": "570015",
    "state": "Karnataka",
    "countryCode": "IN",
    "phone": "+917676812497",
    "phoneUnformatted": "+917676812497",
    "location": {
      "lat": 12.348554,
      "lng": 76.6577329
    },
    "totalScore": 4.9,
    "permanentlyClosed": false,
    "temporarilyClosed": false,
    "placeId": "ChIJTf3zB1dxrzsRJszIAhAsZ2Y",
    "categories": [
      "Car rental agency",
      "Car leasing service"
    ],
    "reviewsCount": 9,
    "imagesCount": 26,
    "openingHours": [
      {
        "day": "Monday",
        "hours": "Open 24 hours"
      },
      {
        "day": "Tuesday",
        "hours": "Open 24 hours"
      },
      {
        "day": "Wednesday",
        "hours": "Open 24 hours"
      },
      {
        "day": "Thursday",
        "hours": "Open 24 hours"
      },
      {
        "day": "Friday",
        "hours": "Open 24 hours"
      },
      {
        "day": "Saturday",
        "hours": "Open 24 hours"
      },
      {
        "day": "Sunday",
        "hours": "Open 24 hours"
      }
    ],
    "imageUrl": "https://media.indianluxurycars.com/google/de3592d7959bcbb788f2459a58026140fc37a6baf18ad12680dcbadb17174e65.jpg",
    "url": "https://www.google.com/maps/search/?api=1&query=Self%20Drive%20cars%20Royal%20Tours%20%26Travels%20Mysore&query_place_id=ChIJTf3zB1dxrzsRJszIAhAsZ2Y"
  },
  {
    "title": "Silverline Automotive",
    "categoryName": "Used car dealer",
    "address": "best second hand car showroom in Mysore, 50, Highway Circle, New, Sayyaji Rao Rd, Mysuru, Karnataka 570001, India",
    "neighborhood": "Tilak Nagar",
    "street": "best second hand car showroom in Mysore, 50, Highway Circle, New, Sayyaji Rao Rd",
    "city": "Mysuru",
    "postalCode": "570001",
    "state": "Karnataka",
    "countryCode": "IN",
    "phone": "+919606677727",
    "phoneUnformatted": "+919606677727",
    "location": {
      "lat": 12.3303454,
      "lng": 76.6457778
    },
    "totalScore": 4.2,
    "permanentlyClosed": false,
    "temporarilyClosed": false,
    "placeId": "ChIJAfM6WXxwrzsRR00lOBOJfgw",
    "categories": [
      "Used car dealer",
      "Car dealer"
    ],
    "reviewsCount": 113,
    "imagesCount": 139,
    "openingHours": [
      {
        "day": "Monday",
        "hours": "10 AM to 9 PM"
      },
      {
        "day": "Tuesday",
        "hours": "10 AM to 9 PM"
      },
      {
        "day": "Wednesday",
        "hours": "10 AM to 9 PM"
      },
      {
        "day": "Thursday",
        "hours": "10 AM to 9 PM"
      },
      {
        "day": "Friday",
        "hours": "10 AM to 9 PM"
      },
      {
        "day": "Saturday",
        "hours": "10 AM to 9 PM"
      },
      {
        "day": "Sunday",
        "hours": "10 AM to 2:30 PM"
      }
    ],
    "imageUrl": "https://media.indianluxurycars.com/google/ebd77053adb52a13effe9a5b3be7c7598374432e49f5402957d1a8884769e2d4.jpg",
    "url": "https://www.google.com/maps/search/?api=1&query=Silverline%20Automotive&query_place_id=ChIJAfM6WXxwrzsRR00lOBOJfgw"
  },
  {
    "title": "Sri ambari cabs mysuru",
    "subTitle": "ಶ್ರೀ ಅಂಬಾರಿ ಕ್ಯಾಬ್ಸ್ ಮೈಸೂರು",
    "categoryName": "Car rental agency",
    "address": "Near mysuru palac, Karnataka 570014, India",
    "neighborhood": "Jayanagar",
    "street": "Near mysuru palac",
    "city": "Mysuru",
    "postalCode": "570014",
    "state": "Karnataka",
    "countryCode": "IN",
    "phone": "+919900221146",
    "phoneUnformatted": "+919900221146",
    "location": {
      "lat": 12.2954101,
      "lng": 76.6393801
    },
    "totalScore": 4,
    "permanentlyClosed": false,
    "temporarilyClosed": false,
    "placeId": "ChIJtXyIgPN7rzsRYOUPr4wy-DA",
    "categories": [
      "Car rental agency",
      "Taxi service",
      "Travel agency"
    ],
    "reviewsCount": 1,
    "imagesCount": 27,
    "openingHours": [],
    "imageUrl": "https://media.indianluxurycars.com/google/41832e4f488c02a71ab7e94b96356ff265d7a1f9badcb433ce68ad93d24bc834.jpg",
    "url": "https://www.google.com/maps/search/?api=1&query=Sri%20ambari%20cabs%20mysuru&query_place_id=ChIJtXyIgPN7rzsRYOUPr4wy-DA"
  },
  {
    "title": "Taxi Cabz Travels In Mysore. Mysore Cab. Tempo Traveler Rent.Bus Rent Mysore",
    "categoryName": "Car rental agency",
    "address": "DOOR NUMBER 21, 7TH MAIN, near Mysore One Office, Gokulam 3rd Stage, Gokulam, Mysuru, Karnataka 570002, India",
    "neighborhood": "Gokulam 3rd Stage, Gokulam",
    "street": "DOOR NUMBER 21, 7TH MAIN, near Mysore One Office",
    "city": "Mysuru",
    "postalCode": "570002",
    "state": "Karnataka",
    "countryCode": "IN",
    "website": "https://taxicabzmysore.com/index.html",
    "location": {
      "lat": 12.3342232,
      "lng": 76.6236287
    },
    "totalScore": 3,
    "permanentlyClosed": false,
    "temporarilyClosed": false,
    "placeId": "ChIJVwjEGgx7rzsRgnKMdby3a3I",
    "categories": [
      "Car rental agency",
      "Bus tour agency",
      "Minibus taxi service",
      "Sightseeing tour agency",
      "Taxi service",
      "Tour agency",
      "Tour operator",
      "Tourist attraction",
      "Travel agency",
      "Van rental agency"
    ],
    "reviewsCount": 2,
    "imagesCount": 111,
    "openingHours": [
      {
        "day": "Monday",
        "hours": "5 AM to 10 PM"
      },
      {
        "day": "Tuesday",
        "hours": "Open 24 hours"
      },
      {
        "day": "Wednesday",
        "hours": "Open 24 hours"
      },
      {
        "day": "Thursday",
        "hours": "Open 24 hours"
      },
      {
        "day": "Friday",
        "hours": "Open 24 hours"
      },
      {
        "day": "Saturday",
        "hours": "Open 24 hours"
      },
      {
        "day": "Sunday",
        "hours": "8:30 AM to 3 PM"
      }
    ],
    "imageUrl": "https://media.indianluxurycars.com/google/eed302d4a058d56d1e204543e53274204b4ee7ad5b0d0e9b1f4843d8d586efb6.jpg",
    "url": "https://www.google.com/maps/search/?api=1&query=Taxi%20Cabz%20Travels%20In%20Mysore.%20Mysore%20Cab.%20Tempo%20Traveler%20Rent.Bus%20Rent%20Mysore&query_place_id=ChIJVwjEGgx7rzsRgnKMdby3a3I"
  },
  {
    "title": "The Best Cars",
    "categoryName": "Car dealer",
    "address": "Lakshmipuram, Mysuru, Karnataka 570004, India",
    "neighborhood": "Lakshmipuram",
    "city": "Mysuru",
    "state": "Karnataka",
    "countryCode": "IN",
    "location": {
      "lat": 12.298853,
      "lng": 76.6430044
    },
    "permanentlyClosed": false,
    "temporarilyClosed": false,
    "placeId": "ChIJ8QnqCwdwrzsRWVwwfNzlRx0",
    "categories": [
      "Car dealer"
    ],
    "imagesCount": 1,
    "openingHours": [],
    "imageUrl": "https://media.indianluxurycars.com/google/d50404fbcd412843e695bd342f7eefa4f72adc7f498e7d3297825bb94e40c853.jpg",
    "url": "https://www.google.com/maps/search/?api=1&query=The%20Best%20Cars&query_place_id=ChIJ8QnqCwdwrzsRWVwwfNzlRx0"
  },
  {
    "title": "The Carz Galaxy",
    "categoryName": "Car dealer",
    "address": "38/3, 1st Main Rd, Gokulam 1st Stage, Gokulam, Mysuru, Karnataka 570002, India",
    "neighborhood": "Gokulam 1st Stage, Gokulam",
    "street": "38/3, 1st Main Rd",
    "city": "Mysuru",
    "postalCode": "570002",
    "state": "Karnataka",
    "countryCode": "IN",
    "phone": "+919538005351",
    "phoneUnformatted": "+919538005351",
    "location": {
      "lat": 12.329315,
      "lng": 76.6302291
    },
    "totalScore": 3.4,
    "permanentlyClosed": false,
    "temporarilyClosed": false,
    "placeId": "ChIJLweS_YV6rzsR1aL6lg9CMMM",
    "categories": [
      "Car dealer"
    ],
    "reviewsCount": 62,
    "imagesCount": 12,
    "openingHours": [
      {
        "day": "Monday",
        "hours": "8 AM to 8 PM"
      },
      {
        "day": "Tuesday",
        "hours": "8 AM to 8 PM"
      },
      {
        "day": "Wednesday",
        "hours": "8 AM to 8 PM"
      },
      {
        "day": "Thursday",
        "hours": "8 AM to 8 PM"
      },
      {
        "day": "Friday",
        "hours": "8 AM to 8 PM"
      },
      {
        "day": "Saturday",
        "hours": "8 AM to 8 PM"
      },
      {
        "day": "Sunday",
        "hours": "Closed"
      }
    ],
    "imageUrl": "https://media.indianluxurycars.com/google/87ade7b93698eca3a2a69ae46c52cb746acc454d2dacaff5c7e6e7697f8fcc1e.jpg",
    "url": "https://www.google.com/maps/search/?api=1&query=The%20Carz%20Galaxy&query_place_id=ChIJLweS_YV6rzsR1aL6lg9CMMM"
  },
  {
    "title": "The Carz Galaxy Unit 2",
    "categoryName": "Used car dealer",
    "address": "$ 876 /7A, 876/7 ,New No CH -13, CH 13 / A, Vanivilasa Rd, Chamaraja Mohalla, Lakshmipuram, Mysuru, Karnataka 570004, India",
    "neighborhood": "Chamaraja Mohalla, Lakshmipuram",
    "street": "$ 876 /7A, 876/7 ,New No CH -13, CH 13 / A, Vanivilasa Rd",
    "city": "Mysuru",
    "postalCode": "570004",
    "state": "Karnataka",
    "countryCode": "IN",
    "phone": "+919538005351",
    "phoneUnformatted": "+919538005351",
    "location": {
      "lat": 12.2987796,
      "lng": 76.6432911
    },
    "totalScore": 4.7,
    "permanentlyClosed": false,
    "temporarilyClosed": false,
    "placeId": "ChIJfYXVM0ZxrzsRjItDUKzsm40",
    "categories": [
      "Used car dealer",
      "Auto broker"
    ],
    "reviewsCount": 270,
    "imagesCount": 297,
    "openingHours": [
      {
        "day": "Monday",
        "hours": "9 AM to 9 PM"
      },
      {
        "day": "Tuesday",
        "hours": "9 AM to 9 PM"
      },
      {
        "day": "Wednesday",
        "hours": "9 AM to 9 PM"
      },
      {
        "day": "Thursday",
        "hours": "9 AM to 9 PM"
      },
      {
        "day": "Friday",
        "hours": "9 AM to 9 PM"
      },
      {
        "day": "Saturday",
        "hours": "9 AM to 9 PM"
      },
      {
        "day": "Sunday",
        "hours": "10 AM to 5 PM"
      }
    ],
    "imageUrl": "https://media.indianluxurycars.com/google/3221339165e81f123c57ae0daaefb0ffcfc11a6edaf6bddd26863b2b1c47e6b6.jpg",
    "url": "https://www.google.com/maps/search/?api=1&query=The%20Carz%20Galaxy%20Unit%202&query_place_id=ChIJfYXVM0ZxrzsRjItDUKzsm40"
  },
  {
    "title": "Travel Trendzz",
    "categoryName": "Car rental agency",
    "address": "Bangalore - Mysore Rd, opp. Loyal World, beside the Dawn Hotel, Jayalakshmipuram, Bannimantap A Layout, Bannimantap, Mysuru, Karnataka 570015, India",
    "neighborhood": "Jayalakshmipuram, Bannimantap A Layout, Bannimantap",
    "street": "Bangalore - Mysore Rd, opp. Loyal World, beside the Dawn Hotel",
    "city": "Mysuru",
    "postalCode": "570015",
    "state": "Karnataka",
    "countryCode": "IN",
    "website": "http://www.traveltrendzz.com/",
    "phone": "+919845580389",
    "phoneUnformatted": "+919845580389",
    "location": {
      "lat": 12.3417883,
      "lng": 76.6531525
    },
    "totalScore": 4.9,
    "permanentlyClosed": false,
    "temporarilyClosed": false,
    "placeId": "ChIJ163kTBNxrzsROudhv75nj5c",
    "categories": [
      "Car rental agency",
      "Bus tour agency",
      "Tour operator",
      "Pilgrimage place",
      "Sightseeing tour agency",
      "Taxi service",
      "Tour agency",
      "Travel agency"
    ],
    "reviewsCount": 667,
    "imagesCount": 364,
    "openingHours": [
      {
        "day": "Monday",
        "hours": "Open 24 hours"
      },
      {
        "day": "Tuesday",
        "hours": "Open 24 hours"
      },
      {
        "day": "Wednesday",
        "hours": "Open 24 hours"
      },
      {
        "day": "Thursday",
        "hours": "Open 24 hours"
      },
      {
        "day": "Friday",
        "hours": "Open 24 hours"
      },
      {
        "day": "Saturday",
        "hours": "Open 24 hours"
      },
      {
        "day": "Sunday",
        "hours": "Open 24 hours"
      }
    ],
    "imageUrl": "https://media.indianluxurycars.com/google/52685af29f2299b79ad8a3764e68f0275add2225755d74bd18a82d8f0547c99d.jpg",
    "url": "https://www.google.com/maps/search/?api=1&query=Travel%20Trendzz&query_place_id=ChIJ163kTBNxrzsROudhv75nj5c"
  },
  {
    "title": "Travel view Taxi service in Mysore",
    "categoryName": "Car rental agency",
    "address": "Convent road, Lashkar Mohalla, Mandi Mohalla, Mysuru, Karnataka 570001, India",
    "neighborhood": "Lashkar Mohalla, Mandi Mohalla",
    "street": "Convent road",
    "city": "Mysuru",
    "postalCode": "570001",
    "state": "Karnataka",
    "countryCode": "IN",
    "website": "https://sites.google.com/view/travelviewmysore/home",
    "phone": "+917349666866",
    "phoneUnformatted": "+917349666866",
    "location": {
      "lat": 12.3194542,
      "lng": 76.6595846
    },
    "totalScore": 4.9,
    "permanentlyClosed": false,
    "temporarilyClosed": false,
    "placeId": "ChIJyYvX4LlxrzsRCXYFhGK1EXg",
    "categories": [
      "Car rental agency",
      "Car leasing service",
      "Taxi service",
      "Minibus taxi service",
      "Tour agency",
      "Tour operator",
      "Tourist attraction",
      "Tourist information center",
      "Transportation service",
      "Travel agency"
    ],
    "reviewsCount": 84,
    "imagesCount": 26,
    "openingHours": [],
    "imageUrl": "https://media.indianluxurycars.com/google/5dfabe452a8cb77c4f96ec358374c2616021cfb1c8dce13e8354cfe3aaea4619.jpg",
    "url": "https://www.google.com/maps/search/?api=1&query=Travel%20view%20Taxi%20service%20in%20Mysore&query_place_id=ChIJyYvX4LlxrzsRCXYFhGK1EXg"
  },
  {
    "title": "Travelsmart24 TOURS & TRAVELS",
    "categoryName": "Car rental agency",
    "address": "Shop # 3, 4th cross, Star Complex, Bannimantap Rd, in front of ICICI ATM, C Layout, Bannimantap, Mysuru, Karnataka 570015, India",
    "neighborhood": "C Layout, Bannimantap",
    "street": "Shop # 3, 4th cross, Star Complex, Bannimantap Rd, in front of ICICI ATM",
    "city": "Mysuru",
    "postalCode": "570015",
    "state": "Karnataka",
    "countryCode": "IN",
    "website": "http://www.travelsmart24.in/",
    "phone": "+919986833184",
    "phoneUnformatted": "+919986833184",
    "location": {
      "lat": 12.3378182,
      "lng": 76.6521878
    },
    "totalScore": 4.6,
    "permanentlyClosed": false,
    "temporarilyClosed": false,
    "placeId": "ChIJF5GP3YdwrzsRCGw-i5O8cvM",
    "categories": [
      "Car rental agency",
      "Travel agency"
    ],
    "reviewsCount": 20,
    "imagesCount": 7,
    "openingHours": [
      {
        "day": "Monday",
        "hours": "6:30 AM to 11:30 PM"
      },
      {
        "day": "Tuesday",
        "hours": "6:30 AM to 11:30 PM"
      },
      {
        "day": "Wednesday",
        "hours": "6:30 AM to 11:30 PM"
      },
      {
        "day": "Thursday",
        "hours": "6:30 AM to 11:30 PM"
      },
      {
        "day": "Friday",
        "hours": "6:30 AM to 11:30 PM"
      },
      {
        "day": "Saturday",
        "hours": "6:30 AM to 11:30 PM"
      },
      {
        "day": "Sunday",
        "hours": "6:30 AM to 11:30 PM"
      }
    ],
    "imageUrl": "https://media.indianluxurycars.com/google/ead2042c0f25a0c618b7677753b481f4fe3f3e30419a5f528d8ae97f71139280.jpg",
    "url": "https://www.google.com/maps/search/?api=1&query=Travelsmart24%20TOURS%20%26%20TRAVELS&query_place_id=ChIJF5GP3YdwrzsRCGw-i5O8cvM"
  },
  {
    "title": "Vintage tours and travels",
    "subTitle": "ವಿಂಟೇಜ್ ಟೂರ್ಸ್ ಮತ್ತು ಪ್ರವಾಸ",
    "categoryName": "Car rental agency",
    "address": "692, K15, 1st Cross, Thyagaraja Road, KR Mohalla, near Shri Saibaba Mandira, Mysuru, 570004, India",
    "neighborhood": "Agrahara, KR Mohalla",
    "street": "692, K15, 1st Cross, Thyagaraja Road, KR Mohalla, near Shri Saibaba Mandira",
    "city": "Mysuru",
    "postalCode": "570004",
    "state": "Karnataka",
    "countryCode": "IN",
    "phone": "+919972569669",
    "phoneUnformatted": "+919972569669",
    "location": {
      "lat": 12.3010424,
      "lng": 76.6517264
    },
    "totalScore": 4.3,
    "permanentlyClosed": false,
    "temporarilyClosed": false,
    "placeId": "ChIJC_C3QAVwrzsRfzggfxBDrRA",
    "categories": [
      "Car rental agency",
      "Airline ticket agency",
      "Bus ticket agency",
      "Tour agency",
      "Recreational vehicle rental agency",
      "Sightseeing tour agency",
      "Taxi service",
      "Tour operator",
      "Travel agency"
    ],
    "reviewsCount": 21,
    "imagesCount": 4,
    "openingHours": [
      {
        "day": "Monday",
        "hours": "7 AM to 10 PM"
      },
      {
        "day": "Tuesday",
        "hours": "7 AM to 10 PM"
      },
      {
        "day": "Wednesday",
        "hours": "7 AM to 10 PM"
      },
      {
        "day": "Thursday",
        "hours": "7 AM to 10 PM"
      },
      {
        "day": "Friday",
        "hours": "7 AM to 10 PM"
      },
      {
        "day": "Saturday",
        "hours": "7 AM to 10 PM"
      },
      {
        "day": "Sunday",
        "hours": "7 AM to 10 PM"
      }
    ],
    "imageUrl": "https://media.indianluxurycars.com/google/63e9b598f557b7b7e896bb822cb7b99fb8dcf34cea4a8c3beddfa2d5d7cca3e5.jpg",
    "url": "https://www.google.com/maps/search/?api=1&query=Vintage%20tours%20and%20travels&query_place_id=ChIJC_C3QAVwrzsRfzggfxBDrRA"
  }
]
