[
  {
    "title": "Aishwarya Tours and Travels",
    "subTitle": "ऐश्वर्या टूर्स एंड ट्रैवल्स",
    "categoryName": "Car rental agency",
    "address": "Gauri\" plot no.-234, New, Manewada Rd, Balaji Nagar, Rameshwari, Nagpur, Maharashtra 440027, India",
    "neighborhood": "Balaji Nagar, Rameshwari",
    "street": "Gauri\" plot no.-234, New, Manewada Rd",
    "city": "Nagpur",
    "postalCode": "440027",
    "state": "Maharashtra",
    "countryCode": "IN",
    "phone": "+919730756609",
    "phoneUnformatted": "+919730756609",
    "location": {
      "lat": 21.110785,
      "lng": 79.0998305
    },
    "totalScore": 4.8,
    "permanentlyClosed": false,
    "temporarilyClosed": false,
    "placeId": "ChIJ-07Imca_1DsRiTs9ijS3ABY",
    "categories": [
      "Car rental agency",
      "Car leasing service",
      "Tour agency",
      "Taxi service",
      "Travel agency"
    ],
    "reviewsCount": 20,
    "imagesCount": 14,
    "openingHours": [
      {
        "day": "Monday",
        "hours": "Open 24 hours"
      },
      {
        "day": "Tuesday",
        "hours": "Open 24 hours"
      },
      {
        "day": "Wednesday",
        "hours": "Open 24 hours"
      },
      {
        "day": "Thursday",
        "hours": "Open 24 hours"
      },
      {
        "day": "Friday",
        "hours": "Open 24 hours"
      },
      {
        "day": "Saturday",
        "hours": "Open 24 hours"
      },
      {
        "day": "Sunday",
        "hours": "Open 24 hours"
      }
    ],
    "imageUrl": "https://media.indianluxurycars.com/google/0911ed4b32c79a05a54b895cdd4ad772203b7121f0528ed2efbca2b17d47b893.jpg",
    "url": "https://www.google.com/maps/search/?api=1&query=Aishwarya%20Tours%20and%20Travels&query_place_id=ChIJ-07Imca_1DsRiTs9ijS3ABY"
  },
  {
    "title": "Akshay Car & Bus Rental Services",
    "subTitle": "अक्षय कार & बस रेंटल सर्विसेस",
    "categoryName": "Car rental agency",
    "address": "368, Vinkar Vasahat, Manewada, Nagpur, Maharashtra 440027, India",
    "neighborhood": "Vinkar Vasahat, Manewada",
    "street": "368",
    "city": "Nagpur",
    "postalCode": "440027",
    "state": "Maharashtra",
    "countryCode": "IN",
    "website": "https://www.google.com/search?q=Sai+Taj+tours+and+travels&ludocid=2131988654243079171&ibp=gwp;0,7&source=g.page.m.ad",
    "phone": "+919028885503",
    "phoneUnformatted": "+919028885503",
    "location": {
      "lat": 21.1005988,
      "lng": 79.0987334
    },
    "totalScore": 4.9,
    "permanentlyClosed": false,
    "temporarilyClosed": false,
    "placeId": "ChIJO2pua6S_1DsRA2RSoWJYlh0",
    "categories": [
      "Car rental agency",
      "Car leasing service"
    ],
    "reviewsCount": 61,
    "imagesCount": 27,
    "openingHours": [
      {
        "day": "Monday",
        "hours": "Open 24 hours"
      },
      {
        "day": "Tuesday",
        "hours": "Open 24 hours"
      },
      {
        "day": "Wednesday",
        "hours": "Open 24 hours"
      },
      {
        "day": "Thursday",
        "hours": "Open 24 hours"
      },
      {
        "day": "Friday",
        "hours": "Open 24 hours"
      },
      {
        "day": "Saturday",
        "hours": "Open 24 hours"
      },
      {
        "day": "Sunday",
        "hours": "Open 24 hours"
      }
    ],
    "imageUrl": "https://media.indianluxurycars.com/google/9f4f73021934183ccf7eb654fc66a71ef896731dadd6c7ae124fdfc6b35bdad2.jpg",
    "url": "https://www.google.com/maps/search/?api=1&query=Akshay%20Car%20%26%20Bus%20Rental%20Services&query_place_id=ChIJO2pua6S_1DsRA2RSoWJYlh0"
  },
  {
    "title": "Aniket Tours And Travels",
    "subTitle": "अनिकेत टूर्स एंड ट्रैवल्स",
    "categoryName": "Car rental agency",
    "address": "Chinchbhavan, 136 Kachore Colony, Wardha Rd, Kachore Nagar, Nagpur, Maharashtra 441108, India",
    "neighborhood": "Kachore Nagar",
    "street": "Chinchbhavan, 136 Kachore Colony, Wardha Rd",
    "city": "Nagpur",
    "postalCode": "441108",
    "state": "Maharashtra",
    "countryCode": "IN",
    "website": "https://anikettravels.pages.dev/",
    "location": {
      "lat": 21.0670904,
      "lng": 79.0610143
    },
    "totalScore": 5,
    "permanentlyClosed": false,
    "temporarilyClosed": false,
    "placeId": "ChIJk7oAqqy_1DsRL2car1LsKS8",
    "categories": [
      "Car rental agency"
    ],
    "reviewsCount": 14,
    "imagesCount": 1,
    "openingHours": [
      {
        "day": "Monday",
        "hours": "Open 24 hours"
      },
      {
        "day": "Tuesday",
        "hours": "Open 24 hours"
      },
      {
        "day": "Wednesday",
        "hours": "Open 24 hours"
      },
      {
        "day": "Thursday",
        "hours": "Open 24 hours"
      },
      {
        "day": "Friday",
        "hours": "Open 24 hours"
      },
      {
        "day": "Saturday",
        "hours": "Open 24 hours"
      },
      {
        "day": "Sunday",
        "hours": "Open 24 hours"
      }
    ],
    "imageUrl": "https://media.indianluxurycars.com/google/530a816b3e62a8ca453f7cdd380ee5da599cfe68f002a6597ad93966e08abf5d.jpg",
    "url": "https://www.google.com/maps/search/?api=1&query=Aniket%20Tours%20And%20Travels&query_place_id=ChIJk7oAqqy_1DsRL2car1LsKS8"
  },
  {
    "title": "Anita Tours and Travels/Self Drive cars also available",
    "subTitle": "अनीता टूर्स एंड ट्रेवल्स/सेल्फ ड्राइव कार्स अल्सो अवेलेबल",
    "categoryName": "Car rental agency",
    "address": "Shree Ram Dwaar, bajrang chowk shurendraghad, Seminary Hills, Nagpur, Maharashtra 440013, India",
    "neighborhood": "Seminary Hills",
    "street": "Shree Ram Dwaar, bajrang chowk shurendraghad",
    "city": "Nagpur",
    "postalCode": "440013",
    "state": "Maharashtra",
    "countryCode": "IN",
    "phone": "+917058642447",
    "phoneUnformatted": "+917058642447",
    "location": {
      "lat": 21.1710229,
      "lng": 79.0478441
    },
    "totalScore": 4.6,
    "permanentlyClosed": false,
    "temporarilyClosed": false,
    "placeId": "ChIJfz-yiHLB1DsRAqBMHfpZH_k",
    "categories": [
      "Car rental agency",
      "Car leasing service",
      "Taxi service"
    ],
    "reviewsCount": 133,
    "imagesCount": 37,
    "openingHours": [
      {
        "day": "Monday",
        "hours": "Open 24 hours"
      },
      {
        "day": "Tuesday",
        "hours": "Open 24 hours"
      },
      {
        "day": "Wednesday",
        "hours": "Open 24 hours"
      },
      {
        "day": "Thursday",
        "hours": "Open 24 hours"
      },
      {
        "day": "Friday",
        "hours": "Open 24 hours"
      },
      {
        "day": "Saturday",
        "hours": "Open 24 hours"
      },
      {
        "day": "Sunday",
        "hours": "Open 24 hours"
      }
    ],
    "imageUrl": "https://media.indianluxurycars.com/google/da9592eea40e8de3de21e03c82a352521c252876c7054de4fbcbab6f53040f46.jpg",
    "url": "https://www.google.com/maps/search/?api=1&query=Anita%20Tours%20and%20Travels%2FSelf%20Drive%20cars%20also%20available&query_place_id=ChIJfz-yiHLB1DsRAqBMHfpZH_k"
  },
  {
    "title": "ASIAN CAR Exchange",
    "subTitle": "आशियाई कार एक्सचेंज",
    "categoryName": "Used car dealer",
    "address": "Shop no 21, Back Side Of, Mangalwari Complex 1, Sadar, Nagpur, Maharashtra 440001, India",
    "neighborhood": "Sadar",
    "street": "Shop no 21, Back Side Of, Mangalwari Complex 1",
    "city": "Nagpur",
    "postalCode": "440001",
    "state": "Maharashtra",
    "countryCode": "IN",
    "phone": "+918888887749",
    "phoneUnformatted": "+918888887749",
    "location": {
      "lat": 21.1656008,
      "lng": 79.0820104
    },
    "totalScore": 5,
    "permanentlyClosed": false,
    "temporarilyClosed": false,
    "placeId": "ChIJ0bj4EcDA1DsR1FOzbb_Eluk",
    "categories": [
      "Used car dealer",
      "Auto broker",
      "Auto parts store",
      "Car dealer",
      "Car rental agency",
      "Chauffeur service",
      "Motor vehicle dealer",
      "Motorcycle dealer",
      "Taxi service",
      "Tour agency",
      "Travel agency"
    ],
    "reviewsCount": 2,
    "imagesCount": 5,
    "openingHours": [
      {
        "day": "Monday",
        "hours": "11 AM to 8 PM"
      },
      {
        "day": "Tuesday",
        "hours": "11 AM to 8 PM"
      },
      {
        "day": "Wednesday",
        "hours": "11 AM to 8 PM"
      },
      {
        "day": "Thursday",
        "hours": "11 AM to 8 PM"
      },
      {
        "day": "Friday",
        "hours": "11 AM to 8 PM"
      },
      {
        "day": "Saturday",
        "hours": "11 AM to 8 PM"
      },
      {
        "day": "Sunday",
        "hours": "11 AM to 8 PM"
      }
    ],
    "imageUrl": "https://media.indianluxurycars.com/google/2e047d02cfaa4999c15cb01674d13db79826304f985481d1c1ae13835573a0b9.jpg",
    "url": "https://www.google.com/maps/search/?api=1&query=ASIAN%20CAR%20Exchange&query_place_id=ChIJ0bj4EcDA1DsR1FOzbb_Eluk"
  },
  {
    "title": "Auto Avenue | Luxury Car Dealer in Nagpur",
    "subTitle": "ऑटो एवेन्यू | लक्जरी कार डीलर इन नागपुर",
    "categoryName": "Car dealer",
    "address": "Besides Hotel Al Zam Zam, Central Ave, Ladpura, Azam Shah, sq, Nagpur, Maharashtra 440002, India",
    "neighborhood": "Ladpura, Azam Shah, sq",
    "street": "Besides Hotel Al Zam Zam, Central Ave",
    "city": "Nagpur",
    "postalCode": "440002",
    "state": "Maharashtra",
    "countryCode": "IN",
    "phone": "+918888806300",
    "phoneUnformatted": "+918888806300",
    "location": {
      "lat": 21.1493662,
      "lng": 79.1137551
    },
    "totalScore": 5,
    "permanentlyClosed": false,
    "temporarilyClosed": false,
    "placeId": "ChIJkT6VfWPH1DsRwYfHtugCFNc",
    "categories": [
      "Car dealer"
    ],
    "reviewsCount": 15,
    "imagesCount": 73,
    "openingHours": [
      {
        "day": "Monday",
        "hours": "11 AM to 8 PM"
      },
      {
        "day": "Tuesday",
        "hours": "11 AM to 8 PM"
      },
      {
        "day": "Wednesday",
        "hours": "11 AM to 8 PM"
      },
      {
        "day": "Thursday",
        "hours": "11 AM to 8 PM"
      },
      {
        "day": "Friday",
        "hours": "11 AM to 8 PM"
      },
      {
        "day": "Saturday",
        "hours": "11 AM to 8 PM"
      },
      {
        "day": "Sunday",
        "hours": "Closed"
      }
    ],
    "imageUrl": "https://media.indianluxurycars.com/google/adc129280d3c21a9368f3f760027c9a35ea594970b1a7ceec8b0995eaa9e959b.jpg",
    "url": "https://www.google.com/maps/search/?api=1&query=Auto%20Avenue%20%7C%20Luxury%20Car%20Dealer%20in%20Nagpur&query_place_id=ChIJkT6VfWPH1DsRwYfHtugCFNc"
  },
  {
    "title": "AUTODOCK used cars sales and purchase",
    "subTitle": "ऑटोडॉक यूज्ड कार्स सेल्स एंड परचेज",
    "categoryName": "Car dealer",
    "address": "Plot no.41, Mangalmurti square, opposite to Anusaya mangal hall, Rajendra Nagar, Takli Seem, Nagpur, Maharashtra 440036, India",
    "neighborhood": "Rajendra Nagar, Takli Seem",
    "street": "Plot no.41, Mangalmurti square, opposite to Anusaya mangal hall",
    "city": "Nagpur",
    "postalCode": "440036",
    "state": "Maharashtra",
    "countryCode": "IN",
    "phone": "+919766666674",
    "phoneUnformatted": "+919766666674",
    "location": {
      "lat": 21.1180067,
      "lng": 79.033565
    },
    "totalScore": 5,
    "permanentlyClosed": false,
    "temporarilyClosed": false,
    "placeId": "ChIJMyJ5DhW_1DsR7q4rSk_0Spo",
    "categories": [
      "Car dealer"
    ],
    "reviewsCount": 14,
    "imagesCount": 10,
    "openingHours": [
      {
        "day": "Monday",
        "hours": "10 AM to 8 PM"
      },
      {
        "day": "Tuesday",
        "hours": "10 AM to 8 PM"
      },
      {
        "day": "Wednesday",
        "hours": "10 AM to 8 PM"
      },
      {
        "day": "Thursday",
        "hours": "10 AM to 8 PM"
      },
      {
        "day": "Friday",
        "hours": "10 AM to 8 PM"
      },
      {
        "day": "Saturday",
        "hours": "10 AM to 8 PM"
      },
      {
        "day": "Sunday",
        "hours": "Closed"
      }
    ],
    "imageUrl": "https://media.indianluxurycars.com/google/26208b9d535bed658d50259fb8c783e862154ac72f1dd1e056556bf0e8741152.jpg",
    "url": "https://www.google.com/maps/search/?api=1&query=AUTODOCK%20used%20cars%20sales%20and%20purchase&query_place_id=ChIJMyJ5DhW_1DsR7q4rSk_0Spo"
  },
  {
    "title": "Bharat Safar Car Rental Service",
    "subTitle": "भारत सफ़र कार रेंटल सर्विस",
    "categoryName": "Car leasing service",
    "address": "194, Bhide Road, opp. Shree Ganga Apartment, Sitabuldi, Nagpur, Maharashtra 440012, India",
    "neighborhood": "Sitabuldi",
    "street": "194, Bhide Road, opp. Shree Ganga Apartment",
    "city": "Nagpur",
    "postalCode": "440012",
    "state": "Maharashtra",
    "countryCode": "IN",
    "website": "https://www.bharatsafarcarrentalservices.com/",
    "phone": "+917218935970",
    "phoneUnformatted": "+917218935970",
    "location": {
      "lat": 21.1458003,
      "lng": 79.0838407
    },
    "totalScore": 4.8,
    "permanentlyClosed": false,
    "temporarilyClosed": false,
    "placeId": "ChIJP6p2dO7B1DsRXnyNXVvYpn4",
    "categories": [
      "Car leasing service",
      "Car rental agency",
      "Taxi service",
      "Tour agency",
      "Tour operator",
      "Travel agency"
    ],
    "reviewsCount": 32,
    "imagesCount": 187,
    "openingHours": [
      {
        "day": "Monday",
        "hours": "Open 24 hours"
      },
      {
        "day": "Tuesday",
        "hours": "Open 24 hours"
      },
      {
        "day": "Wednesday",
        "hours": "Open 24 hours"
      },
      {
        "day": "Thursday",
        "hours": "Open 24 hours"
      },
      {
        "day": "Friday",
        "hours": "Open 24 hours"
      },
      {
        "day": "Saturday",
        "hours": "Open 24 hours"
      },
      {
        "day": "Sunday",
        "hours": "Open 24 hours"
      }
    ],
    "imageUrl": "https://media.indianluxurycars.com/google/d6cfdbc837644f889ec77a4855d3840b9010e3c2f064971b61ab3636f584102f.jpg",
    "url": "https://www.google.com/maps/search/?api=1&query=Bharat%20Safar%20Car%20Rental%20Service&query_place_id=ChIJP6p2dO7B1DsRXnyNXVvYpn4"
  },
  {
    "title": "Bharat Safar Car Rental Service",
    "subTitle": "भारत सफ़र कार रेंटल सर्विस",
    "categoryName": "Car rental agency",
    "address": "Plot No. 226, near Hanuman Mandir, Chandan Nagar, Nagpur, Maharashtra 440024, India",
    "neighborhood": "Chandan Nagar",
    "street": "Plot No. 226, near Hanuman Mandir",
    "city": "Nagpur",
    "postalCode": "440024",
    "state": "Maharashtra",
    "countryCode": "IN",
    "website": "https://www.bharatsafarcarrentalservices.com/",
    "phone": "+918055811112",
    "phoneUnformatted": "+918055811112",
    "location": {
      "lat": 21.1324066,
      "lng": 79.1034669
    },
    "totalScore": 4.9,
    "permanentlyClosed": false,
    "temporarilyClosed": false,
    "placeId": "ChIJC4MbzYF2E00RfffqVOacUCY",
    "categories": [
      "Car rental agency",
      "Bus tour agency",
      "Car leasing service",
      "Taxi service",
      "Tour agency",
      "Tour operator",
      "Travel agency"
    ],
    "reviewsCount": 211,
    "imagesCount": 386,
    "openingHours": [
      {
        "day": "Monday",
        "hours": "Open 24 hours"
      },
      {
        "day": "Tuesday",
        "hours": "Open 24 hours"
      },
      {
        "day": "Wednesday",
        "hours": "Open 24 hours"
      },
      {
        "day": "Thursday",
        "hours": "Open 24 hours"
      },
      {
        "day": "Friday",
        "hours": "Open 24 hours"
      },
      {
        "day": "Saturday",
        "hours": "Open 24 hours"
      },
      {
        "day": "Sunday",
        "hours": "Open 24 hours"
      }
    ],
    "imageUrl": "https://media.indianluxurycars.com/google/d6cfdbc837644f889ec77a4855d3840b9010e3c2f064971b61ab3636f584102f.jpg",
    "url": "https://www.google.com/maps/search/?api=1&query=Bharat%20Safar%20Car%20Rental%20Service&query_place_id=ChIJC4MbzYF2E00RfffqVOacUCY"
  },
  {
    "title": "Bombay Car Link",
    "subTitle": "मुंबई कार लिंक",
    "categoryName": "Car accessories store",
    "address": "C-14, Anjuman Complex, Sadar, Nagpur, Maharashtra 440001, India",
    "neighborhood": "Sadar",
    "street": "C-14, Anjuman Complex",
    "city": "Nagpur",
    "postalCode": "440001",
    "state": "Maharashtra",
    "countryCode": "IN",
    "phone": "+919822204888",
    "phoneUnformatted": "+919822204888",
    "location": {
      "lat": 21.16412,
      "lng": 79.0808498
    },
    "totalScore": 4.3,
    "permanentlyClosed": false,
    "temporarilyClosed": false,
    "placeId": "ChIJ7a8e2-PA1DsRCOPJgfTgMIM",
    "categories": [
      "Car accessories store",
      "Auto parts store",
      "Car stereo store"
    ],
    "reviewsCount": 137,
    "imagesCount": 23,
    "openingHours": [
      {
        "day": "Monday",
        "hours": "11 AM to 9 PM"
      },
      {
        "day": "Tuesday",
        "hours": "11 AM to 9 PM"
      },
      {
        "day": "Wednesday",
        "hours": "11 AM to 9 PM"
      },
      {
        "day": "Thursday",
        "hours": "11 AM to 9 PM"
      },
      {
        "day": "Friday",
        "hours": "11 AM to 9 PM"
      },
      {
        "day": "Saturday",
        "hours": "11 AM to 9 PM"
      },
      {
        "day": "Sunday",
        "hours": "11:30 AM to 5 PM"
      }
    ],
    "imageUrl": "https://media.indianluxurycars.com/google/e470e1effcdf8aa0dbf7a825c5e167f30777799b5f306314a0bef73c47a2845a.jpg",
    "url": "https://www.google.com/maps/search/?api=1&query=Bombay%20Car%20Link&query_place_id=ChIJ7a8e2-PA1DsRCOPJgfTgMIM"
  },
  {
    "title": "Capital Cars",
    "subTitle": "कॅपिटल कार्स",
    "categoryName": "Used car dealer",
    "address": "542F+RV6, Parekh Rd, Near Lakadganj Garden, Lakadganj, Nagpur, Maharashtra 440008, India",
    "neighborhood": "Near Lakadganj Garden, Lakadganj",
    "street": "542F+RV6, Parekh Rd",
    "city": "Nagpur",
    "postalCode": "440008",
    "state": "Maharashtra",
    "countryCode": "IN",
    "website": "https://capitalcar.in/",
    "phone": "+919970070070",
    "phoneUnformatted": "+919970070070",
    "location": {
      "lat": 21.1520609,
      "lng": 79.1246434
    },
    "totalScore": 4.2,
    "permanentlyClosed": false,
    "temporarilyClosed": false,
    "placeId": "ChIJnzrhxMDH1DsRdPpmDabY-u4",
    "categories": [
      "Used car dealer",
      "Consignment shop"
    ],
    "reviewsCount": 35,
    "imagesCount": 249,
    "openingHours": [
      {
        "day": "Monday",
        "hours": "10:30 AM to 8 PM"
      },
      {
        "day": "Tuesday",
        "hours": "10:30 AM to 8 PM"
      },
      {
        "day": "Wednesday",
        "hours": "10:30 AM to 8 PM"
      },
      {
        "day": "Thursday",
        "hours": "10:30 AM to 8 PM"
      },
      {
        "day": "Friday",
        "hours": "10:30 AM to 8 PM"
      },
      {
        "day": "Saturday",
        "hours": "10:30 AM to 7:30 PM"
      },
      {
        "day": "Sunday",
        "hours": "Closed"
      }
    ],
    "imageUrl": "https://media.indianluxurycars.com/google/722ab51c7e45c60b188ed310d3ea288d1a3342feff8512d078172fb0bff5d5df.jpg",
    "url": "https://www.google.com/maps/search/?api=1&query=Capital%20Cars&query_place_id=ChIJnzrhxMDH1DsRdPpmDabY-u4"
  },
  {
    "title": "Car Gallery",
    "subTitle": "कार गॅलरी",
    "categoryName": "Car dealer",
    "address": "4, Great Nag Rd, Sitabuldi, Nagpur, Maharashtra 440018, India",
    "neighborhood": "Sitabuldi",
    "street": "4, Great Nag Rd",
    "city": "Nagpur",
    "postalCode": "440018",
    "state": "Maharashtra",
    "countryCode": "IN",
    "website": "https://www.cargallery.co.in/",
    "phone": "+919422108473",
    "phoneUnformatted": "+919422108473",
    "location": {
      "lat": 21.1382294,
      "lng": 79.0893999
    },
    "totalScore": 3.4,
    "permanentlyClosed": false,
    "temporarilyClosed": false,
    "placeId": "ChIJzyq8XrzA1DsRASWQlz72obI",
    "categories": [
      "Car dealer"
    ],
    "reviewsCount": 64,
    "imagesCount": 12,
    "openingHours": [
      {
        "day": "Monday",
        "hours": "11 AM to 8 PM"
      },
      {
        "day": "Tuesday",
        "hours": "11 AM to 8 PM"
      },
      {
        "day": "Wednesday",
        "hours": "11 AM to 8 PM"
      },
      {
        "day": "Thursday",
        "hours": "11 AM to 8 PM"
      },
      {
        "day": "Friday",
        "hours": "11 AM to 8 PM"
      },
      {
        "day": "Saturday",
        "hours": "11 AM to 8 PM"
      },
      {
        "day": "Sunday",
        "hours": "12 to 2 PM"
      }
    ],
    "imageUrl": "https://media.indianluxurycars.com/google/2fe78f2dec4501c5771b4926100ea452231035cf0c0285275f9910a93c953bb3.jpg",
    "url": "https://www.google.com/maps/search/?api=1&query=Car%20Gallery&query_place_id=ChIJzyq8XrzA1DsRASWQlz72obI"
  },
  {
    "title": "Car Seva",
    "subTitle": "कार सेवा",
    "categoryName": "Car stereo store",
    "address": "Shop no.2 ,Opposite sai baba mandir,wardha Road, Nagpur, Maharashtra 440015, India",
    "neighborhood": "Near Sai Mandir",
    "street": "Shop no.2 ,Opposite sai baba mandir,wardha Road",
    "city": "Nagpur",
    "postalCode": "440015",
    "state": "Maharashtra",
    "countryCode": "IN",
    "website": "https://jsdl.in/DT-45RLC26S",
    "phone": "+919422880404",
    "phoneUnformatted": "+919422880404",
    "location": {
      "lat": 21.1131153,
      "lng": 79.0710412
    },
    "totalScore": 4.9,
    "permanentlyClosed": false,
    "temporarilyClosed": false,
    "placeId": "ChIJQcv76Hu_1DsRRZiLq5hGWKE",
    "categories": [
      "Car stereo store"
    ],
    "reviewsCount": 151,
    "imagesCount": 188,
    "openingHours": [
      {
        "day": "Monday",
        "hours": "10:30 AM to 8 PM"
      },
      {
        "day": "Tuesday",
        "hours": "10:30 AM to 8 PM"
      },
      {
        "day": "Wednesday",
        "hours": "10:30 AM to 8 PM"
      },
      {
        "day": "Thursday",
        "hours": "10:30 AM to 8 PM"
      },
      {
        "day": "Friday",
        "hours": "10:30 AM to 8 PM"
      },
      {
        "day": "Saturday",
        "hours": "10:30 AM to 8 PM"
      },
      {
        "day": "Sunday",
        "hours": "10:30 AM to 3 PM"
      }
    ],
    "imageUrl": "https://media.indianluxurycars.com/google/04659879f1ab6f1761b168049722d423d055efae181965d4fe3db0fecc20a722.jpg",
    "url": "https://www.google.com/maps/search/?api=1&query=Car%20Seva&query_place_id=ChIJQcv76Hu_1DsRRZiLq5hGWKE"
  },
  {
    "title": "CARS24 - Sell Used Cars in Pratap Nagar, Nagpur",
    "subTitle": "कार्स24 - सेल यूज्ड कार्स इन प्रताप नगर, नागपुर",
    "categoryName": "Used car dealer",
    "address": "Phase 2, Shashtri Nagar, Nagpur, Maharashtra 440008, India",
    "neighborhood": "Phase 2, Shashtri Nagar",
    "city": "Nagpur",
    "postalCode": "440008",
    "state": "Maharashtra",
    "countryCode": "IN",
    "website": "https://www.cars24.com/",
    "phone": "+918929506672",
    "phoneUnformatted": "+918929506672",
    "location": {
      "lat": 21.1447427,
      "lng": 79.1295671
    },
    "totalScore": 4,
    "permanentlyClosed": false,
    "temporarilyClosed": false,
    "placeId": "ChIJoYW4_qPH1DsRY-c-gEhYuuI",
    "categories": [
      "Used car dealer",
      "BMW dealer",
      "Car finance and loan company",
      "Honda dealer",
      "Hyundai dealer",
      "Jeep dealer",
      "Kia dealer",
      "Skoda dealer",
      "Tata Motors dealer",
      "Toyota dealer"
    ],
    "reviewsCount": 218,
    "imagesCount": 132,
    "openingHours": [
      {
        "day": "Monday",
        "hours": "9:30 AM to 6:30 PM"
      },
      {
        "day": "Tuesday",
        "hours": "9:30 AM to 6:30 PM"
      },
      {
        "day": "Wednesday",
        "hours": "9:30 AM to 6:30 PM"
      },
      {
        "day": "Thursday",
        "hours": "9:30 AM to 6:30 PM"
      },
      {
        "day": "Friday",
        "hours": "9:30 AM to 6:30 PM"
      },
      {
        "day": "Saturday",
        "hours": "9:30 AM to 6:30 PM"
      },
      {
        "day": "Sunday",
        "hours": "9:30 AM to 6:30 PM"
      }
    ],
    "imageUrl": "https://media.indianluxurycars.com/google/31406904753332a108d25fb609e4fba05b5a49b213fc0a3c4239a0b4ea218a51.jpg",
    "url": "https://www.google.com/maps/search/?api=1&query=CARS24%20-%20Sell%20Used%20Cars%20in%20Pratap%20Nagar%2C%20Nagpur&query_place_id=ChIJoYW4_qPH1DsRY-c-gEhYuuI"
  },
  {
    "title": "Carsonics",
    "subTitle": "कॅर्सोनिच्स",
    "categoryName": "Car dealer",
    "address": "Shop No.7, Bannerji Marg, Wardha Rd, Opposite Hotel Sunny International, Godhni, Dhantoli, Nagpur, Maharashtra 440012, India",
    "neighborhood": "Godhni, Dhantoli",
    "street": "Shop No.7, Bannerji Marg, Wardha Rd, Opposite Hotel Sunny International",
    "city": "Nagpur",
    "postalCode": "440012",
    "state": "Maharashtra",
    "countryCode": "IN",
    "website": "http://www.carsonics.in/",
    "phone": "+919373888881",
    "phoneUnformatted": "+919373888881",
    "location": {
      "lat": 21.1376896,
      "lng": 79.0795859
    },
    "totalScore": 4.8,
    "permanentlyClosed": false,
    "temporarilyClosed": false,
    "placeId": "ChIJizbkh3m_1DsRNy8_k0VBA3s",
    "categories": [
      "Car dealer",
      "Auto parts store",
      "Car repair and maintenance service"
    ],
    "reviewsCount": 22,
    "imagesCount": 16,
    "openingHours": [
      {
        "day": "Monday",
        "hours": "10 AM to 7 PM"
      },
      {
        "day": "Tuesday",
        "hours": "10 AM to 7 PM"
      },
      {
        "day": "Wednesday",
        "hours": "10 AM to 7 PM"
      },
      {
        "day": "Thursday",
        "hours": "10 AM to 7 PM"
      },
      {
        "day": "Friday",
        "hours": "10 AM to 7 PM"
      },
      {
        "day": "Saturday",
        "hours": "10 AM to 6 PM"
      },
      {
        "day": "Sunday",
        "hours": "Closed"
      }
    ],
    "imageUrl": "https://media.indianluxurycars.com/google/e9570941dfa03bd3c53d6363cb146fbbc786abd4b256257ab3530b31cb96a5e0.jpg",
    "url": "https://www.google.com/maps/search/?api=1&query=Carsonics&query_place_id=ChIJizbkh3m_1DsRNy8_k0VBA3s"
  },
  {
    "title": "CarzSpa - Car Detailing, PPF and Ceramic Coating Studio, Nagpur",
    "subTitle": "कार्ज स्पा - कार डिटेलिंग, पीपीएफ एंड सेरेमिक कोटिंग स्टूडियो, नागपुर",
    "categoryName": "Car detailing service",
    "address": "Plot No 61-62, Vikas Tower, Bhandara Rd, beside Shri Ramdeobaba Rukminidevi Memorial Hospital, Small Factory Area, Lakadganj, Nagpur, Maharashtra 440008, India",
    "neighborhood": "Small Factory Area, Lakadganj",
    "street": "Plot No 61-62, Vikas Tower, Bhandara Rd, beside Shri Ramdeobaba Rukminidevi Memorial Hospital",
    "city": "Nagpur",
    "postalCode": "440008",
    "state": "Maharashtra",
    "countryCode": "IN",
    "website": "https://studios.carzspa.com/carzspa/nagpur/lakadganj/carzspa-in-lakadganj-nagpur--07cda7e9-f66b-47ca-b8ac-f0b15aca4c35/home",
    "phone": "+918037759688",
    "phoneUnformatted": "+918037759688",
    "location": {
      "lat": 21.1520004,
      "lng": 79.1338109
    },
    "totalScore": 4.9,
    "permanentlyClosed": false,
    "temporarilyClosed": false,
    "placeId": "ChIJQYCtPirH1DsRju6VFZ7E-hU",
    "categories": [
      "Car detailing service",
      "Auto restoration service",
      "Auto window tinting service",
      "Bike wash",
      "Car wash",
      "Vehicle wrapping service"
    ],
    "reviewsCount": 189,
    "imagesCount": 267,
    "openingHours": [
      {
        "day": "Monday",
        "hours": "11 AM to 8 PM"
      },
      {
        "day": "Tuesday",
        "hours": "11 AM to 8 PM"
      },
      {
        "day": "Wednesday",
        "hours": "11 AM to 8 PM"
      },
      {
        "day": "Thursday",
        "hours": "11 AM to 8 PM"
      },
      {
        "day": "Friday",
        "hours": "11 AM to 8 PM"
      },
      {
        "day": "Saturday",
        "hours": "11 AM to 8 PM"
      },
      {
        "day": "Sunday",
        "hours": "Closed"
      }
    ],
    "imageUrl": "https://media.indianluxurycars.com/google/d756e173d6fc6a7444b38af3dec9936ec86d9327a13d2490d35c71c83f9481c8.jpg",
    "url": "https://www.google.com/maps/search/?api=1&query=CarzSpa%20-%20Car%20Detailing%2C%20PPF%20and%20Ceramic%20Coating%20Studio%2C%20Nagpur&query_place_id=ChIJQYCtPirH1DsRju6VFZ7E-hU"
  },
  {
    "title": "Chalpe Car Rental Services | Car Rental Nagpur | Taxi Service In Nagpur | Car Rental for Outstation | Cab Service In Nagpur",
    "subTitle": "चलपे कार रेंटल",
    "categoryName": "Car rental agency",
    "address": "Plot no. 231, opposite chatrapati hall, near peshwe tution classes, Ring Road, Chatrapati Nagar, Nagpur, Maharashtra 440015, India",
    "neighborhood": "Ring Road, Chatrapati Nagar",
    "street": "Plot no. 231, opposite chatrapati hall, near peshwe tution classes",
    "city": "Nagpur",
    "postalCode": "440015",
    "state": "Maharashtra",
    "countryCode": "IN",
    "website": "https://www.chalpecarrentalnagpur.com/",
    "phone": "+918788880219",
    "phoneUnformatted": "+918788880219",
    "location": {
      "lat": 21.1111664,
      "lng": 79.074112
    },
    "totalScore": 4.9,
    "permanentlyClosed": false,
    "temporarilyClosed": false,
    "placeId": "ChIJMVoHfQq_1DsReRHbLet61To",
    "categories": [
      "Car rental agency",
      "Car leasing service",
      "Taxi service",
      "Motoring club"
    ],
    "reviewsCount": 623,
    "imagesCount": 570,
    "openingHours": [],
    "imageUrl": "https://media.indianluxurycars.com/google/7269c191c0ae09b7cf301d6de2971ead7d6839dda2eb728682182608839684f0.jpg",
    "url": "https://www.google.com/maps/search/?api=1&query=Chalpe%20Car%20Rental%20Services%20%7C%20Car%20Rental%20Nagpur%20%7C%20Taxi%20Service%20In%20Nagpur%20%7C%20Car%20Rental%20for%20Outstation%20%7C%20Cab%20Service%20In%20Nagpur&query_place_id=ChIJMVoHfQq_1DsReRHbLet61To"
  },
  {
    "title": "Chaudhari Tours & Travels | Car Rental | Airport taxi | Car Rental For Outstation| Traveller Hire | Taxi Service In Nagpur",
    "subTitle": "चौधरी टूर्स & ट्रैवल्स | कार रेंटल | एयरपोर्ट टैक्सी | कार रेंटल फॉर आउटस्टेशन| ट्रैवलर हीरे | टैक्सी सर्विस इन नागपुर",
    "categoryName": "Car rental agency",
    "address": "shop 1 & 2, Ira Apartment, Khamla Rd, Sahakar Nagar, Nagpur, Maharashtra 440025, India",
    "neighborhood": "Sahakar Nagar",
    "street": "shop 1 & 2, Ira Apartment, Khamla Rd",
    "city": "Nagpur",
    "postalCode": "440025",
    "state": "Maharashtra",
    "countryCode": "IN",
    "website": "https://chaudharitravels.in/",
    "location": {
      "lat": 21.1021517,
      "lng": 79.0561042
    },
    "totalScore": 4.9,
    "permanentlyClosed": false,
    "temporarilyClosed": false,
    "placeId": "ChIJL_pTzZe_1DsRme70cEnlhjk",
    "categories": [
      "Car rental agency",
      "Bus tour agency",
      "Car leasing service",
      "Taxi service",
      "Tour operator"
    ],
    "reviewsCount": 74,
    "imagesCount": 3,
    "openingHours": [
      {
        "day": "Monday",
        "hours": "10 AM to 10 PM"
      },
      {
        "day": "Tuesday",
        "hours": "10 AM to 10 PM"
      },
      {
        "day": "Wednesday",
        "hours": "10 AM to 10 PM"
      },
      {
        "day": "Thursday",
        "hours": "10 AM to 10 PM"
      },
      {
        "day": "Friday",
        "hours": "10 AM to 10 PM"
      },
      {
        "day": "Saturday",
        "hours": "10 AM to 10 PM"
      },
      {
        "day": "Sunday",
        "hours": "10 AM to 10 PM"
      }
    ],
    "imageUrl": "https://media.indianluxurycars.com/google/f3cba078b57c3852b2caf24a7ee15c699dd4150e5b4dab4423073385ee49cf9d.jpg",
    "url": "https://www.google.com/maps/search/?api=1&query=Chaudhari%20Tours%20%26%20Travels%20%7C%20Car%20Rental%20%7C%20Airport%20taxi%20%7C%20Car%20Rental%20For%20Outstation%7C%20Traveller%20Hire%20%7C%20Taxi%20Service%20In%20Nagpur&query_place_id=ChIJL_pTzZe_1DsRme70cEnlhjk"
  },
  {
    "title": "City Car's Deal",
    "subTitle": "सिटी कार'स डील",
    "categoryName": "Used car dealer",
    "address": "103, Bapu Nagar, Nandanvan, Nagpur, Maharashtra 440024, India",
    "neighborhood": "Bapu Nagar, Nandanvan",
    "street": "103",
    "city": "Nagpur",
    "postalCode": "440024",
    "state": "Maharashtra",
    "countryCode": "IN",
    "phone": "+919922980019",
    "phoneUnformatted": "+919922980019",
    "location": {
      "lat": 21.1242327,
      "lng": 79.1217504
    },
    "totalScore": 4.9,
    "permanentlyClosed": false,
    "temporarilyClosed": false,
    "placeId": "ChIJgUfIhWrH1DsRyiCm2Iawpjw",
    "categories": [
      "Used car dealer"
    ],
    "reviewsCount": 156,
    "imagesCount": 111,
    "openingHours": [],
    "imageUrl": "https://media.indianluxurycars.com/google/4e5587960c7ae3f87abb2b77eda5c160e7712fd03329ec8e67d7740f0401f0d1.jpg",
    "url": "https://www.google.com/maps/search/?api=1&query=City%20Car's%20Deal&query_place_id=ChIJgUfIhWrH1DsRyiCm2Iawpjw"
  },
  {
    "title": "Class X Autos",
    "subTitle": "क्लास ऍक्स ऑटो",
    "categoryName": "Used car dealer",
    "address": "Chamber No.3, Bhaskar Sabhagruha, Plot No.13, Amravati Rd, beside Icon Hospital, Bharatnagar, Nagpur, Maharashtra 440033, India",
    "neighborhood": "Bharatnagar",
    "street": "Chamber No.3, Bhaskar Sabhagruha, Plot No.13, Amravati Rd, beside Icon Hospital",
    "city": "Nagpur",
    "postalCode": "440033",
    "state": "Maharashtra",
    "countryCode": "IN",
    "website": "https://classxautos.in/",
    "phone": "+919225664444",
    "phoneUnformatted": "+919225664444",
    "location": {
      "lat": 21.1482453,
      "lng": 79.050598
    },
    "totalScore": 4.9,
    "permanentlyClosed": false,
    "temporarilyClosed": false,
    "placeId": "ChIJkfIsvIe_1DsRS9iLzUlIXQo",
    "categories": [
      "Used car dealer"
    ],
    "reviewsCount": 22,
    "imagesCount": 135,
    "openingHours": [
      {
        "day": "Monday",
        "hours": "11 AM to 8 PM"
      },
      {
        "day": "Tuesday",
        "hours": "11 AM to 8 PM"
      },
      {
        "day": "Wednesday",
        "hours": "11 AM to 8 PM"
      },
      {
        "day": "Thursday",
        "hours": "11 AM to 8 PM"
      },
      {
        "day": "Friday",
        "hours": "11 AM to 8 PM"
      },
      {
        "day": "Saturday",
        "hours": "11 AM to 8 PM"
      },
      {
        "day": "Sunday",
        "hours": "1 to 4 PM"
      }
    ],
    "imageUrl": "https://media.indianluxurycars.com/google/8879115760ffc9ae7397fc70291b5a51252483fd9dd85c99642ead1fa6fdd89b.jpg",
    "url": "https://www.google.com/maps/search/?api=1&query=Class%20X%20Autos&query_place_id=ChIJkfIsvIe_1DsRS9iLzUlIXQo"
  },
  {
    "title": "Classic Car's Sale & purchase",
    "subTitle": "क्लासिक कार'स सेल & परचेज",
    "categoryName": "Car dealer",
    "address": "Gorewada Rd, Manjidana Colony, Nagpur, Maharashtra 440013, India",
    "neighborhood": "Manjidana Colony",
    "street": "Gorewada Rd",
    "city": "Nagpur",
    "postalCode": "440013",
    "state": "Maharashtra",
    "countryCode": "IN",
    "location": {
      "lat": 21.1860067,
      "lng": 79.0500852
    },
    "totalScore": 1,
    "permanentlyClosed": false,
    "temporarilyClosed": false,
    "placeId": "ChIJfzUC-y_B1DsRUvl7ErEnUH0",
    "categories": [
      "Car dealer"
    ],
    "reviewsCount": 1,
    "imagesCount": 6,
    "openingHours": [],
    "imageUrl": "https://media.indianluxurycars.com/google/e0314443eaf2402660120f02f82d1b73f61170d626bf80997889063d9b66746a.jpg",
    "url": "https://www.google.com/maps/search/?api=1&query=Classic%20Car's%20Sale%20%26%20purchase&query_place_id=ChIJfzUC-y_B1DsRUvl7ErEnUH0"
  },
  {
    "title": "Creative Car Care",
    "subTitle": "क्रिएटिव्ह कार केअर",
    "categoryName": "Used car dealer",
    "address": "Kamal Keshav Business Plaza, Farmland Rd, Ramdaspeth, Nagpur, Maharashtra 440010, India",
    "neighborhood": "Ramdaspeth",
    "street": "Kamal Keshav Business Plaza, Farmland Rd",
    "city": "Nagpur",
    "postalCode": "440010",
    "state": "Maharashtra",
    "countryCode": "IN",
    "phone": "+919890004400",
    "phoneUnformatted": "+919890004400",
    "location": {
      "lat": 21.1347375,
      "lng": 79.0774365
    },
    "totalScore": 5,
    "permanentlyClosed": false,
    "temporarilyClosed": false,
    "placeId": "ChIJWQ6IwGLA1DsRI6wxkSpVzN8",
    "categories": [
      "Used car dealer",
      "Parking lot"
    ],
    "reviewsCount": 3,
    "imagesCount": 22,
    "openingHours": [
      {
        "day": "Monday",
        "hours": "11:30 AM to 5 PM"
      },
      {
        "day": "Tuesday",
        "hours": "11:30 AM to 5 PM"
      },
      {
        "day": "Wednesday",
        "hours": "11:30 AM to 5 PM"
      },
      {
        "day": "Thursday",
        "hours": "11:30 AM to 5 PM"
      },
      {
        "day": "Friday",
        "hours": "Closed"
      },
      {
        "day": "Saturday",
        "hours": "Closed"
      },
      {
        "day": "Sunday",
        "hours": "Closed"
      }
    ],
    "imageUrl": "https://media.indianluxurycars.com/google/658bb817c486cdfa087f64c8d5ef90e2b93f4af5c9116924c85909278a94cea1.jpg",
    "url": "https://www.google.com/maps/search/?api=1&query=Creative%20Car%20Care&query_place_id=ChIJWQ6IwGLA1DsRI6wxkSpVzN8"
  },
  {
    "title": "Credence Cars",
    "subTitle": "क्रेडेंस कार्स",
    "categoryName": "Used car dealer",
    "address": "Plot no 1, gopal krishna lawn, Symbiosis College Rd, Ramkrishna Nagar, Wathoda Layout, Nagpur, Maharashtra 440034, India",
    "neighborhood": "Ramkrishna Nagar, Wathoda Layout",
    "street": "Plot no 1, gopal krishna lawn, Symbiosis College Rd",
    "city": "Nagpur",
    "postalCode": "440034",
    "state": "Maharashtra",
    "countryCode": "IN",
    "phone": "+917447444227",
    "phoneUnformatted": "+917447444227",
    "location": {
      "lat": 21.1302882,
      "lng": 79.1466162
    },
    "totalScore": 4.5,
    "permanentlyClosed": false,
    "temporarilyClosed": false,
    "placeId": "ChIJ64j4DWnH1DsRH7mz_opVKtA",
    "categories": [
      "Used car dealer"
    ],
    "reviewsCount": 53,
    "imagesCount": 35,
    "openingHours": [
      {
        "day": "Monday",
        "hours": "11 AM to 8:30 PM"
      },
      {
        "day": "Tuesday",
        "hours": "11 AM to 8:30 PM"
      },
      {
        "day": "Wednesday",
        "hours": "11 AM to 8:30 PM"
      },
      {
        "day": "Thursday",
        "hours": "11 AM to 8:30 PM"
      },
      {
        "day": "Friday",
        "hours": "11 AM to 8:30 PM"
      },
      {
        "day": "Saturday",
        "hours": "11 AM to 8:30 PM"
      },
      {
        "day": "Sunday",
        "hours": "Closed"
      }
    ],
    "imageUrl": "https://media.indianluxurycars.com/google/8cca8cffeeb5a1fae6754fde2e218beb021810d12c7eaeae35c1de4ae2e71690.jpg",
    "url": "https://www.google.com/maps/search/?api=1&query=Credence%20Cars&query_place_id=ChIJ64j4DWnH1DsRH7mz_opVKtA"
  },
  {
    "title": "D S Luxury Car Rental",
    "subTitle": "डि एस् लक्जरी कार रेंटल",
    "categoryName": "Car rental agency",
    "address": "Wardha Rd, beside DS Automotive, near Airport Flyover, Chichbhawan, Busstop, Nagpur, Maharashtra 440015, India",
    "neighborhood": "Chichbhawan, Busstop",
    "street": "Wardha Rd, beside DS Automotive, near Airport Flyover",
    "city": "Nagpur",
    "postalCode": "440015",
    "state": "Maharashtra",
    "countryCode": "IN",
    "location": {
      "lat": 21.1100283,
      "lng": 79.0697846
    },
    "permanentlyClosed": false,
    "temporarilyClosed": false,
    "placeId": "ChIJj2qrjHm_1DsRwuDU-sp4yyM",
    "categories": [
      "Car rental agency"
    ],
    "imagesCount": 1,
    "openingHours": [],
    "imageUrl": "https://media.indianluxurycars.com/google/be1055f386ac55c141fdbf021cd81e98c1b0a5ea212623ad2a5ddad29af9b444.jpg",
    "url": "https://www.google.com/maps/search/?api=1&query=D%20S%20Luxury%20Car%20Rental&query_place_id=ChIJj2qrjHm_1DsRwuDU-sp4yyM"
  },
  {
    "title": "DIAMOND CARS",
    "subTitle": "डायमंड कार्स",
    "categoryName": "Car dealer",
    "address": "automatic square, Nagpur, Maharashtra 440026, India",
    "street": "automatic square",
    "city": "Nagpur",
    "postalCode": "440026",
    "state": "Maharashtra",
    "countryCode": "IN",
    "location": {
      "lat": 21.181225,
      "lng": 79.1130068
    },
    "totalScore": 5,
    "permanentlyClosed": false,
    "temporarilyClosed": false,
    "placeId": "ChIJxXx27Y7H1DsR8XGcelIGL90",
    "categories": [
      "Car dealer"
    ],
    "reviewsCount": 1,
    "imagesCount": 33,
    "openingHours": [],
    "imageUrl": "https://media.indianluxurycars.com/google/4fda658094d77e752d330fea3272f4b8f9e6bf3dcba719c46dba097640bb4afb.jpg",
    "url": "https://www.google.com/maps/search/?api=1&query=DIAMOND%20CARS&query_place_id=ChIJxXx27Y7H1DsR8XGcelIGL90"
  },
  {
    "title": "Dream Cars Nagpur",
    "subTitle": "ड्रीम कार्स नागपूर",
    "categoryName": "Used car dealer",
    "address": "31, Kharbi Rd, New Diamond Nagar, Sahakar Nagar, Kharbi, Nagpur, Maharashtra 440024, India",
    "neighborhood": "New Diamond Nagar, Sahakar Nagar, Kharbi",
    "street": "31, Kharbi Rd",
    "city": "Nagpur",
    "postalCode": "440024",
    "state": "Maharashtra",
    "countryCode": "IN",
    "website": "https://bit.ly/4hgYkxU",
    "phone": "+919860380001",
    "phoneUnformatted": "+919860380001",
    "location": {
      "lat": 21.1253832,
      "lng": 79.1392978
    },
    "totalScore": 4,
    "permanentlyClosed": false,
    "temporarilyClosed": false,
    "placeId": "ChIJe7x37nzA1DsRc_M93tLAgto",
    "categories": [
      "Used car dealer"
    ],
    "reviewsCount": 56,
    "imagesCount": 429,
    "openingHours": [
      {
        "day": "Monday",
        "hours": "10 AM to 8 PM"
      },
      {
        "day": "Tuesday",
        "hours": "10 AM to 8 PM"
      },
      {
        "day": "Wednesday",
        "hours": "10 AM to 8 PM"
      },
      {
        "day": "Thursday",
        "hours": "10 AM to 8 PM"
      },
      {
        "day": "Friday",
        "hours": "10 AM to 8 PM"
      },
      {
        "day": "Saturday",
        "hours": "10 AM to 8 PM"
      },
      {
        "day": "Sunday",
        "hours": "Closed"
      }
    ],
    "imageUrl": "https://media.indianluxurycars.com/google/44f7045f5d3ed0b7b756cad5444bb2bf86f4f65d3e5115800751e10f022537bc.jpg",
    "url": "https://www.google.com/maps/search/?api=1&query=Dream%20Cars%20Nagpur&query_place_id=ChIJe7x37nzA1DsRc_M93tLAgto"
  },
  {
    "title": "DS LUXURY WEDDING CARS NAGPUR - Best luxury car rentals in nagpur. - LUXURY CAR RENTAL NAGPUR",
    "subTitle": "डीएस लक्जरी वेडिंग कार्स नागपुर - बेस्ट लक्जरी कार रेंटल्स इन नागपुर. - लक्जरी कार रेंटल नागपुर",
    "categoryName": "Car leasing service",
    "address": "Chinchbhavan, Square, behind Chinchabhavan Square, Sqaure, Nagpur, Maharashtra 440037, India",
    "neighborhood": "Sqaure",
    "street": "Chinchbhavan, Square, behind Chinchabhavan Square",
    "city": "Nagpur",
    "postalCode": "440037",
    "state": "Maharashtra",
    "countryCode": "IN",
    "phone": "+918208477979",
    "phoneUnformatted": "+918208477979",
    "location": {
      "lat": 21.0673104,
      "lng": 79.0664583
    },
    "totalScore": 4,
    "permanentlyClosed": false,
    "temporarilyClosed": false,
    "placeId": "ChIJP5PFKPy_1DsRPFHZAHXGvqY",
    "categories": [
      "Car leasing service",
      "Wedding service"
    ],
    "reviewsCount": 4,
    "imagesCount": 20,
    "openingHours": [
      {
        "day": "Monday",
        "hours": "Open 24 hours"
      },
      {
        "day": "Tuesday",
        "hours": "Open 24 hours"
      },
      {
        "day": "Wednesday",
        "hours": "Open 24 hours"
      },
      {
        "day": "Thursday",
        "hours": "Open 24 hours"
      },
      {
        "day": "Friday",
        "hours": "Open 24 hours"
      },
      {
        "day": "Saturday",
        "hours": "Open 24 hours"
      },
      {
        "day": "Sunday",
        "hours": "Open 24 hours"
      }
    ],
    "imageUrl": "https://media.indianluxurycars.com/google/239ee01539ce9f6639d66585bafb38c254336847d485b55061d07a33b798fd99.jpg",
    "url": "https://www.google.com/maps/search/?api=1&query=DS%20LUXURY%20WEDDING%20CARS%20NAGPUR%20-%20Best%20luxury%20car%20rentals%20in%20nagpur.%20-%20LUXURY%20CAR%20RENTAL%20NAGPUR&query_place_id=ChIJP5PFKPy_1DsRPFHZAHXGvqY"
  },
  {
    "title": "Eco Mobility",
    "subTitle": "इको मोबिलिटी",
    "categoryName": "Car rental agency",
    "address": "G-14, Dharmpeth Tower, W High Ct Rd, Nagpur, Maharashtra 440010, India",
    "neighborhood": "Bhagwaghar Layout",
    "street": "G-14, Dharmpeth Tower, W High Ct Rd",
    "city": "Nagpur",
    "postalCode": "440010",
    "state": "Maharashtra",
    "countryCode": "IN",
    "website": "https://www.ecosmobility.com/",
    "phone": "+919654999666",
    "phoneUnformatted": "+919654999666",
    "location": {
      "lat": 21.139952,
      "lng": 79.0657161
    },
    "permanentlyClosed": false,
    "temporarilyClosed": false,
    "placeId": "ChIJB304MB_B1DsR6LtU_kO47uU",
    "categories": [
      "Car rental agency",
      "Tour operator"
    ],
    "imagesCount": 11,
    "openingHours": [
      {
        "day": "Monday",
        "hours": "Open 24 hours"
      },
      {
        "day": "Tuesday",
        "hours": "Open 24 hours"
      },
      {
        "day": "Wednesday",
        "hours": "Open 24 hours"
      },
      {
        "day": "Thursday",
        "hours": "Open 24 hours"
      },
      {
        "day": "Friday",
        "hours": "Open 24 hours"
      },
      {
        "day": "Saturday",
        "hours": "Open 24 hours"
      },
      {
        "day": "Sunday",
        "hours": "Open 24 hours"
      }
    ],
    "imageUrl": "https://media.indianluxurycars.com/google/7dc1b3cb5dfa7492f007943ed94fd357eb64a40e435b6dceb72ac34b68cb941a.jpg",
    "url": "https://www.google.com/maps/search/?api=1&query=Eco%20Mobility&query_place_id=ChIJB304MB_B1DsR6LtU_kO47uU"
  },
  {
    "title": "FRIENDS CAR DEALERS",
    "subTitle": "फ्रेंड्स कार डीलर्स",
    "categoryName": "Used car dealer",
    "address": "Katol Rd, Friends Colony, KT Nagar, Nagpur, Maharashtra 440013, India",
    "neighborhood": "Friends Colony, KT Nagar",
    "street": "Katol Rd",
    "city": "Nagpur",
    "postalCode": "440013",
    "state": "Maharashtra",
    "countryCode": "IN",
    "phone": "+919579415353",
    "phoneUnformatted": "+919579415353",
    "location": {
      "lat": 21.1743788,
      "lng": 79.0573107
    },
    "totalScore": 4.5,
    "permanentlyClosed": false,
    "temporarilyClosed": false,
    "placeId": "ChIJMdcB9mvB1DsRht1aOwYTa2Y",
    "categories": [
      "Used car dealer"
    ],
    "reviewsCount": 2,
    "imagesCount": 11,
    "openingHours": [
      {
        "day": "Monday",
        "hours": "10:30 AM to 9:30 PM"
      },
      {
        "day": "Tuesday",
        "hours": "10:30 AM to 9:30 PM"
      },
      {
        "day": "Wednesday",
        "hours": "10:30 AM to 9:30 PM"
      },
      {
        "day": "Thursday",
        "hours": "10:30 AM to 9:30 PM"
      },
      {
        "day": "Friday",
        "hours": "10:30 AM to 9:30 PM"
      },
      {
        "day": "Saturday",
        "hours": "10:30 AM to 9:30 PM"
      },
      {
        "day": "Sunday",
        "hours": "10:30 AM to 9:30 PM"
      }
    ],
    "imageUrl": "https://media.indianluxurycars.com/google/1b0c7a5246bb56cb321eb25c57e9847f23d37475ad5dd131fa70a215b13523c0.jpg",
    "url": "https://www.google.com/maps/search/?api=1&query=FRIENDS%20CAR%20DEALERS&query_place_id=ChIJMdcB9mvB1DsRht1aOwYTa2Y"
  },
  {
    "title": "Global Car's & Accessories",
    "subTitle": "ग्लोबल कार'स & एसेसरिज",
    "categoryName": "Car dealer",
    "address": "Katol Naka Signal, Maharashtra 440013, India",
    "neighborhood": "Makardhokda",
    "street": "Katol Naka Signal",
    "city": "Nagpur",
    "postalCode": "440013",
    "state": "Maharashtra",
    "countryCode": "IN",
    "location": {
      "lat": 21.1831148,
      "lng": 79.0343514
    },
    "totalScore": 3,
    "permanentlyClosed": false,
    "temporarilyClosed": false,
    "placeId": "ChIJjUM8UVnB1DsRQYqU_6wBNTQ",
    "categories": [
      "Car dealer"
    ],
    "reviewsCount": 4,
    "imagesCount": 6,
    "openingHours": [
      {
        "day": "Monday",
        "hours": "10 AM to 6 PM"
      },
      {
        "day": "Tuesday",
        "hours": "10 AM to 6 PM"
      },
      {
        "day": "Wednesday",
        "hours": "10 AM to 12 AM"
      },
      {
        "day": "Thursday",
        "hours": "12 to 6 AM, 10 AM to 6 PM"
      },
      {
        "day": "Friday",
        "hours": "Closed"
      },
      {
        "day": "Saturday",
        "hours": "10 AM to 6 PM"
      },
      {
        "day": "Sunday",
        "hours": "10 AM to 6 PM"
      }
    ],
    "imageUrl": "https://media.indianluxurycars.com/google/9e5cda222a831b5561929766b3d5aebdbf3ca0ea4b3119b01a9d708c5390cc4e.jpg",
    "url": "https://www.google.com/maps/search/?api=1&query=Global%20Car's%20%26%20Accessories&query_place_id=ChIJjUM8UVnB1DsRQYqU_6wBNTQ"
  },
  {
    "title": "Goodluck Pre Owned Cars",
    "subTitle": "गुडलक प्र ओंवेड कार्स",
    "categoryName": "Used car dealer",
    "address": "First Floor, Shreyas, Plot No. 37, Ring Road, opposite YES Bank, Kotwal Nagar, Pratap Nagar, Nagpur, Maharashtra 440022, India",
    "neighborhood": "Kotwal Nagar, Pratap Nagar",
    "street": "First Floor, Shreyas, Plot No. 37, Ring Road, opposite YES Bank",
    "city": "Nagpur",
    "postalCode": "440022",
    "state": "Maharashtra",
    "countryCode": "IN",
    "phone": "+919373103002",
    "phoneUnformatted": "+919373103002",
    "location": {
      "lat": 21.1132939,
      "lng": 79.0616156
    },
    "totalScore": 4.3,
    "permanentlyClosed": false,
    "temporarilyClosed": false,
    "placeId": "ChIJDcn3aoPq1DsR4Y2R1knue9c",
    "categories": [
      "Used car dealer"
    ],
    "reviewsCount": 12,
    "imagesCount": 11,
    "openingHours": [
      {
        "day": "Monday",
        "hours": "11 AM to 7 PM"
      },
      {
        "day": "Tuesday",
        "hours": "11 AM to 7 PM"
      },
      {
        "day": "Wednesday",
        "hours": "11 AM to 7 PM"
      },
      {
        "day": "Thursday",
        "hours": "11 AM to 7 PM"
      },
      {
        "day": "Friday",
        "hours": "11 AM to 7 PM"
      },
      {
        "day": "Saturday",
        "hours": "11 AM to 7 PM"
      },
      {
        "day": "Sunday",
        "hours": "Closed"
      }
    ],
    "imageUrl": "https://media.indianluxurycars.com/google/5fa13d6dfc8a0b8308c8ffff3b8f61be68ad34a7d9715d7b68a9273ec483a858.jpg",
    "url": "https://www.google.com/maps/search/?api=1&query=Goodluck%20Pre%20Owned%20Cars&query_place_id=ChIJDcn3aoPq1DsR4Y2R1knue9c"
  },
  {
    "title": "Gurukrupa tour's And Travels Gittikhadan",
    "subTitle": "गुरुकृपा तौर'स एंड ट्रैवल्स गित्तिखादन",
    "categoryName": "Car rental agency",
    "address": "Gittikhadan Rd, Panchsheel Nagar, Seminary Hills, Nagpur, Maharashtra 440013, India",
    "neighborhood": "Panchsheel Nagar, Seminary Hills",
    "street": "Gittikhadan Rd",
    "city": "Nagpur",
    "postalCode": "440013",
    "state": "Maharashtra",
    "countryCode": "IN",
    "phone": "+917768936424",
    "phoneUnformatted": "+917768936424",
    "location": {
      "lat": 21.1727562,
      "lng": 79.0579927
    },
    "permanentlyClosed": false,
    "temporarilyClosed": false,
    "placeId": "ChIJpevpVLXB1DsRhQyxDVGsUwQ",
    "categories": [
      "Car rental agency"
    ],
    "imagesCount": 6,
    "openingHours": [
      {
        "day": "Monday",
        "hours": "Open 24 hours"
      },
      {
        "day": "Tuesday",
        "hours": "Open 24 hours"
      },
      {
        "day": "Wednesday",
        "hours": "Open 24 hours"
      },
      {
        "day": "Thursday",
        "hours": "Open 24 hours"
      },
      {
        "day": "Friday",
        "hours": "Open 24 hours"
      },
      {
        "day": "Saturday",
        "hours": "Open 24 hours"
      },
      {
        "day": "Sunday",
        "hours": "Open 24 hours"
      }
    ],
    "imageUrl": "https://media.indianluxurycars.com/google/175c1f70453a9b581f51700e0f1a70ac867d97cc3923efd497925c87c88cf3aa.jpg",
    "url": "https://www.google.com/maps/search/?api=1&query=Gurukrupa%20tour's%20And%20Travels%20Gittikhadan&query_place_id=ChIJpevpVLXB1DsRhQyxDVGsUwQ"
  },
  {
    "title": "Happy tours and travels",
    "subTitle": "हैप्पी टूर्स एंड ट्रैवल्स",
    "categoryName": "Car rental agency",
    "address": "Jai Hai Hind Nagar, Plot No. 115, near Old Kunal Hospital, Jafar Nagar, New Mankapur, Nagpur, Maharashtra 440030, India",
    "neighborhood": "Jafar Nagar, New Mankapur",
    "street": "Jai Hai Hind Nagar, Plot No. 115, near Old Kunal Hospital",
    "city": "Nagpur",
    "postalCode": "440030",
    "state": "Maharashtra",
    "countryCode": "IN",
    "website": "https://happytoursandtravels.co.in/",
    "location": {
      "lat": 21.1826131,
      "lng": 79.0760501
    },
    "totalScore": 5,
    "permanentlyClosed": false,
    "temporarilyClosed": false,
    "placeId": "ChIJFVwgWADB1DsRrzfNlAUi6Kc",
    "categories": [
      "Car rental agency",
      "Auto restoration service",
      "Car leasing service",
      "Tour agency",
      "Taxi service",
      "Travel agency"
    ],
    "reviewsCount": 250,
    "imagesCount": 46,
    "openingHours": [
      {
        "day": "Monday",
        "hours": "Open 24 hours"
      },
      {
        "day": "Tuesday",
        "hours": "Open 24 hours"
      },
      {
        "day": "Wednesday",
        "hours": "Open 24 hours"
      },
      {
        "day": "Thursday",
        "hours": "Open 24 hours"
      },
      {
        "day": "Friday",
        "hours": "Open 24 hours"
      },
      {
        "day": "Saturday",
        "hours": "Open 24 hours"
      },
      {
        "day": "Sunday",
        "hours": "Open 24 hours"
      }
    ],
    "imageUrl": "https://media.indianluxurycars.com/google/1b2d8aa58434afdc22c54ab41094c57c7cbe92a46d4f1b2af81a1e863f2fddef.jpg",
    "url": "https://www.google.com/maps/search/?api=1&query=Happy%20tours%20and%20travels&query_place_id=ChIJFVwgWADB1DsRrzfNlAUi6Kc"
  },
  {
    "title": "Hari Om Tours And Travels in Nagpur",
    "subTitle": "हरी ओम टूर्स आणि ट्र ॅव्हल्स नागपूर",
    "categoryName": "Car rental agency",
    "address": "Plot no.12 Road no.12 Bajrang nagar Jadumahal Square, Manewada Rd, Nagpur, Maharashtra 440027, India",
    "neighborhood": "Vilasnagar, Rameshwari",
    "street": "Plot no.12 Road no.12 Bajrang nagar Jadumahal Square, Manewada Rd",
    "city": "Nagpur",
    "postalCode": "440027",
    "state": "Maharashtra",
    "countryCode": "IN",
    "website": "https://www.hariomtoursandtravels.in/",
    "phone": "+919822971123",
    "phoneUnformatted": "+919822971123",
    "location": {
      "lat": 21.1173499,
      "lng": 79.0995406
    },
    "totalScore": 4.8,
    "permanentlyClosed": false,
    "temporarilyClosed": false,
    "placeId": "ChIJzeQnQVe_1DsR0FQI4z1d0V8",
    "categories": [
      "Car rental agency",
      "Bus company",
      "Bus ticket agency",
      "Bus tour agency",
      "Car leasing service",
      "Minibus taxi service",
      "Motoring club",
      "Taxi service",
      "Tour agency",
      "Travel agency"
    ],
    "reviewsCount": 354,
    "imagesCount": 135,
    "openingHours": [
      {
        "day": "Monday",
        "hours": "Open 24 hours"
      },
      {
        "day": "Tuesday",
        "hours": "Open 24 hours"
      },
      {
        "day": "Wednesday",
        "hours": "Open 24 hours"
      },
      {
        "day": "Thursday",
        "hours": "Open 24 hours"
      },
      {
        "day": "Friday",
        "hours": "Open 24 hours"
      },
      {
        "day": "Saturday",
        "hours": "Open 24 hours"
      },
      {
        "day": "Sunday",
        "hours": "Open 24 hours"
      }
    ],
    "imageUrl": "https://media.indianluxurycars.com/google/cc6b23971505de35c2c95e3d07bbd5c18efde933b61c406f4147d7d37e6bb4b1.jpg",
    "url": "https://www.google.com/maps/search/?api=1&query=Hari%20Om%20Tours%20And%20Travels%20in%20Nagpur&query_place_id=ChIJzeQnQVe_1DsR0FQI4z1d0V8"
  },
  {
    "title": "HS Cars (Used Car Dealer)",
    "subTitle": "एचएस कार्स (यूज्ड कार डीलर)",
    "categoryName": "Used car dealer",
    "address": "Warpakhad, Barakholi Square, Chouk, near Panchamukhi Traders, Hemu Colony, Jaripatka, Nagpur, Maharashtra 440014, India",
    "neighborhood": "Hemu Colony, Jaripatka",
    "street": "Warpakhad, Barakholi Square, Chouk, near Panchamukhi Traders",
    "city": "Nagpur",
    "postalCode": "440014",
    "state": "Maharashtra",
    "countryCode": "IN",
    "website": "http://www.hscars.in/",
    "phone": "+919850511444",
    "phoneUnformatted": "+919850511444",
    "location": {
      "lat": 21.179401,
      "lng": 79.094111
    },
    "totalScore": 4.9,
    "permanentlyClosed": false,
    "temporarilyClosed": false,
    "placeId": "ChIJYR04fxjB1DsRWGMd-WPy-DQ",
    "categories": [
      "Used car dealer"
    ],
    "reviewsCount": 386,
    "imagesCount": 50,
    "openingHours": [
      {
        "day": "Monday",
        "hours": "10:30 AM to 7 PM"
      },
      {
        "day": "Tuesday",
        "hours": "10:30 AM to 7 PM"
      },
      {
        "day": "Wednesday",
        "hours": "10:30 AM to 7 PM"
      },
      {
        "day": "Thursday",
        "hours": "10:30 AM to 7 PM"
      },
      {
        "day": "Friday",
        "hours": "10:30 AM to 7 PM"
      },
      {
        "day": "Saturday",
        "hours": "10:30 AM to 7 PM"
      },
      {
        "day": "Sunday",
        "hours": "Closed"
      }
    ],
    "imageUrl": "https://media.indianluxurycars.com/google/7fa3f13c32cffc1740ccbb07eb244b86e77fcb42e2e04dc3a125edcbfaf36161.jpg",
    "url": "https://www.google.com/maps/search/?api=1&query=HS%20Cars%20(Used%20Car%20Dealer)&query_place_id=ChIJYR04fxjB1DsRWGMd-WPy-DQ"
  },
  {
    "title": "JP CARS",
    "subTitle": "जेपी कार्स",
    "categoryName": "Used car dealer",
    "address": "jijamata co-operative society, Plot no 8, Amravati Rd, opp. police chouki naka, Wadi, Nagpur, Maharashtra 440023, India",
    "neighborhood": "Wadi",
    "street": "jijamata co-operative society, Plot no 8, Amravati Rd, opp. police chouki naka",
    "city": "Nagpur",
    "postalCode": "440023",
    "state": "Maharashtra",
    "countryCode": "IN",
    "website": "http://www.jpcars.co.in/",
    "phone": "+919923408199",
    "phoneUnformatted": "+919923408199",
    "location": {
      "lat": 21.153678,
      "lng": 79.0147043
    },
    "totalScore": 4.8,
    "permanentlyClosed": false,
    "temporarilyClosed": false,
    "placeId": "ChIJRUWoPmLr1DsRx3G866WYzA0",
    "categories": [
      "Used car dealer"
    ],
    "reviewsCount": 13,
    "imagesCount": 23,
    "openingHours": [
      {
        "day": "Monday",
        "hours": "10:30 AM to 7:40 PM"
      },
      {
        "day": "Tuesday",
        "hours": "10:30 AM to 7:40 PM"
      },
      {
        "day": "Wednesday",
        "hours": "10:30 AM to 7:40 PM"
      },
      {
        "day": "Thursday",
        "hours": "10:30 AM to 7:40 PM"
      },
      {
        "day": "Friday",
        "hours": "10:30 AM to 7:40 PM"
      },
      {
        "day": "Saturday",
        "hours": "10:30 AM to 7:40 PM"
      },
      {
        "day": "Sunday",
        "hours": "11:30 AM to 6 PM"
      }
    ],
    "imageUrl": "https://media.indianluxurycars.com/google/1025302187e766c2f14fbb00c0faca28c59d53be982e4366b385a8726d9885c4.jpg",
    "url": "https://www.google.com/maps/search/?api=1&query=JP%20CARS&query_place_id=ChIJRUWoPmLr1DsRx3G866WYzA0"
  },
  {
    "title": "JPExotica car rental | best taxi in nagpur | urbania | Fortuner| Hycross | outstation taxi | airport taxi",
    "subTitle": "जेपीईएक्सोटिका कार रेंटल | बेस्ट टैक्सी इन नागपुर | अर्बनिया | फॉर्चूनर| हाइक्रॉस | आउटस्टेशन टैक्सी | एयरपोर्ट टैक्सी",
    "categoryName": "Car rental agency",
    "address": "Plot No. 74/A, Hudkeshwar, Mankapur Ring Rd, Gurudev Nagar, Ashirwad Nagar, Nagpur, Maharashtra 440024, India",
    "neighborhood": "Gurudev Nagar, Ashirwad Nagar",
    "street": "Plot No. 74/A, Hudkeshwar, Mankapur Ring Rd",
    "city": "Nagpur",
    "postalCode": "440024",
    "state": "Maharashtra",
    "countryCode": "IN",
    "website": "https://jpcarrental.in/",
    "phone": "+919325514784",
    "phoneUnformatted": "+919325514784",
    "location": {
      "lat": 21.1075414,
      "lng": 79.1182441
    },
    "totalScore": 4.9,
    "permanentlyClosed": false,
    "temporarilyClosed": false,
    "placeId": "ChIJO4fekjO51DsRzNvUhXVnma8",
    "categories": [
      "Car rental agency",
      "Car leasing service",
      "Taxi service"
    ],
    "reviewsCount": 57,
    "imagesCount": 35,
    "openingHours": [],
    "imageUrl": "https://media.indianluxurycars.com/google/06d815d57bec9d638bcd5f9c6219f2ad0908bfceea8969a6a3ab8e1764a22385.jpg",
    "url": "https://www.google.com/maps/search/?api=1&query=JPExotica%20car%20rental%20%7C%20best%20taxi%20in%20nagpur%20%7C%20urbania%20%7C%20Fortuner%7C%20Hycross%20%7C%20outstation%20taxi%20%7C%20airport%20taxi&query_place_id=ChIJO4fekjO51DsRzNvUhXVnma8"
  },
  {
    "title": "Kale Motorss(Certified Pre-owned Cars)",
    "subTitle": "काले मोटरस(सर्टिफाइड प्री-ओन्ड कार्स)",
    "categoryName": "Used car dealer",
    "address": "Kale Motorss, Raut Layout, Plot no. 5, Mankapur Ring Rd, near ESAF Bank, Sadiqabad Colony, Jafar Nagar, New Mankapur, Nagpur, Maharashtra 440030, India",
    "neighborhood": "Sadiqabad Colony, Jafar Nagar, New Mankapur",
    "street": "Kale Motorss, Raut Layout, Plot no. 5, Mankapur Ring Rd, near ESAF Bank",
    "city": "Nagpur",
    "postalCode": "440030",
    "state": "Maharashtra",
    "countryCode": "IN",
    "phone": "+919767732777",
    "phoneUnformatted": "+919767732777",
    "location": {
      "lat": 21.1864356,
      "lng": 79.0698936
    },
    "totalScore": 4.6,
    "permanentlyClosed": false,
    "temporarilyClosed": false,
    "placeId": "ChIJjU16iRnB1DsRU7GJWbPWSQ0",
    "categories": [
      "Used car dealer"
    ],
    "reviewsCount": 20,
    "imagesCount": 2,
    "openingHours": [
      {
        "day": "Monday",
        "hours": "10:30 AM to 7:30 PM"
      },
      {
        "day": "Tuesday",
        "hours": "10:30 AM to 7:30 PM"
      },
      {
        "day": "Wednesday",
        "hours": "10:30 AM to 7:30 PM"
      },
      {
        "day": "Thursday",
        "hours": "10:30 AM to 7:30 PM"
      },
      {
        "day": "Friday",
        "hours": "10:30 AM to 7:30 PM"
      },
      {
        "day": "Saturday",
        "hours": "10:30 AM to 7:30 PM"
      },
      {
        "day": "Sunday",
        "hours": "10:30 AM to 7:30 PM"
      }
    ],
    "imageUrl": "https://media.indianluxurycars.com/google/a3c2fe22b0a34e9c6b9ce2f6caaf5d0d64d227f95c9e14332e47d3b6aca597c7.jpg",
    "url": "https://www.google.com/maps/search/?api=1&query=Kale%20Motorss(Certified%20Pre-owned%20Cars)&query_place_id=ChIJjU16iRnB1DsRU7GJWbPWSQ0"
  },
  {
    "title": "KANCHAN TRAVEL AGENCY",
    "subTitle": "कंचन ट्रॅव्हल एजन्सी",
    "categoryName": "Car rental agency",
    "address": "KDK College Rd, Jagnade Chowk, Wathoda Layout, Nagpur, Maharashtra 440024, India",
    "neighborhood": "Jagnade Chowk, Wathoda Layout",
    "street": "KDK College Rd",
    "city": "Nagpur",
    "postalCode": "440024",
    "state": "Maharashtra",
    "countryCode": "IN",
    "location": {
      "lat": 21.138388,
      "lng": 79.120117
    },
    "totalScore": 5,
    "permanentlyClosed": false,
    "temporarilyClosed": false,
    "placeId": "ChIJ3c4vdE_H1DsR9ypx04KqRTY",
    "categories": [
      "Car rental agency",
      "Car leasing service",
      "Taxi service",
      "Chauffeur service"
    ],
    "reviewsCount": 6,
    "imagesCount": 9,
    "openingHours": [],
    "imageUrl": "https://media.indianluxurycars.com/google/af533a4ee997f4182823f3e16a53a933d6a5bd8f5ec831fbdae7ac3101612caf.jpg",
    "url": "https://www.google.com/maps/search/?api=1&query=KANCHAN%20TRAVEL%20AGENCY&query_place_id=ChIJ3c4vdE_H1DsR9ypx04KqRTY"
  },
  {
    "title": "Kia Car Showroom - Aryodaya Kia, Ganeshpeth Col",
    "subTitle": "किआ कार शोरूम - आर्योदय किया, गनेश्पेथ कोल",
    "categoryName": "Car dealer",
    "address": "Plot No 39, Sardar Patel Square Great Nag Rd, Timber Mkt, Col, Ganeshpeth Colony, Nagpur, Maharashtra 440003, India",
    "neighborhood": "Col, Ganeshpeth Colony",
    "street": "Plot No 39, Sardar Patel Square Great Nag Rd, Timber Mkt",
    "city": "Nagpur",
    "postalCode": "440003",
    "state": "Maharashtra",
    "countryCode": "IN",
    "website": "https://kiaindia-dealers.com/kia-car-showroom-aryodaya-kia-ganeshpeth-col-aryodaya-kia-car-dealer-ganeshpeth-col-nagpur-335029/Home?utm_source=locator&utm_medium=googleplaces",
    "phone": "+919167065337",
    "phoneUnformatted": "+919167065337",
    "location": {
      "lat": 21.1370898,
      "lng": 79.0901952
    },
    "totalScore": 4.8,
    "permanentlyClosed": false,
    "temporarilyClosed": false,
    "placeId": "ChIJFSqn7QXB1DsRsdY24jqJXhI",
    "categories": [
      "Car dealer",
      "Auto parts store",
      "Car accessories store",
      "Kia dealer"
    ],
    "reviewsCount": 1707,
    "imagesCount": 168,
    "openingHours": [
      {
        "day": "Monday",
        "hours": "9 AM to 7 PM"
      },
      {
        "day": "Tuesday",
        "hours": "9 AM to 7 PM"
      },
      {
        "day": "Wednesday",
        "hours": "9 AM to 7 PM"
      },
      {
        "day": "Thursday",
        "hours": "9 AM to 7 PM"
      },
      {
        "day": "Friday",
        "hours": "9 AM to 7 PM"
      },
      {
        "day": "Saturday",
        "hours": "9 AM to 7 PM"
      },
      {
        "day": "Sunday",
        "hours": "9 AM to 7 PM"
      }
    ],
    "imageUrl": "https://media.indianluxurycars.com/google/44d4b9965720375404d86c0245b9e8b0c4396cf0c27ec4336095661400c0700c.jpg",
    "url": "https://www.google.com/maps/search/?api=1&query=Kia%20Car%20Showroom%20-%20Aryodaya%20Kia%2C%20Ganeshpeth%20Col&query_place_id=ChIJFSqn7QXB1DsRsdY24jqJXhI"
  },
  {
    "title": "Kumar Travels",
    "subTitle": "कुमार ट्रैवल्स",
    "categoryName": "Car rental agency",
    "address": "Plot No. 6 / A, Dobi Nagar, behind Vasundhara Enclave, near shree sai diagnostic laboratory, Narendra Nagar, Nagpur, Maharashtra 440015, India",
    "neighborhood": "Dobi Nagar Housing Society, Narendra Nagar, Somalwada",
    "street": "Plot No. 6 / A, Dobi Nagar, behind Vasundhara Enclave, near shree sai diagnostic laboratory",
    "city": "Nagpur",
    "postalCode": "440015",
    "state": "Maharashtra",
    "countryCode": "IN",
    "website": "http://www.kumarcarrentals.com/",
    "location": {
      "lat": 21.1033897,
      "lng": 79.078751
    },
    "totalScore": 5,
    "permanentlyClosed": false,
    "temporarilyClosed": false,
    "placeId": "ChIJDQEShse_1DsRBviIJa4QhA0",
    "categories": [
      "Car rental agency",
      "Bus tour agency",
      "Car leasing service",
      "Travel agency",
      "Taxi service",
      "Wildlife and safari park"
    ],
    "reviewsCount": 13,
    "imagesCount": 2,
    "openingHours": [
      {
        "day": "Monday",
        "hours": "6 AM to 11 PM"
      },
      {
        "day": "Tuesday",
        "hours": "6 AM to 11 PM"
      },
      {
        "day": "Wednesday",
        "hours": "6 AM to 11 PM"
      },
      {
        "day": "Thursday",
        "hours": "6 AM to 11 PM"
      },
      {
        "day": "Friday",
        "hours": "6 AM to 11 PM"
      },
      {
        "day": "Saturday",
        "hours": "6 AM to 11 PM"
      },
      {
        "day": "Sunday",
        "hours": "6 AM to 11 PM"
      }
    ],
    "imageUrl": "https://media.indianluxurycars.com/google/8098570a4185ab15a07025ab169891f9591155ba6a4440a27d8d1137e9da5f08.jpg",
    "url": "https://www.google.com/maps/search/?api=1&query=Kumar%20Travels&query_place_id=ChIJDQEShse_1DsRBviIJa4QhA0"
  },
  {
    "title": "Laxmi Travels",
    "subTitle": "लक्ष्मी ट्रैवल्स",
    "categoryName": "Car rental agency",
    "address": "P. No. 63, Jagrutti nagar, opp. Garjana Bar, Jaripatka, Nagpur, Maharashtra 440014, India",
    "neighborhood": "Jaripatka",
    "street": "P. No. 63, Jagrutti nagar, opp. Garjana Bar",
    "city": "Nagpur",
    "postalCode": "440014",
    "state": "Maharashtra",
    "countryCode": "IN",
    "website": "https://nagpurtaxi.in/",
    "phone": "+919423959655",
    "phoneUnformatted": "+919423959655",
    "location": {
      "lat": 21.1820557,
      "lng": 79.0859952
    },
    "totalScore": 4.9,
    "permanentlyClosed": false,
    "temporarilyClosed": false,
    "placeId": "ChIJR45h4DvB1DsRVRhgPlW2SKo",
    "categories": [
      "Car rental agency",
      "Chauffeur service",
      "Minibus taxi service",
      "Taxi service"
    ],
    "reviewsCount": 411,
    "imagesCount": 84,
    "openingHours": [
      {
        "day": "Monday",
        "hours": "Open 24 hours"
      },
      {
        "day": "Tuesday",
        "hours": "Open 24 hours"
      },
      {
        "day": "Wednesday",
        "hours": "Open 24 hours"
      },
      {
        "day": "Thursday",
        "hours": "Open 24 hours"
      },
      {
        "day": "Friday",
        "hours": "Open 24 hours"
      },
      {
        "day": "Saturday",
        "hours": "Open 24 hours"
      },
      {
        "day": "Sunday",
        "hours": "Open 24 hours"
      }
    ],
    "imageUrl": "https://media.indianluxurycars.com/google/90d358271b7915596647d645b71cf3e614a11d1135e4006c5cea9d7dbb42cabd.jpg",
    "url": "https://www.google.com/maps/search/?api=1&query=Laxmi%20Travels&query_place_id=ChIJR45h4DvB1DsRVRhgPlW2SKo"
  },
  {
    "title": "Lokesh Cabz",
    "subTitle": "लोकेश कब्ज",
    "categoryName": "Car rental agency",
    "address": "Panchpaoli Rd, Balabhaupeth, Nagpur, Maharashtra 440017, India",
    "neighborhood": "Balabhaupeth",
    "street": "Panchpaoli Rd",
    "city": "Nagpur",
    "postalCode": "440017",
    "state": "Maharashtra",
    "countryCode": "IN",
    "phone": "+917263832438",
    "phoneUnformatted": "+917263832438",
    "location": {
      "lat": 21.1653656,
      "lng": 79.1028807
    },
    "totalScore": 3.7,
    "permanentlyClosed": false,
    "temporarilyClosed": true,
    "placeId": "ChIJi0Jm9b_H1DsRG2VTNYbRJwQ",
    "categories": [
      "Car rental agency",
      "Car leasing service"
    ],
    "reviewsCount": 3,
    "imagesCount": 21,
    "openingHours": [],
    "imageUrl": "https://media.indianluxurycars.com/google/77087102c0e6d46bd5344afd2053024eec3018c7f6b70f9be6784e6aba66a535.jpg",
    "url": "https://www.google.com/maps/search/?api=1&query=Lokesh%20Cabz&query_place_id=ChIJi0Jm9b_H1DsRG2VTNYbRJwQ"
  },
  {
    "title": "Maruti Suzuki ARENA (Seva Automotive, Nagpur, Amravati Road)",
    "subTitle": "मारुति सुजुकी एरेना (सेवा ऑटोमोटिव, नागपुर, अमरावती रोड)",
    "categoryName": "Car dealer",
    "address": "Plot No. 34/3 Amravati Road Kachimet, Amravati Rd, Wadi, Nagpur, Maharashtra 440016, India",
    "neighborhood": "Wadi",
    "street": "Plot No. 34/3 Amravati Road Kachimet, Amravati Rd",
    "city": "Nagpur",
    "postalCode": "440016",
    "state": "Maharashtra",
    "countryCode": "IN",
    "website": "https://www.arenaofamravatiroad.com/?utm_source=gmb&utm_medium=google",
    "phone": "+918071646064",
    "phoneUnformatted": "+918071646064",
    "location": {
      "lat": 21.1525461,
      "lng": 79.0205739
    },
    "totalScore": 4.5,
    "permanentlyClosed": false,
    "temporarilyClosed": false,
    "placeId": "ChIJtZkR4CfA1DsRCs6sbelmmKQ",
    "categories": [
      "Car dealer"
    ],
    "reviewsCount": 2625,
    "imagesCount": 628,
    "openingHours": [
      {
        "day": "Monday",
        "hours": "9 AM to 9 PM"
      },
      {
        "day": "Tuesday",
        "hours": "9 AM to 9 PM"
      },
      {
        "day": "Wednesday",
        "hours": "9 AM to 9 PM"
      },
      {
        "day": "Thursday",
        "hours": "9 AM to 9 PM"
      },
      {
        "day": "Friday",
        "hours": "9 AM to 9 PM"
      },
      {
        "day": "Saturday",
        "hours": "9 AM to 9 PM"
      },
      {
        "day": "Sunday",
        "hours": "Closed"
      }
    ],
    "imageUrl": "https://media.indianluxurycars.com/google/17a5331ef0dc41b1e00ccae77ad04854220d0f88a487829f375cbd4148b4dc7c.jpg",
    "url": "https://www.google.com/maps/search/?api=1&query=Maruti%20Suzuki%20ARENA%20(Seva%20Automotive%2C%20Nagpur%2C%20Amravati%20Road)&query_place_id=ChIJtZkR4CfA1DsRCs6sbelmmKQ"
  },
  {
    "title": "Misba Best Car Deal",
    "subTitle": "मिस्बा बेस्ट कार डील",
    "categoryName": "Used car dealer",
    "address": "Plot No 58, opp. Dawat E Islami Madarsa, behind Pradhan Mantri Awas Yojana, Sangharsh Nagar, Nagpur, Maharashtra 440026, India",
    "neighborhood": "Sangharsh Nagar",
    "street": "Plot No 58, opp. Dawat E Islami Madarsa, behind Pradhan Mantri Awas Yojana",
    "city": "Nagpur",
    "postalCode": "440026",
    "state": "Maharashtra",
    "countryCode": "IN",
    "website": "https://iammamunhusain.blogspot.com/?m=1",
    "phone": "+918999372197",
    "phoneUnformatted": "+918999372197",
    "location": {
      "lat": 21.1810511,
      "lng": 79.1216657
    },
    "totalScore": 5,
    "permanentlyClosed": false,
    "temporarilyClosed": false,
    "placeId": "ChIJTYuEVVHH1DsRBEv_L7ikISI",
    "categories": [
      "Used car dealer"
    ],
    "reviewsCount": 56,
    "imagesCount": 40,
    "openingHours": [
      {
        "day": "Monday",
        "hours": "Open 24 hours"
      },
      {
        "day": "Tuesday",
        "hours": "Open 24 hours"
      },
      {
        "day": "Wednesday",
        "hours": "Open 24 hours"
      },
      {
        "day": "Thursday",
        "hours": "Open 24 hours"
      },
      {
        "day": "Friday",
        "hours": "Open 24 hours"
      },
      {
        "day": "Saturday",
        "hours": "Open 24 hours"
      },
      {
        "day": "Sunday",
        "hours": "Open 24 hours"
      }
    ],
    "imageUrl": "https://media.indianluxurycars.com/google/94eea29e93a0ef9a5b91c937e7539ea8ee16d30615efb5ef5dba36f185c42c1d.jpg",
    "url": "https://www.google.com/maps/search/?api=1&query=Misba%20Best%20Car%20Deal&query_place_id=ChIJTYuEVVHH1DsRBEv_L7ikISI"
  },
  {
    "title": "Nagpur Auto Deal",
    "subTitle": "नागपूर ऑटो डील",
    "categoryName": "Used car dealer",
    "address": "42 Gaddigudam kamptee road, Nagpur, Maharashtra 440001, India",
    "neighborhood": "Near Indian Oil Petrol Pump, Koradi Colony",
    "street": "42 Gaddigudam kamptee road",
    "city": "Nagpur",
    "postalCode": "440001",
    "state": "Maharashtra",
    "countryCode": "IN",
    "phone": "+919371062795",
    "phoneUnformatted": "+919371062795",
    "location": {
      "lat": 21.1634804,
      "lng": 79.0853993
    },
    "totalScore": 4.3,
    "permanentlyClosed": false,
    "temporarilyClosed": false,
    "placeId": "ChIJN6SNxuDA1DsRIRsw4KkOrbU",
    "categories": [
      "Used car dealer"
    ],
    "reviewsCount": 12,
    "imagesCount": 26,
    "openingHours": [
      {
        "day": "Monday",
        "hours": "10 AM to 8 PM"
      },
      {
        "day": "Tuesday",
        "hours": "10 AM to 8 PM"
      },
      {
        "day": "Wednesday",
        "hours": "10 AM to 8 PM"
      },
      {
        "day": "Thursday",
        "hours": "10 AM to 8 PM"
      },
      {
        "day": "Friday",
        "hours": "10 AM to 8 PM"
      },
      {
        "day": "Saturday",
        "hours": "10 AM to 8 PM"
      },
      {
        "day": "Sunday",
        "hours": "10 AM to 8 PM"
      }
    ],
    "imageUrl": "https://media.indianluxurycars.com/google/a9b1ae8b7f4e6fc4efbd98df817983e5a6a3b703621d4bff6835124aee33aecf.jpg",
    "url": "https://www.google.com/maps/search/?api=1&query=Nagpur%20Auto%20Deal&query_place_id=ChIJN6SNxuDA1DsRIRsw4KkOrbU"
  },
  {
    "title": "Nagpur Car Rental Services",
    "subTitle": ".Nagpur Car Rental Services",
    "categoryName": "Car rental agency",
    "address": "Gokul Housing Society, Katol Rd, Borgaon, Gorewada, Nagpur, Maharashtra 440013, India",
    "neighborhood": "Borgaon, Gorewada",
    "street": "Gokul Housing Society, Katol Rd",
    "city": "Nagpur",
    "postalCode": "440013",
    "state": "Maharashtra",
    "countryCode": "IN",
    "phone": "+917038674143",
    "phoneUnformatted": "+917038674143",
    "location": {
      "lat": 21.1834681,
      "lng": 79.0504143
    },
    "totalScore": 4.8,
    "permanentlyClosed": false,
    "temporarilyClosed": false,
    "placeId": "ChIJvTOn967B1DsR-iM7o3vptE8",
    "categories": [
      "Car rental agency",
      "Bus tour agency",
      "Computer support and services",
      "Contractor",
      "Minibus taxi service",
      "Recreational vehicle rental agency",
      "School bus service",
      "Taxi service",
      "Transportation service",
      "Warehouse club"
    ],
    "reviewsCount": 21,
    "imagesCount": 119,
    "openingHours": [
      {
        "day": "Monday",
        "hours": "Open 24 hours"
      },
      {
        "day": "Tuesday",
        "hours": "Open 24 hours"
      },
      {
        "day": "Wednesday",
        "hours": "Open 24 hours"
      },
      {
        "day": "Thursday",
        "hours": "Open 24 hours"
      },
      {
        "day": "Friday",
        "hours": "Open 24 hours"
      },
      {
        "day": "Saturday",
        "hours": "Open 24 hours"
      },
      {
        "day": "Sunday",
        "hours": "Open 24 hours"
      }
    ],
    "imageUrl": "https://media.indianluxurycars.com/google/9027898db4382bc655527d96c3f09a9fe9eada23ca08ac34c3a905d1f6d95a8e.jpg",
    "url": "https://www.google.com/maps/search/?api=1&query=Nagpur%20Car%20Rental%20Services&query_place_id=ChIJvTOn967B1DsR-iM7o3vptE8"
  },
  {
    "title": "NAGPUR WEDDING CARS™",
    "subTitle": "नागपुर वेडिंग कार्स्टम",
    "categoryName": "Car rental agency",
    "address": "Plot no 8, nari ring road, behind rangla punjab hotel, Sanyal Nagar, Manav nagar, Teka Naka, Nagpur, Maharashtra 440026, India",
    "neighborhood": "Sanyal Nagar, Manav nagar, Teka Naka",
    "street": "Plot no 8, nari ring road, behind rangla punjab hotel",
    "city": "Nagpur",
    "postalCode": "440026",
    "state": "Maharashtra",
    "countryCode": "IN",
    "website": "https://www.nagpurweddingcars.in/",
    "location": {
      "lat": 21.1820867,
      "lng": 79.1086755
    },
    "permanentlyClosed": false,
    "temporarilyClosed": false,
    "placeId": "ChIJOXHxduvB1DsRJ7KWwNNnI9s",
    "categories": [
      "Car rental agency"
    ],
    "imagesCount": 1,
    "openingHours": [
      {
        "day": "Monday",
        "hours": "Open 24 hours"
      },
      {
        "day": "Tuesday",
        "hours": "Open 24 hours"
      },
      {
        "day": "Wednesday",
        "hours": "Open 24 hours"
      },
      {
        "day": "Thursday",
        "hours": "Open 24 hours"
      },
      {
        "day": "Friday",
        "hours": "Open 24 hours"
      },
      {
        "day": "Saturday",
        "hours": "Open 24 hours"
      },
      {
        "day": "Sunday",
        "hours": "Open 24 hours"
      }
    ],
    "imageUrl": "https://media.indianluxurycars.com/google/4bf66ffde9e0aac71e71f10f3caf993adaef21eef7c732c890251253732d37f8.jpg",
    "url": "https://www.google.com/maps/search/?api=1&query=NAGPUR%20WEDDING%20CARS%E2%84%A2&query_place_id=ChIJOXHxduvB1DsRJ7KWwNNnI9s"
  },
  {
    "title": "NAGPUR WEDDING CARS™ ( Since 2017 )",
    "subTitle": "नागपुर वेडिंग कार्स™",
    "categoryName": "Car leasing service",
    "address": "Plot no 8. Manav nagar, nari road, Teka Naka Kamptee Rd, Kapil Nagar, Nagpur, Maharashtra 440026, India",
    "neighborhood": "Kapil Nagar, Sanyal Nagar, Teka Naka",
    "street": "Plot no 8. Manav nagar, nari road, Teka Naka Kamptee Rd",
    "city": "Nagpur",
    "postalCode": "440026",
    "state": "Maharashtra",
    "countryCode": "IN",
    "website": "https://nagpurweddingcars.in/",
    "phone": "+917507075053",
    "phoneUnformatted": "+917507075053",
    "location": {
      "lat": 21.1827805,
      "lng": 79.1090394
    },
    "totalScore": 4.5,
    "permanentlyClosed": false,
    "temporarilyClosed": false,
    "placeId": "ChIJ4263Pw_B1DsR_SVUnuIBkww",
    "categories": [
      "Car leasing service"
    ],
    "reviewsCount": 16,
    "imagesCount": 56,
    "openingHours": [
      {
        "day": "Monday",
        "hours": "Open 24 hours"
      },
      {
        "day": "Tuesday",
        "hours": "Open 24 hours"
      },
      {
        "day": "Wednesday",
        "hours": "Open 24 hours"
      },
      {
        "day": "Thursday",
        "hours": "Open 24 hours"
      },
      {
        "day": "Friday",
        "hours": "Open 24 hours"
      },
      {
        "day": "Saturday",
        "hours": "Open 24 hours"
      },
      {
        "day": "Sunday",
        "hours": "Open 24 hours"
      }
    ],
    "imageUrl": "https://media.indianluxurycars.com/google/9692d917cfa6587981f28268326ad4ee7cc215e6d419c0ecfe593d663cf45341.jpg",
    "url": "https://www.google.com/maps/search/?api=1&query=NAGPUR%20WEDDING%20CARS%E2%84%A2%20(%20Since%202017%20)&query_place_id=ChIJ4263Pw_B1DsR_SVUnuIBkww"
  },
  {
    "title": "NEXA (Seva Automotive, Nagpur, Kingsway)",
    "subTitle": "नेक्सा (सेवा ऑटोमोटिव, नागपुर, किंग्सवे)",
    "categoryName": "Car dealer",
    "address": "Seva Centre, Kingsway Rd, opp. Kasturchand Park, Mohan Nagar, Nagpur, Maharashtra 440001, India",
    "neighborhood": "Mohan Nagar",
    "street": "Seva Centre, Kingsway Rd, opp. Kasturchand Park",
    "city": "Nagpur",
    "postalCode": "440001",
    "state": "Maharashtra",
    "countryCode": "IN",
    "website": "http://nexaofkingsway.com/?utm_source=gmb&utm_medium=google",
    "phone": "+918062511027",
    "phoneUnformatted": "+918062511027",
    "location": {
      "lat": 21.1554506,
      "lng": 79.0827043
    },
    "totalScore": 4.6,
    "permanentlyClosed": false,
    "temporarilyClosed": false,
    "placeId": "ChIJwYIZrujA1DsR-_NxL7vumSc",
    "categories": [
      "Car dealer"
    ],
    "reviewsCount": 1218,
    "imagesCount": 309,
    "openingHours": [
      {
        "day": "Monday",
        "hours": "9 AM to 9 PM"
      },
      {
        "day": "Tuesday",
        "hours": "9 AM to 9 PM"
      },
      {
        "day": "Wednesday",
        "hours": "9 AM to 9 PM"
      },
      {
        "day": "Thursday",
        "hours": "9 AM to 9 PM"
      },
      {
        "day": "Friday",
        "hours": "9 AM to 9 PM"
      },
      {
        "day": "Saturday",
        "hours": "9 AM to 9 PM"
      },
      {
        "day": "Sunday",
        "hours": "9 AM to 9 PM"
      }
    ],
    "imageUrl": "https://media.indianluxurycars.com/google/ebd02fcf8ff0829d77b83c949396c8e70a5fdb4df1c32e498b7a292685185b2a.jpg",
    "url": "https://www.google.com/maps/search/?api=1&query=NEXA%20(Seva%20Automotive%2C%20Nagpur%2C%20Kingsway)&query_place_id=ChIJwYIZrujA1DsR-_NxL7vumSc"
  },
  {
    "title": "Orange City Cabs",
    "subTitle": "ऑरेंज सिटी कैब्स",
    "categoryName": "Car rental agency",
    "address": "Plot No, 16, IT Park Rd, opp. Checkers, Lokhande Nagar, Gayatri Nagar, Trimurti Nagar, Nagpur, Maharashtra 440022, India",
    "neighborhood": "Lokhande Nagar, Gayatri Nagar, Trimurti Nagar",
    "street": "Plot No, 16, IT Park Rd, opp. Checkers",
    "city": "Nagpur",
    "postalCode": "440022",
    "state": "Maharashtra",
    "countryCode": "IN",
    "phone": "+917400293601",
    "phoneUnformatted": "+917400293601",
    "location": {
      "lat": 21.1175727,
      "lng": 79.0467905
    },
    "totalScore": 4.8,
    "permanentlyClosed": false,
    "temporarilyClosed": false,
    "placeId": "ChIJVVWYF4q_1DsR9r5SVIDO8RA",
    "categories": [
      "Car rental agency",
      "Car leasing service",
      "Taxi service"
    ],
    "reviewsCount": 35,
    "imagesCount": 7,
    "openingHours": [
      {
        "day": "Monday",
        "hours": "9 AM to 9 PM"
      },
      {
        "day": "Tuesday",
        "hours": "9 AM to 9 PM"
      },
      {
        "day": "Wednesday",
        "hours": "9 AM to 9 PM"
      },
      {
        "day": "Thursday",
        "hours": "9 AM to 9 PM"
      },
      {
        "day": "Friday",
        "hours": "9 AM to 9 PM"
      },
      {
        "day": "Saturday",
        "hours": "9 AM to 9 PM"
      },
      {
        "day": "Sunday",
        "hours": "9 AM to 9 PM"
      }
    ],
    "imageUrl": "https://media.indianluxurycars.com/google/cc117ad964a91d137faef5c70e8ae483621d8ecfbfabde6d3f0938d877ab0e98.jpg",
    "url": "https://www.google.com/maps/search/?api=1&query=Orange%20City%20Cabs&query_place_id=ChIJVVWYF4q_1DsR9r5SVIDO8RA"
  },
  {
    "title": "Orange City Car Gallery",
    "subTitle": "ऑरेंज सिटी कार गैलरी",
    "categoryName": "Used car dealer",
    "address": "Plot no 80, Gorewada Rd, Patel Nagar, Manjidana Colony, Nagpur, Maharashtra 440013, India",
    "neighborhood": "Patel Nagar, Manjidana Colony",
    "street": "Plot no 80, Gorewada Rd",
    "city": "Nagpur",
    "postalCode": "440013",
    "state": "Maharashtra",
    "countryCode": "IN",
    "location": {
      "lat": 21.1779513,
      "lng": 79.0532652
    },
    "totalScore": 3.9,
    "permanentlyClosed": false,
    "temporarilyClosed": false,
    "placeId": "ChIJ0adQONTB1DsRBkld-dSvwWE",
    "categories": [
      "Used car dealer"
    ],
    "reviewsCount": 8,
    "openingHours": [
      {
        "day": "Monday",
        "hours": "Open 24 hours"
      },
      {
        "day": "Tuesday",
        "hours": "Open 24 hours"
      },
      {
        "day": "Wednesday",
        "hours": "Open 24 hours"
      },
      {
        "day": "Thursday",
        "hours": "Open 24 hours"
      },
      {
        "day": "Friday",
        "hours": "Open 24 hours"
      },
      {
        "day": "Saturday",
        "hours": "Open 24 hours"
      },
      {
        "day": "Sunday",
        "hours": "Open 24 hours"
      }
    ],
    "url": "https://www.google.com/maps/search/?api=1&query=Orange%20City%20Car%20Gallery&query_place_id=ChIJ0adQONTB1DsRBkld-dSvwWE"
  },
  {
    "title": "Pooja Car Rental Service In Nagpur, Taxi Service, Car Hire, Cab Services In Nagpur",
    "subTitle": "पूजा कार रेंटल सर्विस",
    "categoryName": "Car rental agency",
    "address": "15 B, near Indora Square, Ashok Nagar, Sindhi Colony, Balabhaupeth, Nagpur, Maharashtra 440017, India",
    "neighborhood": "Ashok Nagar, Sindhi Colony, Balabhaupeth",
    "street": "15 B, near Indora Square",
    "city": "Nagpur",
    "postalCode": "440017",
    "state": "Maharashtra",
    "countryCode": "IN",
    "website": "https://www.poojacarrental.com/",
    "phone": "+918928777773",
    "phoneUnformatted": "+918928777773",
    "location": {
      "lat": 21.1702481,
      "lng": 79.106383
    },
    "totalScore": 4.8,
    "permanentlyClosed": false,
    "temporarilyClosed": false,
    "placeId": "ChIJx3qjDirB1DsRTekfprN8Wy0",
    "categories": [
      "Car rental agency",
      "Bus tour agency",
      "Car leasing service",
      "Minibus taxi service",
      "Taxi service",
      "Travel agency"
    ],
    "reviewsCount": 103,
    "imagesCount": 74,
    "openingHours": [
      {
        "day": "Monday",
        "hours": "Open 24 hours"
      },
      {
        "day": "Tuesday",
        "hours": "Open 24 hours"
      },
      {
        "day": "Wednesday",
        "hours": "Open 24 hours"
      },
      {
        "day": "Thursday",
        "hours": "Open 24 hours"
      },
      {
        "day": "Friday",
        "hours": "Open 24 hours"
      },
      {
        "day": "Saturday",
        "hours": "Open 24 hours"
      },
      {
        "day": "Sunday",
        "hours": "Open 24 hours"
      }
    ],
    "imageUrl": "https://media.indianluxurycars.com/google/7c1833980aa79ff16287e5806b2c71f57249bd6180624ce47f5a70dac2b95910.jpg",
    "url": "https://www.google.com/maps/search/?api=1&query=Pooja%20Car%20Rental%20Service%20In%20Nagpur%2C%20Taxi%20Service%2C%20Car%20Hire%2C%20Cab%20Services%20In%20Nagpur&query_place_id=ChIJx3qjDirB1DsRTekfprN8Wy0"
  },
  {
    "title": "Pre Owned Cars Nagpur",
    "subTitle": "प्री ओन्ड कार्स नागपुर",
    "categoryName": "Used car dealer",
    "address": "Plot No 77, Shivaji Nagar Main Road, Dharampeth, near Shankar Nagar, Shankar Nagar, Sqaure, Nagpur, Maharashtra 440010, India",
    "neighborhood": "Shankar Nagar, Sqaure",
    "street": "Plot No 77, Shivaji Nagar Main Road, Dharampeth, near Shankar Nagar",
    "city": "Nagpur",
    "postalCode": "440010",
    "state": "Maharashtra",
    "countryCode": "IN",
    "phone": "+919930565555",
    "phoneUnformatted": "+919930565555",
    "location": {
      "lat": 21.135386,
      "lng": 79.057318
    },
    "totalScore": 3.3,
    "permanentlyClosed": false,
    "temporarilyClosed": true,
    "placeId": "ChIJLzMxNLnB1DsRWR4DI-TCY5I",
    "categories": [
      "Used car dealer",
      "Auto broker",
      "Car dealer",
      "Motor vehicle dealer",
      "Vehicle inspection service"
    ],
    "reviewsCount": 3,
    "imagesCount": 9,
    "openingHours": [],
    "imageUrl": "https://media.indianluxurycars.com/google/f31356727ba37dcf5a9012ccd1c757143bdcb35e5fc8255de51115b2bf0378f2.jpg",
    "url": "https://www.google.com/maps/search/?api=1&query=Pre%20Owned%20Cars%20Nagpur&query_place_id=ChIJLzMxNLnB1DsRWR4DI-TCY5I"
  },
  {
    "title": "Ramesh Tours & Travels | Best Travel Agency and Taxi Services in Nagpur",
    "subTitle": "रमेश टूर्स & ट्रैवल्स | बेस्ट ट्रैवल एजेंसी एंड टैक्सी सर्विसेस इन नागपुर",
    "categoryName": "Car rental agency",
    "address": "Plot No 32, Jagrut Nagar, Viktu Baba Nagar, beside The Warrior Gym, Jaripatka, Nagpur, Maharashtra 440014, India",
    "neighborhood": "Jagrut Nagar, Jaripatka",
    "street": "Plot No 32, Jagrut Nagar, Viktu Baba Nagar, beside The Warrior Gym",
    "city": "Nagpur",
    "postalCode": "440014",
    "state": "Maharashtra",
    "countryCode": "IN",
    "website": "https://www.mytripkart.in/orfjj1",
    "phone": "+919503437099",
    "phoneUnformatted": "+919503437099",
    "location": {
      "lat": 21.1880651,
      "lng": 79.0987191
    },
    "totalScore": 4.9,
    "permanentlyClosed": false,
    "temporarilyClosed": false,
    "placeId": "ChIJ6wchaVvB1DsR4qVGuHNMkjI",
    "categories": [
      "Car rental agency",
      "Airline ticket agency",
      "Bus tour agency",
      "Tour operator",
      "Sightseeing tour agency",
      "Taxi service",
      "Tour agency",
      "Tourist attraction",
      "Train ticket agency",
      "Travel agency"
    ],
    "reviewsCount": 17,
    "imagesCount": 50,
    "openingHours": [
      {
        "day": "Monday",
        "hours": "Open 24 hours"
      },
      {
        "day": "Tuesday",
        "hours": "Open 24 hours"
      },
      {
        "day": "Wednesday",
        "hours": "Open 24 hours"
      },
      {
        "day": "Thursday",
        "hours": "Open 24 hours"
      },
      {
        "day": "Friday",
        "hours": "Open 24 hours"
      },
      {
        "day": "Saturday",
        "hours": "Open 24 hours"
      },
      {
        "day": "Sunday",
        "hours": "Open 24 hours"
      }
    ],
    "imageUrl": "https://media.indianluxurycars.com/google/c739d686aed27a0f389df9c44ac3d9ff470d7f43d78673700ee3516153e868c9.png",
    "url": "https://www.google.com/maps/search/?api=1&query=Ramesh%20Tours%20%26%20Travels%20%7C%20Best%20Travel%20Agency%20and%20Taxi%20Services%20in%20Nagpur&query_place_id=ChIJ6wchaVvB1DsR4qVGuHNMkjI"
  },
  {
    "title": "RC Tours & Travels",
    "subTitle": "आरसी टूर्स & ट्रैवल्स",
    "categoryName": "Car rental agency",
    "address": "No 171, Umred Rd, near Maruti Mandiri, Dighori, Nagpur, Maharashtra 440034, India",
    "neighborhood": "Dighori",
    "street": "No 171, Umred Rd, near Maruti Mandiri",
    "city": "Nagpur",
    "postalCode": "440034",
    "state": "Maharashtra",
    "countryCode": "IN",
    "website": "https://rctoursandtravels.in/",
    "phone": "+919172271464",
    "phoneUnformatted": "+919172271464",
    "location": {
      "lat": 21.1135363,
      "lng": 79.1345156
    },
    "totalScore": 5,
    "permanentlyClosed": false,
    "temporarilyClosed": false,
    "placeId": "ChIJv3JNlzG51DsR2Jv-jQBlWNI",
    "categories": [
      "Car rental agency"
    ],
    "reviewsCount": 2,
    "imagesCount": 10,
    "openingHours": [
      {
        "day": "Monday",
        "hours": "Open 24 hours"
      },
      {
        "day": "Tuesday",
        "hours": "Open 24 hours"
      },
      {
        "day": "Wednesday",
        "hours": "Open 24 hours"
      },
      {
        "day": "Thursday",
        "hours": "Open 24 hours"
      },
      {
        "day": "Friday",
        "hours": "Open 24 hours"
      },
      {
        "day": "Saturday",
        "hours": "Open 24 hours"
      },
      {
        "day": "Sunday",
        "hours": "Open 24 hours"
      }
    ],
    "imageUrl": "https://media.indianluxurycars.com/google/e35d92d5927a0edf0197a8c57f04717734b2bf24cb49c8cd261aa71387f5f231.jpg",
    "url": "https://www.google.com/maps/search/?api=1&query=RC%20Tours%20%26%20Travels&query_place_id=ChIJv3JNlzG51DsR2Jv-jQBlWNI"
  },
  {
    "title": "RentOServices",
    "subTitle": "रेंटोसर्विसेज",
    "categoryName": "Car leasing service",
    "address": "6611A/134, Hanuman Mandir Rd, Swaraj Nagar, Manewada, Nagpur, Maharashtra 440027, India",
    "neighborhood": "Swaraj Nagar, Manewada",
    "street": "6611A/134, Hanuman Mandir Rd",
    "city": "Nagpur",
    "postalCode": "440027",
    "state": "Maharashtra",
    "countryCode": "IN",
    "website": "https://rentoservices.karmicnexus.com/",
    "phone": "+919404246181",
    "phoneUnformatted": "+919404246181",
    "location": {
      "lat": 21.103529,
      "lng": 79.0947893
    },
    "permanentlyClosed": false,
    "temporarilyClosed": false,
    "placeId": "ChIJcc5mhQi_1DsR3jdfYxNjStI",
    "categories": [
      "Car leasing service"
    ],
    "imagesCount": 31,
    "openingHours": [
      {
        "day": "Monday",
        "hours": "Open 24 hours"
      },
      {
        "day": "Tuesday",
        "hours": "Open 24 hours"
      },
      {
        "day": "Wednesday",
        "hours": "Open 24 hours"
      },
      {
        "day": "Thursday",
        "hours": "Open 24 hours"
      },
      {
        "day": "Friday",
        "hours": "Open 24 hours"
      },
      {
        "day": "Saturday",
        "hours": "Open 24 hours"
      },
      {
        "day": "Sunday",
        "hours": "Open 24 hours"
      }
    ],
    "imageUrl": "https://media.indianluxurycars.com/google/9bfe77a1a6795c08ae873b30870e5a1829dda2d88e3ac31658c69bff21d08437.png",
    "url": "https://www.google.com/maps/search/?api=1&query=RentOServices&query_place_id=ChIJcc5mhQi_1DsR3jdfYxNjStI"
  },
  {
    "title": "RENUKA TRAVELS",
    "subTitle": "रेणुका ट्रैवल्स",
    "categoryName": "Car leasing service",
    "address": "Shivranjani Apartments, 39, Congress Nagar, Nagpur, Maharashtra 440012, India",
    "neighborhood": "Congress Nagar, Dhantoli",
    "street": "Shivranjani Apartments, 39",
    "city": "Nagpur",
    "postalCode": "440012",
    "state": "Maharashtra",
    "countryCode": "IN",
    "website": "https://www.renukatravels.com/",
    "phone": "+919623451353",
    "phoneUnformatted": "+919623451353",
    "location": {
      "lat": 21.1317713,
      "lng": 79.084551
    },
    "totalScore": 5,
    "permanentlyClosed": false,
    "temporarilyClosed": false,
    "placeId": "ChIJyzlcvTvB1DsRd74m5lDgVKk",
    "categories": [
      "Car leasing service"
    ],
    "reviewsCount": 3,
    "imagesCount": 8,
    "openingHours": [
      {
        "day": "Monday",
        "hours": "Open 24 hours"
      },
      {
        "day": "Tuesday",
        "hours": "Open 24 hours"
      },
      {
        "day": "Wednesday",
        "hours": "Open 24 hours"
      },
      {
        "day": "Thursday",
        "hours": "Open 24 hours"
      },
      {
        "day": "Friday",
        "hours": "Open 24 hours"
      },
      {
        "day": "Saturday",
        "hours": "Open 24 hours"
      },
      {
        "day": "Sunday",
        "hours": "Open 24 hours"
      }
    ],
    "imageUrl": "https://media.indianluxurycars.com/google/494440909c81474f917b07542b4e6f4fc7294ab448bdec170e5fd0e3d6de3eef.jpg",
    "url": "https://www.google.com/maps/search/?api=1&query=RENUKA%20TRAVELS&query_place_id=ChIJyzlcvTvB1DsRd74m5lDgVKk"
  },
  {
    "title": "Rich Drive Luxury",
    "subTitle": "रिच ड्राइव लक्जरी",
    "categoryName": "Car dealer",
    "address": "77, Chitnis Park, Beside Ghate Resturant MAHAL Nagpur 440018, Nagpur, Maharashtra 440032, India",
    "neighborhood": "Empress City",
    "street": "77, Chitnis Park, Beside Ghate Resturant MAHAL Nagpur 440018",
    "city": "Nagpur",
    "postalCode": "440032",
    "state": "Maharashtra",
    "countryCode": "IN",
    "phone": "+918055558005",
    "phoneUnformatted": "+918055558005",
    "location": {
      "lat": 21.1469675,
      "lng": 79.1036144
    },
    "totalScore": 4.7,
    "permanentlyClosed": false,
    "temporarilyClosed": false,
    "placeId": "ChIJmQnd7TfB1DsR8fZniB4MItk",
    "categories": [
      "Car dealer",
      "Audi dealer",
      "BMW dealer",
      "Car factory",
      "Jaguar dealer",
      "Mercedes-Benz dealer",
      "MINI dealer",
      "Smart Car dealer"
    ],
    "reviewsCount": 19,
    "imagesCount": 29,
    "openingHours": [
      {
        "day": "Monday",
        "hours": "11 AM to 8 PM"
      },
      {
        "day": "Tuesday",
        "hours": "11 AM to 8 PM"
      },
      {
        "day": "Wednesday",
        "hours": "11 AM to 8 PM"
      },
      {
        "day": "Thursday",
        "hours": "11 AM to 8 PM"
      },
      {
        "day": "Friday",
        "hours": "11 AM to 8 PM"
      },
      {
        "day": "Saturday",
        "hours": "11 AM to 8 PM"
      },
      {
        "day": "Sunday",
        "hours": "12 to 6 PM"
      }
    ],
    "imageUrl": "https://media.indianluxurycars.com/google/72132ae129901901b4058e78d75663e73595ef4b488c66764ed89a6845cca8a3.jpg",
    "url": "https://www.google.com/maps/search/?api=1&query=Rich%20Drive%20Luxury&query_place_id=ChIJmQnd7TfB1DsR8fZniB4MItk"
  },
  {
    "title": "rideexchanges.com - Verified Used Cars Nagpur",
    "subTitle": "राइडइक्सचेंजस.कॉम - वेरिफाइड यूज्ड कार्स नागपुर",
    "categoryName": "Used car dealer",
    "address": "Nandanvan, Nagpur, Maharashtra 440024, India",
    "neighborhood": "Nandanvan",
    "city": "Nagpur",
    "postalCode": "440024",
    "state": "Maharashtra",
    "countryCode": "IN",
    "website": "https://rideexchanges.com/",
    "phone": "+919356499244",
    "phoneUnformatted": "+919356499244",
    "location": {
      "lat": 21.1338643,
      "lng": 79.1308067
    },
    "totalScore": 5,
    "permanentlyClosed": false,
    "temporarilyClosed": false,
    "placeId": "ChIJkwnNsnmXtCgRcnr9SUQ7ZRY",
    "categories": [
      "Used car dealer"
    ],
    "reviewsCount": 10,
    "imagesCount": 15,
    "openingHours": [
      {
        "day": "Monday",
        "hours": "Open 24 hours"
      },
      {
        "day": "Tuesday",
        "hours": "Open 24 hours"
      },
      {
        "day": "Wednesday",
        "hours": "Open 24 hours"
      },
      {
        "day": "Thursday",
        "hours": "Open 24 hours"
      },
      {
        "day": "Friday",
        "hours": "Open 24 hours"
      },
      {
        "day": "Saturday",
        "hours": "Open 24 hours"
      },
      {
        "day": "Sunday",
        "hours": "Open 24 hours"
      }
    ],
    "imageUrl": "https://media.indianluxurycars.com/google/4361f80698819a481e5cd967872efe07f550cba737c9c63a8f32d6f9b7797e79.jpg",
    "url": "https://www.google.com/maps/search/?api=1&query=rideexchanges.com%20-%20Verified%20Used%20Cars%20Nagpur&query_place_id=ChIJkwnNsnmXtCgRcnr9SUQ7ZRY"
  },
  {
    "title": "Royal car's",
    "categoryName": "Car dealer",
    "address": "Borgaon gorewada road, near dinshaw's factory, Nagpur, Maharashtra 440013, India",
    "neighborhood": "BUPESHNAGAR",
    "street": "Borgaon gorewada road, near dinshaw's factory",
    "city": "Nagpur",
    "postalCode": "440013",
    "state": "Maharashtra",
    "countryCode": "IN",
    "phone": "+919372079888",
    "phoneUnformatted": "+919372079888",
    "location": {
      "lat": 21.1779452,
      "lng": 79.0550589
    },
    "totalScore": 4.4,
    "permanentlyClosed": false,
    "temporarilyClosed": false,
    "placeId": "ChIJZ2yoia_B1DsRDPPYxU1hsrk",
    "categories": [
      "Car dealer"
    ],
    "reviewsCount": 18,
    "imagesCount": 30,
    "openingHours": [
      {
        "day": "Monday",
        "hours": "8 AM to 9 PM"
      },
      {
        "day": "Tuesday",
        "hours": "8 AM to 9 PM"
      },
      {
        "day": "Wednesday",
        "hours": "8 AM to 9 PM"
      },
      {
        "day": "Thursday",
        "hours": "8 AM to 9 PM"
      },
      {
        "day": "Friday",
        "hours": "8 AM to 9 PM"
      },
      {
        "day": "Saturday",
        "hours": "8 AM to 9 PM"
      },
      {
        "day": "Sunday",
        "hours": "8 AM to 9 PM"
      }
    ],
    "imageUrl": "https://media.indianluxurycars.com/google/5db0fd0946ce94f60ccd3dfb376b94ef3694ccfc112c931e55f18a9ca5a32522.jpg",
    "url": "https://www.google.com/maps/search/?api=1&query=Royal%20car's&query_place_id=ChIJZ2yoia_B1DsRDPPYxU1hsrk"
  },
  {
    "title": "RS Car Accessories",
    "subTitle": "आर एस कार अक्सेसरीज",
    "categoryName": "Car accessories store",
    "address": "510, Western Palace, opposite Park, Congress Nagar, Nagpur, Maharashtra 440012, India",
    "neighborhood": "Congress Nagar, Dhantoli",
    "street": "510, Western Palace, opposite Park",
    "city": "Nagpur",
    "postalCode": "440012",
    "state": "Maharashtra",
    "countryCode": "IN",
    "website": "http://rscaraccessories.net/",
    "phone": "+918149111110",
    "phoneUnformatted": "+918149111110",
    "location": {
      "lat": 21.130833,
      "lng": 79.083264
    },
    "totalScore": 4.8,
    "permanentlyClosed": false,
    "temporarilyClosed": false,
    "placeId": "ChIJ4c9Cu5nA1DsRQEds9UoHnoI",
    "categories": [
      "Car accessories store",
      "Auto accessories wholesaler",
      "Auto care products store",
      "Auto parts store",
      "Auto window tinting service",
      "Car stereo store",
      "Upholstery shop"
    ],
    "reviewsCount": 442,
    "imagesCount": 108,
    "openingHours": [
      {
        "day": "Monday",
        "hours": "11 AM to 7 PM"
      },
      {
        "day": "Tuesday",
        "hours": "11 AM to 7 PM"
      },
      {
        "day": "Wednesday",
        "hours": "11 AM to 7 PM"
      },
      {
        "day": "Thursday",
        "hours": "11 AM to 7 PM"
      },
      {
        "day": "Friday",
        "hours": "11 AM to 7 PM"
      },
      {
        "day": "Saturday",
        "hours": "11 AM to 7 PM"
      },
      {
        "day": "Sunday",
        "hours": "Closed"
      }
    ],
    "imageUrl": "https://media.indianluxurycars.com/google/6fbb5a7877797747396ef3474932bd6959a9eafe01090858d261a25668a4c9e5.jpg",
    "url": "https://www.google.com/maps/search/?api=1&query=RS%20Car%20Accessories&query_place_id=ChIJ4c9Cu5nA1DsRQEds9UoHnoI"
  },
  {
    "title": "Rushikesh tours and travels",
    "subTitle": "ऋषिकेश दौरे आणि ट्रेवल्स",
    "categoryName": "Car rental agency",
    "address": "Bajrang nagar road Savitri bai phule nagar, Maharashtra 440027, India",
    "neighborhood": "Vishwakarma Nagar, Welekar Nagar",
    "street": "Bajrang nagar road Savitri bai phule nagar",
    "city": "Nagpur",
    "postalCode": "440027",
    "state": "Maharashtra",
    "countryCode": "IN",
    "location": {
      "lat": 21.1184493,
      "lng": 79.1016485
    },
    "totalScore": 5,
    "permanentlyClosed": false,
    "temporarilyClosed": true,
    "placeId": "ChIJYwMsbri_1DsRWT-CqLEkBHI",
    "categories": [
      "Car rental agency",
      "Car leasing service"
    ],
    "reviewsCount": 4,
    "imagesCount": 18,
    "openingHours": [],
    "imageUrl": "https://media.indianluxurycars.com/google/3ae63c6d50a03bafe4f506bf250632866238a7dc40a4d880b0207aea31b03546.jpg",
    "url": "https://www.google.com/maps/search/?api=1&query=Rushikesh%20tours%20and%20travels&query_place_id=ChIJYwMsbri_1DsRWT-CqLEkBHI"
  },
  {
    "title": "Sai Cabs Car Rental",
    "subTitle": "साई कैब्स कार रेंटल",
    "categoryName": "Car rental agency",
    "address": "Brijmohan Nivas, behind Police Line Takli, opp. Tirupati Bank, Samadhan Nagar, Jafar Nagar, Police Line Takli, Nagpur, Maharashtra 440013, India",
    "neighborhood": "Samadhan Nagar, Jafar Nagar, Police Line Takli",
    "street": "Brijmohan Nivas, behind Police Line Takli, opp. Tirupati Bank",
    "city": "Nagpur",
    "postalCode": "440013",
    "state": "Maharashtra",
    "countryCode": "IN",
    "website": "https://saicabsrental.com/",
    "phone": "+919405973633",
    "phoneUnformatted": "+919405973633",
    "location": {
      "lat": 21.1809854,
      "lng": 79.0653306
    },
    "totalScore": 4.9,
    "permanentlyClosed": false,
    "temporarilyClosed": false,
    "placeId": "ChIJ77ctsgHB1DsR2ZkezuEIBpY",
    "categories": [
      "Car rental agency",
      "Airport shuttle service",
      "Car leasing service",
      "Taxi service",
      "Minibus taxi service",
      "Tour operator",
      "Transportation service",
      "Travel agency",
      "Van rental agency"
    ],
    "reviewsCount": 499,
    "imagesCount": 287,
    "openingHours": [],
    "imageUrl": "https://media.indianluxurycars.com/google/351df406b4c60908fedf995a287488a234d1e2e14c63e6dc087b6d3f0edc41d2.png",
    "url": "https://www.google.com/maps/search/?api=1&query=Sai%20Cabs%20Car%20Rental&query_place_id=ChIJ77ctsgHB1DsR2ZkezuEIBpY"
  },
  {
    "title": "Sai Motors (Pre Owned Luxury Car Dealer)",
    "subTitle": "साई मोटर्स (प्री ओन्ड लक्जरी कार डीलर)",
    "categoryName": "Used car dealer",
    "address": "577, Mata Mandir Road, Baji Prabhu Deshpande Chowk, Gokulpeth, Nagpur, Maharashtra 440010, India",
    "neighborhood": "Gokulpeth",
    "street": "577, Mata Mandir Road, Baji Prabhu Deshpande Chowk",
    "city": "Nagpur",
    "postalCode": "440010",
    "state": "Maharashtra",
    "countryCode": "IN",
    "location": {
      "lat": 21.1408343,
      "lng": 79.0568173
    },
    "totalScore": 4.2,
    "permanentlyClosed": false,
    "temporarilyClosed": false,
    "placeId": "ChIJWdq9tnrB1DsRc3m3-9Hfe_k",
    "categories": [
      "Used car dealer"
    ],
    "reviewsCount": 6,
    "imagesCount": 6,
    "openingHours": [
      {
        "day": "Monday",
        "hours": "Open 24 hours"
      },
      {
        "day": "Tuesday",
        "hours": "Open 24 hours"
      },
      {
        "day": "Wednesday",
        "hours": "Open 24 hours"
      },
      {
        "day": "Thursday",
        "hours": "Open 24 hours"
      },
      {
        "day": "Friday",
        "hours": "Open 24 hours"
      },
      {
        "day": "Saturday",
        "hours": "Open 24 hours"
      },
      {
        "day": "Sunday",
        "hours": "Closed"
      }
    ],
    "imageUrl": "https://media.indianluxurycars.com/google/d0d51a3c7c740a5c5073f82f47be7aaf8e1f33874330f7ea86ce5f40d7bda930.jpg",
    "url": "https://www.google.com/maps/search/?api=1&query=Sai%20Motors%20(Pre%20Owned%20Luxury%20Car%20Dealer)&query_place_id=ChIJWdq9tnrB1DsRc3m3-9Hfe_k"
  },
  {
    "title": "SAIRAM MOTORS",
    "subTitle": "साईराम मोटर्स",
    "categoryName": "Car dealer",
    "address": "tathagat chowk,ring road,jaripatka, 14, Jagrut Nagar, Nari Village, Nagpur, Maharashtra 440014, India",
    "neighborhood": "Jagrut Nagar, Nari Village",
    "street": "tathagat chowk,ring road,jaripatka, 14",
    "city": "Nagpur",
    "postalCode": "440014",
    "state": "Maharashtra",
    "countryCode": "IN",
    "phone": "+918446767644",
    "phoneUnformatted": "+918446767644",
    "location": {
      "lat": 21.188711,
      "lng": 79.099358
    },
    "totalScore": 4.1,
    "permanentlyClosed": false,
    "temporarilyClosed": false,
    "placeId": "ChIJeUDnuW3B1DsRt4dK2-hlICg",
    "categories": [
      "Car dealer"
    ],
    "reviewsCount": 13,
    "imagesCount": 44,
    "openingHours": [
      {
        "day": "Monday",
        "hours": "11 AM to 8 PM"
      },
      {
        "day": "Tuesday",
        "hours": "11 AM to 8 PM"
      },
      {
        "day": "Wednesday",
        "hours": "11 AM to 8 PM"
      },
      {
        "day": "Thursday",
        "hours": "11 AM to 8 PM"
      },
      {
        "day": "Friday",
        "hours": "11 AM to 8 PM"
      },
      {
        "day": "Saturday",
        "hours": "11 AM to 8 PM"
      },
      {
        "day": "Sunday",
        "hours": "11 AM to 4 PM"
      }
    ],
    "imageUrl": "https://media.indianluxurycars.com/google/ad7b2f517c3dd7a0caf9fd17a5bab749f1e09eabff9f8009f99b232e80a43986.jpg",
    "url": "https://www.google.com/maps/search/?api=1&query=SAIRAM%20MOTORS&query_place_id=ChIJeUDnuW3B1DsRt4dK2-hlICg"
  },
  {
    "title": "Sambodhi Tours and Travels",
    "subTitle": "सम्बोधि टूर्स एंड ट्रैवल्स",
    "categoryName": "Car rental agency",
    "address": "plot no 68, Natraj Housing Society, Utthan Nagar, Anant Nagar, Nagpur, Maharashtra 440013, India",
    "neighborhood": "Natraj Housing Society, Utthan Nagar, Anant Nagar",
    "street": "plot no 68",
    "city": "Nagpur",
    "postalCode": "440013",
    "state": "Maharashtra",
    "countryCode": "IN",
    "phone": "+918956104004",
    "phoneUnformatted": "+918956104004",
    "location": {
      "lat": 21.1910995,
      "lng": 79.0515652
    },
    "totalScore": 4.9,
    "permanentlyClosed": false,
    "temporarilyClosed": false,
    "placeId": "ChIJi-LxvJbB1DsRCVlOkn0fp14",
    "categories": [
      "Car rental agency",
      "Car leasing service",
      "Taxi service",
      "Rental car return location"
    ],
    "reviewsCount": 128,
    "imagesCount": 44,
    "openingHours": [],
    "imageUrl": "https://media.indianluxurycars.com/google/8e133a045c9a362e4b217e5012fb9212504ef10b8da8350a5600a9ebe879171b.jpg",
    "url": "https://www.google.com/maps/search/?api=1&query=Sambodhi%20Tours%20and%20Travels&query_place_id=ChIJi-LxvJbB1DsRCVlOkn0fp14"
  },
  {
    "title": "Satish Car Rental Services",
    "subTitle": "सतीश कार रेंटल सर्विसेस",
    "categoryName": "Car rental agency",
    "address": "1111A/73, tekdi, behind babasahebambeedkar statue 44001, Ambazari, Nagpur, Maharashtra 440033, India",
    "neighborhood": "Sudam Nagar, Ambazari",
    "street": "1111A/73, tekdi, behind babasahebambeedkar statue 44001",
    "city": "Nagpur",
    "postalCode": "440033",
    "state": "Maharashtra",
    "countryCode": "IN",
    "phone": "+919764582258",
    "phoneUnformatted": "+919764582258",
    "location": {
      "lat": 21.1341149,
      "lng": 79.0507742
    },
    "totalScore": 4.8,
    "permanentlyClosed": false,
    "temporarilyClosed": false,
    "placeId": "ChIJR4GuBm_A1DsRH8OEJG1T5vs",
    "categories": [
      "Car rental agency"
    ],
    "reviewsCount": 46,
    "imagesCount": 99,
    "openingHours": [
      {
        "day": "Monday",
        "hours": "Open 24 hours"
      },
      {
        "day": "Tuesday",
        "hours": "Open 24 hours"
      },
      {
        "day": "Wednesday",
        "hours": "Open 24 hours"
      },
      {
        "day": "Thursday",
        "hours": "Open 24 hours"
      },
      {
        "day": "Friday",
        "hours": "Open 24 hours"
      },
      {
        "day": "Saturday",
        "hours": "Open 24 hours"
      },
      {
        "day": "Sunday",
        "hours": "Open 24 hours"
      }
    ],
    "imageUrl": "https://media.indianluxurycars.com/google/467c95bab9fe4b4a68ce95bbd402da760b29ed9b3ac8e97790f864fb66f0d91a.jpg",
    "url": "https://www.google.com/maps/search/?api=1&query=Satish%20Car%20Rental%20Services&query_place_id=ChIJR4GuBm_A1DsRH8OEJG1T5vs"
  },
  {
    "title": "SGM Car Rental Service - Car Rental In Nagpur, Taxi Services In Nagpur, Airport Taxi Services In Nagpur",
    "subTitle": "एसजीएम कार रेंटल सर्विस - कार रेंटल इन नागपुर, टैक्सी सर्विसेस इन नागपुर, एयरपोर्ट टैक्सी सर्विसेस इन नागपुर",
    "categoryName": "Car rental agency",
    "address": "Plot no 92,Sarai peth, near Durga mata mandir, Ashok chowk, Nagpur, Maharashtra 440024, India",
    "neighborhood": "Ashok chowk",
    "street": "Plot no 92,Sarai peth, near Durga mata mandir",
    "city": "Nagpur",
    "postalCode": "440024",
    "state": "Maharashtra",
    "countryCode": "IN",
    "website": "https://wa.link/jv30nz",
    "phone": "+919371317110",
    "phoneUnformatted": "+919371317110",
    "location": {
      "lat": 21.1361438,
      "lng": 79.1036285
    },
    "totalScore": 5,
    "permanentlyClosed": false,
    "temporarilyClosed": false,
    "placeId": "ChIJU6YjtebB1DsRnMNIGc6LDEY",
    "categories": [
      "Car rental agency",
      "Air taxi",
      "Car leasing service",
      "Minibus taxi service",
      "Taxi service"
    ],
    "reviewsCount": 76,
    "imagesCount": 37,
    "openingHours": [
      {
        "day": "Monday",
        "hours": "Open 24 hours"
      },
      {
        "day": "Tuesday",
        "hours": "Open 24 hours"
      },
      {
        "day": "Wednesday",
        "hours": "Open 24 hours"
      },
      {
        "day": "Thursday",
        "hours": "Open 24 hours"
      },
      {
        "day": "Friday",
        "hours": "Open 24 hours"
      },
      {
        "day": "Saturday",
        "hours": "Open 24 hours"
      },
      {
        "day": "Sunday",
        "hours": "Open 24 hours"
      }
    ],
    "imageUrl": "https://media.indianluxurycars.com/google/cbf192e03d1cb5eeca09399c1b2d4f61fac63a961030710884071d8321777a96.jpg",
    "url": "https://www.google.com/maps/search/?api=1&query=SGM%20Car%20Rental%20Service%20-%20Car%20Rental%20In%20Nagpur%2C%20Taxi%20Services%20In%20Nagpur%2C%20Airport%20Taxi%20Services%20In%20Nagpur&query_place_id=ChIJU6YjtebB1DsRnMNIGc6LDEY"
  },
  {
    "title": "SHIVANI TOUR & TRAVELS AGENCY",
    "subTitle": "शिवानी टूर & ट्रैवल्स एजेंसी",
    "categoryName": "Car leasing service",
    "address": "C/O S.D.SALAME, PLOT NO 02,2ND BUS, Gopal Nagar, Nagpur, Maharashtra 440022, India",
    "neighborhood": "Gopal Nagar, Kotwal Nagar, Pratap Nagar",
    "street": "C/O S.D.SALAME, PLOT NO 02,2ND BUS",
    "city": "Nagpur",
    "postalCode": "440022",
    "state": "Maharashtra",
    "countryCode": "IN",
    "phone": "+917276548313",
    "phoneUnformatted": "+917276548313",
    "location": {
      "lat": 21.1218208,
      "lng": 79.0566066
    },
    "totalScore": 4.9,
    "permanentlyClosed": false,
    "temporarilyClosed": false,
    "placeId": "ChIJGe7LrIXB1DsREsHDN8oQdNk",
    "categories": [
      "Car leasing service",
      "Taxi service",
      "Tour operator"
    ],
    "reviewsCount": 76,
    "imagesCount": 114,
    "openingHours": [
      {
        "day": "Monday",
        "hours": "Open 24 hours"
      },
      {
        "day": "Tuesday",
        "hours": "Open 24 hours"
      },
      {
        "day": "Wednesday",
        "hours": "Open 24 hours"
      },
      {
        "day": "Thursday",
        "hours": "Open 24 hours"
      },
      {
        "day": "Friday",
        "hours": "Open 24 hours"
      },
      {
        "day": "Saturday",
        "hours": "Open 24 hours"
      },
      {
        "day": "Sunday",
        "hours": "Open 24 hours"
      }
    ],
    "imageUrl": "https://media.indianluxurycars.com/google/f9b632ef78a98c194c651e4139caa741272eb53a2e93a1ae70f83eccd33501c0.jpg",
    "url": "https://www.google.com/maps/search/?api=1&query=SHIVANI%20TOUR%20%26%20TRAVELS%20AGENCY&query_place_id=ChIJGe7LrIXB1DsREsHDN8oQdNk"
  },
  {
    "title": "Shree Mahalaxmi Motors | Used Cars for Sale & Purchase| Car Insurance & Finance in Nagpur",
    "subTitle": "श्री महालक्ष्मी मोटर्स | यूज्ड कार्स फॉर सेल & परचेस| कार इंश्योरेंस & फाइनेंस इन नागपुर",
    "categoryName": "Car dealer",
    "address": "Shobha Tower, car market, plot no 3, Ghat Rd, Sardar Patel Square, Sitabuldi, Nagpur, Maharashtra 440018, India",
    "neighborhood": "Sardar Patel Square, Sitabuldi",
    "street": "Shobha Tower, car market, plot no 3, Ghat Rd",
    "city": "Nagpur",
    "postalCode": "440018",
    "state": "Maharashtra",
    "countryCode": "IN",
    "website": "https://wa.me/919021688545",
    "phone": "+919021688545",
    "phoneUnformatted": "+919021688545",
    "location": {
      "lat": 21.138124,
      "lng": 79.0893252
    },
    "totalScore": 4.9,
    "permanentlyClosed": false,
    "temporarilyClosed": false,
    "placeId": "ChIJs3Mez73A1DsR2eBJ4RScFmg",
    "categories": [
      "Car dealer",
      "Finance broker",
      "Used car dealer"
    ],
    "reviewsCount": 9,
    "imagesCount": 14,
    "openingHours": [
      {
        "day": "Monday",
        "hours": "10 AM to 8 PM"
      },
      {
        "day": "Tuesday",
        "hours": "10 AM to 8 PM"
      },
      {
        "day": "Wednesday",
        "hours": "10 AM to 8 PM"
      },
      {
        "day": "Thursday",
        "hours": "10 AM to 8 PM"
      },
      {
        "day": "Friday",
        "hours": "10 AM to 8 PM"
      },
      {
        "day": "Saturday",
        "hours": "10 AM to 8 PM"
      },
      {
        "day": "Sunday",
        "hours": "Closed"
      }
    ],
    "imageUrl": "https://media.indianluxurycars.com/google/0ff7b77d00586d149d6658343b50edaa5679fc4cdb9ea1869eb04664dd6c93ad.jpg",
    "url": "https://www.google.com/maps/search/?api=1&query=Shree%20Mahalaxmi%20Motors%20%7C%20Used%20Cars%20for%20Sale%20%26%20Purchase%7C%20Car%20Insurance%20%26%20Finance%20in%20Nagpur&query_place_id=ChIJs3Mez73A1DsR2eBJ4RScFmg"
  },
  {
    "title": "Shri Bala Sai Car Rental Service In Nagpur | Car Rental For Outstation | Luxury Car Rental | Taxi Service in Nagpur",
    "subTitle": "श्री बाला साई कार रेंटल",
    "categoryName": "Car rental agency",
    "address": "Jawaharmal Joshi Layout, Plot No : 22, 3rd Bus Stop, Gopal Nagar, Pratap Nagar, Nagpur, Maharashtra 440022, India",
    "neighborhood": "3rd Bus Stop, Gopal Nagar, Pratap Nagar",
    "street": "Jawaharmal Joshi Layout, Plot No : 22",
    "city": "Nagpur",
    "postalCode": "440022",
    "state": "Maharashtra",
    "countryCode": "IN",
    "website": "https://www.balasaitours.com/",
    "phone": "+919356700544",
    "phoneUnformatted": "+919356700544",
    "location": {
      "lat": 21.1177928,
      "lng": 79.0490878
    },
    "totalScore": 5,
    "permanentlyClosed": false,
    "temporarilyClosed": false,
    "placeId": "ChIJNxAyvQu_1DsRA00dkGtuYyA",
    "categories": [
      "Car rental agency",
      "Car leasing service",
      "Minibus taxi service",
      "Taxi service"
    ],
    "reviewsCount": 210,
    "imagesCount": 68,
    "openingHours": [
      {
        "day": "Monday",
        "hours": "Open 24 hours"
      },
      {
        "day": "Tuesday",
        "hours": "Open 24 hours"
      },
      {
        "day": "Wednesday",
        "hours": "Open 24 hours"
      },
      {
        "day": "Thursday",
        "hours": "Open 24 hours"
      },
      {
        "day": "Friday",
        "hours": "Open 24 hours"
      },
      {
        "day": "Saturday",
        "hours": "Open 24 hours"
      },
      {
        "day": "Sunday",
        "hours": "Open 24 hours"
      }
    ],
    "imageUrl": "https://media.indianluxurycars.com/google/60d9b58132b7c24eb991c2760ec7fc93a5e2edc71b08075049e323e31fcaac4d.jpg",
    "url": "https://www.google.com/maps/search/?api=1&query=Shri%20Bala%20Sai%20Car%20Rental%20Service%20In%20Nagpur%20%7C%20Car%20Rental%20For%20Outstation%20%7C%20Luxury%20Car%20Rental%20%7C%20Taxi%20Service%20in%20Nagpur&query_place_id=ChIJNxAyvQu_1DsRA00dkGtuYyA"
  },
  {
    "title": "Shubham Cab Service",
    "subTitle": "शुभम् कैब सर्विस",
    "categoryName": "Car rental agency",
    "address": "Jaripatka, Nagpur, Maharashtra 440014, India",
    "neighborhood": "Jaripatka",
    "city": "Nagpur",
    "postalCode": "440014",
    "state": "Maharashtra",
    "countryCode": "IN",
    "phone": "+919922240194",
    "phoneUnformatted": "+919922240194",
    "location": {
      "lat": 21.1808028,
      "lng": 79.093493
    },
    "totalScore": 4.9,
    "permanentlyClosed": false,
    "temporarilyClosed": false,
    "placeId": "ChIJ____vyLB1DsRnK7dDTRItlg",
    "categories": [
      "Car rental agency"
    ],
    "reviewsCount": 53,
    "imagesCount": 17,
    "openingHours": [
      {
        "day": "Monday",
        "hours": "Open 24 hours"
      },
      {
        "day": "Tuesday",
        "hours": "Open 24 hours"
      },
      {
        "day": "Wednesday",
        "hours": "Open 24 hours"
      },
      {
        "day": "Thursday",
        "hours": "Open 24 hours"
      },
      {
        "day": "Friday",
        "hours": "Open 24 hours"
      },
      {
        "day": "Saturday",
        "hours": "Open 24 hours"
      },
      {
        "day": "Sunday",
        "hours": "Open 24 hours"
      }
    ],
    "imageUrl": "https://media.indianluxurycars.com/google/36643b354328cae518d76bf3f4ef4784d4216656e7ea5f73a896e8c8f10d2f9b.jpg",
    "url": "https://www.google.com/maps/search/?api=1&query=Shubham%20Cab%20Service&query_place_id=ChIJ____vyLB1DsRnK7dDTRItlg"
  },
  {
    "title": "Simple Auto Cars",
    "subTitle": "सिंपल ऑटो कार्स",
    "categoryName": "Used car dealer",
    "address": "RAGHUKUL BILDING, Plot no 54, beside VI STORE, Bajaj Nagar, Nagpur, Maharashtra 440010, India",
    "neighborhood": "Bajaj Nagar",
    "street": "RAGHUKUL BILDING, Plot no 54, beside VI STORE",
    "city": "Nagpur",
    "postalCode": "440010",
    "state": "Maharashtra",
    "countryCode": "IN",
    "location": {
      "lat": 21.1294779,
      "lng": 79.0605064
    },
    "totalScore": 5,
    "permanentlyClosed": false,
    "temporarilyClosed": false,
    "placeId": "ChIJm0VPBwTB1DsRHRoYrJBjDnA",
    "categories": [
      "Used car dealer"
    ],
    "reviewsCount": 6,
    "imagesCount": 11,
    "openingHours": [
      {
        "day": "Monday",
        "hours": "12 to 7:30 AM, 11 AM to 12 AM"
      },
      {
        "day": "Tuesday",
        "hours": "12 to 7:30 AM, 11 AM to 12 AM"
      },
      {
        "day": "Wednesday",
        "hours": "12 to 7:30 AM, 11:30 AM to 12 AM"
      },
      {
        "day": "Thursday",
        "hours": "12 to 7:30 AM, 11:30 AM to 12 AM"
      },
      {
        "day": "Friday",
        "hours": "12 to 7:30 AM, 11 AM to 12 AM"
      },
      {
        "day": "Saturday",
        "hours": "12 to 7:30 AM, 11 AM to 12 AM"
      },
      {
        "day": "Sunday",
        "hours": "12 to 7:30 AM, 11 AM to 12 AM"
      }
    ],
    "imageUrl": "https://media.indianluxurycars.com/google/e12aefb2c6e2bfcb295857cf770ff121d2ad12e695ec637788658c0bfa435a6b.jpg",
    "url": "https://www.google.com/maps/search/?api=1&query=Simple%20Auto%20Cars&query_place_id=ChIJm0VPBwTB1DsRHRoYrJBjDnA"
  },
  {
    "title": "SN Travels | Cab rental services | car hiring Nagpur | Bus Train Booking Agent - Nagpur | all type vehical hiring service",
    "subTitle": "एसएन ट्रैवल्स | कैब रेंटल सर्विसेस | कार हाइरिंग नागपुर | बस ट्रेन बुकिंग एजेंट - नागपुर | ऑल टाइप व्हीकल हाइरिंग सर्विस",
    "categoryName": "Car leasing service",
    "address": "94.Awasthi Nagar, Katol Bypass Rd, opp. ICICI bank, Nagpur, Maharashtra 440030, India",
    "neighborhood": "Sadiqabad Colony, New Mankapur",
    "street": "94.Awasthi Nagar, Katol Bypass Rd, opp. ICICI bank",
    "city": "Nagpur",
    "postalCode": "440030",
    "state": "Maharashtra",
    "countryCode": "IN",
    "website": "http://sntravels.co.in/",
    "phone": "+919823690520",
    "phoneUnformatted": "+919823690520",
    "location": {
      "lat": 21.1823851,
      "lng": 79.0708712
    },
    "totalScore": 5,
    "permanentlyClosed": false,
    "temporarilyClosed": false,
    "placeId": "ChIJ5zsYCabB1DsRfgwUt4LCAdY",
    "categories": [
      "Car leasing service",
      "Bus ticket agency",
      "Taxi service",
      "Train ticket office",
      "Travel agency",
      "Vehicle exporter"
    ],
    "reviewsCount": 6,
    "imagesCount": 61,
    "openingHours": [
      {
        "day": "Monday",
        "hours": "Open 24 hours"
      },
      {
        "day": "Tuesday",
        "hours": "Open 24 hours"
      },
      {
        "day": "Wednesday",
        "hours": "Open 24 hours"
      },
      {
        "day": "Thursday",
        "hours": "Open 24 hours"
      },
      {
        "day": "Friday",
        "hours": "Open 24 hours"
      },
      {
        "day": "Saturday",
        "hours": "Open 24 hours"
      },
      {
        "day": "Sunday",
        "hours": "9 AM to 3 PM"
      }
    ],
    "imageUrl": "https://media.indianluxurycars.com/google/575eddc718fbd85f90d911db1bdf5f89e4b853c927a4bd9cae5f39ab7fce7605.jpg",
    "url": "https://www.google.com/maps/search/?api=1&query=SN%20Travels%20%7C%20Cab%20rental%20services%20%7C%20car%20hiring%20Nagpur%20%7C%20Bus%20Train%20Booking%20Agent%20-%20Nagpur%20%7C%20all%20type%20vehical%20hiring%20service&query_place_id=ChIJ5zsYCabB1DsRfgwUt4LCAdY"
  },
  {
    "title": "SPY TOURS & TRAVELS",
    "subTitle": "स्पाई टूर्स & ट्रैवल्स",
    "categoryName": "Car rental agency",
    "address": "Ashoka Building, MHADA Samruddhi Sankul, Amravati Rd, behind Chitnavis Centre, Dobhi Nagar, Civil Lines, Nagpur, Maharashtra 440001, India",
    "neighborhood": "Dobhi Nagar, Civil Lines",
    "street": "Ashoka Building, MHADA Samruddhi Sankul, Amravati Rd, behind Chitnavis Centre",
    "city": "Nagpur",
    "postalCode": "440001",
    "state": "Maharashtra",
    "countryCode": "IN",
    "phone": "+918626010207",
    "phoneUnformatted": "+918626010207",
    "location": {
      "lat": 21.146978,
      "lng": 79.0703542
    },
    "totalScore": 4.2,
    "permanentlyClosed": false,
    "temporarilyClosed": false,
    "placeId": "ChIJAfwg707B1DsRnij-yxY5t_s",
    "categories": [
      "Car rental agency",
      "Car leasing service",
      "Taxi service"
    ],
    "reviewsCount": 5,
    "imagesCount": 4,
    "openingHours": [
      {
        "day": "Monday",
        "hours": "Open 24 hours"
      },
      {
        "day": "Tuesday",
        "hours": "Open 24 hours"
      },
      {
        "day": "Wednesday",
        "hours": "Open 24 hours"
      },
      {
        "day": "Thursday",
        "hours": "Open 24 hours"
      },
      {
        "day": "Friday",
        "hours": "Open 24 hours"
      },
      {
        "day": "Saturday",
        "hours": "Open 24 hours"
      },
      {
        "day": "Sunday",
        "hours": "Open 24 hours"
      }
    ],
    "imageUrl": "https://media.indianluxurycars.com/google/f9b67e03c042451e37531c3902925ce7207f6e8c8de414551fdfd3d9cc92563c.jpg",
    "url": "https://www.google.com/maps/search/?api=1&query=SPY%20TOURS%20%26%20TRAVELS&query_place_id=ChIJAfwg707B1DsRnij-yxY5t_s"
  },
  {
    "title": "SS Car Rental Service | Car Rental For Outstation | Luxury Car Rental | Traveller Hire | Car Rental | Taxi Service In Nagpur",
    "subTitle": "एसएस कार रेंटल सर्विस",
    "categoryName": "Car leasing service",
    "address": "manish gruha, nirman society, 66, Manish Nagar, Nagpur, Maharashtra 440037, India",
    "neighborhood": "Manish Layout, Manish Nagar, Somalwada",
    "street": "manish gruha, nirman society, 66",
    "city": "Nagpur",
    "postalCode": "440037",
    "state": "Maharashtra",
    "countryCode": "IN",
    "website": "https://sscarrentalnagpur.com/",
    "phone": "+918208284859",
    "phoneUnformatted": "+918208284859",
    "location": {
      "lat": 21.0956715,
      "lng": 79.0722644
    },
    "totalScore": 4.9,
    "permanentlyClosed": false,
    "temporarilyClosed": false,
    "placeId": "ChIJfbHXIC-_1DsR2irQhb0Dk5k",
    "categories": [
      "Car leasing service",
      "Car rental agency",
      "Minibus taxi service",
      "Taxi service",
      "Tourist information center"
    ],
    "reviewsCount": 1210,
    "imagesCount": 369,
    "openingHours": [
      {
        "day": "Monday",
        "hours": "Open 24 hours"
      },
      {
        "day": "Tuesday",
        "hours": "Open 24 hours"
      },
      {
        "day": "Wednesday",
        "hours": "Open 24 hours"
      },
      {
        "day": "Thursday",
        "hours": "Open 24 hours"
      },
      {
        "day": "Friday",
        "hours": "Open 24 hours"
      },
      {
        "day": "Saturday",
        "hours": "Open 24 hours"
      },
      {
        "day": "Sunday",
        "hours": "Open 24 hours"
      }
    ],
    "imageUrl": "https://media.indianluxurycars.com/google/a7f0356f0fb531250c8ff3fa648b245ee67a4dd5227dec73a222c0c838d8507f.jpg",
    "url": "https://www.google.com/maps/search/?api=1&query=SS%20Car%20Rental%20Service%20%7C%20Car%20Rental%20For%20Outstation%20%7C%20Luxury%20Car%20Rental%20%7C%20Traveller%20Hire%20%7C%20Car%20Rental%20%7C%20Taxi%20Service%20In%20Nagpur&query_place_id=ChIJfbHXIC-_1DsR2irQhb0Dk5k"
  },
  {
    "title": "Sudarshana Motors",
    "subTitle": "सुदर्शना मोटर्स",
    "categoryName": "Car dealer",
    "address": "Mhada Complex, Amravati Rd, near Bole Petrol Pump, Dobhi Nagar, Civil Lines, Nagpur, Maharashtra 440001, India",
    "neighborhood": "Dobhi Nagar, Civil Lines",
    "street": "Mhada Complex, Amravati Rd, near Bole Petrol Pump",
    "city": "Nagpur",
    "postalCode": "440001",
    "state": "Maharashtra",
    "countryCode": "IN",
    "phone": "+919890023123",
    "phoneUnformatted": "+919890023123",
    "location": {
      "lat": 21.1464485,
      "lng": 79.0699232
    },
    "totalScore": 2.9,
    "permanentlyClosed": false,
    "temporarilyClosed": false,
    "placeId": "ChIJj7dqeUPA1DsRN8wXI_-QUm0",
    "categories": [
      "Car dealer",
      "Motor vehicle dealer"
    ],
    "reviewsCount": 15,
    "imagesCount": 2,
    "openingHours": [
      {
        "day": "Monday",
        "hours": "10:30 AM to 8 PM"
      },
      {
        "day": "Tuesday",
        "hours": "10:30 AM to 8 PM"
      },
      {
        "day": "Wednesday",
        "hours": "10:30 AM to 8 PM"
      },
      {
        "day": "Thursday",
        "hours": "10:30 AM to 8 PM"
      },
      {
        "day": "Friday",
        "hours": "10:30 AM to 8 PM"
      },
      {
        "day": "Saturday",
        "hours": "10:30 AM to 8 PM"
      },
      {
        "day": "Sunday",
        "hours": "Closed"
      }
    ],
    "imageUrl": "https://media.indianluxurycars.com/google/d0417afed4f3d5dbb40937b45c3b56365f76dd7307bf7de25d88efd94460c0c2.jpg",
    "url": "https://www.google.com/maps/search/?api=1&query=Sudarshana%20Motors&query_place_id=ChIJj7dqeUPA1DsRN8wXI_-QUm0"
  },
  {
    "title": "taxi 24x7",
    "subTitle": "टैक्सी 24एक्स7",
    "categoryName": "Car rental agency",
    "address": "125, Nelco Society Main Rd, opposite viveka hospital, Parsodi, Subhash Nagar, Nagpur, Maharashtra 440012, India",
    "neighborhood": "Parsodi, Subhash Nagar",
    "street": "125, Nelco Society Main Rd, opposite viveka hospital",
    "city": "Nagpur",
    "postalCode": "440012",
    "state": "Maharashtra",
    "countryCode": "IN",
    "website": "https://taxiservicesinnagpur.com/",
    "location": {
      "lat": 21.1201772,
      "lng": 79.0421224
    },
    "totalScore": 4.9,
    "permanentlyClosed": false,
    "temporarilyClosed": false,
    "placeId": "ChIJpWxPebi_1DsRLlBNTO87c0E",
    "categories": [
      "Car rental agency",
      "Airline ticket agency",
      "Bus tour agency",
      "Car leasing service",
      "Taxi service",
      "Minibus taxi service",
      "Train ticket agency",
      "Travel agency"
    ],
    "reviewsCount": 17,
    "imagesCount": 57,
    "openingHours": [],
    "imageUrl": "https://media.indianluxurycars.com/google/1f949bb9b31067a142d087698d53876e3194f9320e988a60dae29eb0f36bb5ec.jpg",
    "url": "https://www.google.com/maps/search/?api=1&query=taxi%2024x7&query_place_id=ChIJpWxPebi_1DsRLlBNTO87c0E"
  },
  {
    "title": "THE ELITE CARS",
    "subTitle": "द एलीट कार्स",
    "categoryName": "Used car dealer",
    "address": "43, Hira Nagar Ring Rd, Jagrut Nagar, Mankapur, Nagpur, Maharashtra 440014, India",
    "neighborhood": "Jagrut Nagar, Mankapur",
    "street": "43, Hira Nagar Ring Rd",
    "city": "Nagpur",
    "postalCode": "440014",
    "state": "Maharashtra",
    "countryCode": "IN",
    "website": "https://www.theelitecars.in/",
    "phone": "+919209232400",
    "phoneUnformatted": "+919209232400",
    "location": {
      "lat": 21.1887581,
      "lng": 79.0977936
    },
    "totalScore": 5,
    "permanentlyClosed": false,
    "temporarilyClosed": false,
    "placeId": "ChIJZ8f2FgDB1DsRj4yro1GNgDE",
    "categories": [
      "Used car dealer"
    ],
    "reviewsCount": 1,
    "imagesCount": 10,
    "openingHours": [
      {
        "day": "Monday",
        "hours": "11 AM to 8 PM"
      },
      {
        "day": "Tuesday",
        "hours": "11 AM to 8 PM"
      },
      {
        "day": "Wednesday",
        "hours": "11 AM to 8 PM"
      },
      {
        "day": "Thursday",
        "hours": "11 AM to 8 PM"
      },
      {
        "day": "Friday",
        "hours": "11 AM to 8 PM"
      },
      {
        "day": "Saturday",
        "hours": "11 AM to 8 PM"
      },
      {
        "day": "Sunday",
        "hours": "12 to 7 PM"
      }
    ],
    "imageUrl": "https://media.indianluxurycars.com/google/36148941455b3b81e5633a327e1842a3fb710c7030b192910b5ed59da29bbe3c.jpg",
    "url": "https://www.google.com/maps/search/?api=1&query=THE%20ELITE%20CARS&query_place_id=ChIJZ8f2FgDB1DsRj4yro1GNgDE"
  },
  {
    "title": "THRIFTY WHEELS",
    "subTitle": "थ्रिफ्टी व्हील्स",
    "categoryName": "Used car dealer",
    "address": "Mankapur chowk Near alexix hospital oppsite mankapur stadium, Maharashtra 440030, India",
    "neighborhood": "New Mankapur",
    "street": "Mankapur chowk Near alexix hospital oppsite mankapur stadium",
    "city": "Nagpur",
    "postalCode": "440030",
    "state": "Maharashtra",
    "countryCode": "IN",
    "location": {
      "lat": 21.1829508,
      "lng": 79.0791848
    },
    "totalScore": 4.8,
    "permanentlyClosed": false,
    "temporarilyClosed": false,
    "placeId": "ChIJcU-PXQ_B1DsR4YerWENnJ7I",
    "categories": [
      "Used car dealer"
    ],
    "reviewsCount": 10,
    "imagesCount": 321,
    "openingHours": [
      {
        "day": "Monday",
        "hours": "Open 24 hours"
      },
      {
        "day": "Tuesday",
        "hours": "Open 24 hours"
      },
      {
        "day": "Wednesday",
        "hours": "Open 24 hours"
      },
      {
        "day": "Thursday",
        "hours": "Open 24 hours"
      },
      {
        "day": "Friday",
        "hours": "Open 24 hours"
      },
      {
        "day": "Saturday",
        "hours": "Open 24 hours"
      },
      {
        "day": "Sunday",
        "hours": "Open 24 hours"
      }
    ],
    "imageUrl": "https://media.indianluxurycars.com/google/f2a063f1b381a1220349f072bb8b72b83a19a675b298f131e689b086c6939c1d.jpg",
    "url": "https://www.google.com/maps/search/?api=1&query=THRIFTY%20WHEELS&query_place_id=ChIJcU-PXQ_B1DsR4YerWENnJ7I"
  },
  {
    "title": "Top Gear Autos (CarWale Absure)",
    "subTitle": "टॉप गियर ऑटो (कारवाले एब्सर)",
    "categoryName": "Used car dealer",
    "address": "House No:2789/A, Galli No:8, Manewada Rd, Bajrang Nagar, Rameshwari, Nagpur, Maharashtra 440027, India",
    "neighborhood": "Bajrang Nagar, Rameshwari",
    "street": "House No:2789/A, Galli No:8, Manewada Rd",
    "city": "Nagpur",
    "postalCode": "440027",
    "state": "Maharashtra",
    "countryCode": "IN",
    "website": "http://www.topgearautos.in/",
    "phone": "+918793645956",
    "phoneUnformatted": "+918793645956",
    "location": {
      "lat": 21.1184055,
      "lng": 79.1007123
    },
    "totalScore": 5,
    "permanentlyClosed": false,
    "temporarilyClosed": false,
    "placeId": "ChIJJzovoYO_1DsRJ3EBMMcKEBc",
    "categories": [
      "Used car dealer"
    ],
    "reviewsCount": 12,
    "imagesCount": 34,
    "openingHours": [
      {
        "day": "Monday",
        "hours": "11 AM to 7:30 PM"
      },
      {
        "day": "Tuesday",
        "hours": "11 AM to 7:30 PM"
      },
      {
        "day": "Wednesday",
        "hours": "11 AM to 7:30 PM"
      },
      {
        "day": "Thursday",
        "hours": "11 AM to 7:30 PM"
      },
      {
        "day": "Friday",
        "hours": "11 AM to 7:30 PM"
      },
      {
        "day": "Saturday",
        "hours": "11 AM to 7:30 PM"
      },
      {
        "day": "Sunday",
        "hours": "11 AM to 7:30 PM"
      }
    ],
    "imageUrl": "https://media.indianluxurycars.com/google/761835ee0cfdf3384283375d22d376ff95fdde732358b3d2def59a076d0f7d49.jpg",
    "url": "https://www.google.com/maps/search/?api=1&query=Top%20Gear%20Autos%20(CarWale%20Absure)&query_place_id=ChIJJzovoYO_1DsRJ3EBMMcKEBc"
  },
  {
    "title": "True Choice Cars",
    "subTitle": "ट्रू चॉइस कार्स",
    "categoryName": "Car dealer",
    "address": "Shop No. 11, Ashok Layland Showroom, Automotive Sqr, Nagpur, Maharashtra 440026, India",
    "neighborhood": "Ekta Colony",
    "street": "Shop No. 11, Ashok Layland Showroom, Automotive Sqr",
    "city": "Nagpur",
    "postalCode": "440026",
    "state": "Maharashtra",
    "countryCode": "IN",
    "phone": "+919371254388",
    "phoneUnformatted": "+919371254388",
    "location": {
      "lat": 21.1838444,
      "lng": 79.1171827
    },
    "totalScore": 4.4,
    "permanentlyClosed": false,
    "temporarilyClosed": false,
    "placeId": "ChIJ9WiSIdDG1DsRKl1_bdwHJPY",
    "categories": [
      "Car dealer"
    ],
    "reviewsCount": 5,
    "imagesCount": 70,
    "openingHours": [
      {
        "day": "Monday",
        "hours": "10 AM to 8 PM"
      },
      {
        "day": "Tuesday",
        "hours": "10 AM to 8 PM"
      },
      {
        "day": "Wednesday",
        "hours": "10 AM to 8 PM"
      },
      {
        "day": "Thursday",
        "hours": "10 AM to 8 PM"
      },
      {
        "day": "Friday",
        "hours": "10 AM to 8 PM"
      },
      {
        "day": "Saturday",
        "hours": "10 AM to 8 PM"
      },
      {
        "day": "Sunday",
        "hours": "10 AM to 8 PM"
      }
    ],
    "imageUrl": "https://media.indianluxurycars.com/google/3f210ca4a612036bd31a3ba39d8b4582408dba55930543f116dc9d3740e3126c.jpg",
    "url": "https://www.google.com/maps/search/?api=1&query=True%20Choice%20Cars&query_place_id=ChIJ9WiSIdDG1DsRKl1_bdwHJPY"
  },
  {
    "title": "Used cars By Sanjeev",
    "subTitle": "यूज्ड कार्स बाय संजीव",
    "categoryName": "Used car dealer",
    "address": "6, Chindwara Rd, Complex, Rajnagar, Nagpur, Maharashtra 440013, India",
    "neighborhood": "Complex, Rajnagar",
    "street": "6, Chindwara Rd",
    "city": "Nagpur",
    "postalCode": "440013",
    "state": "Maharashtra",
    "countryCode": "IN",
    "location": {
      "lat": 21.1688707,
      "lng": 79.0791127
    },
    "permanentlyClosed": false,
    "temporarilyClosed": false,
    "placeId": "ChIJK_3JVQDB1DsR_4oRJWMahoQ",
    "categories": [
      "Used car dealer"
    ],
    "imagesCount": 1,
    "openingHours": [],
    "imageUrl": "https://media.indianluxurycars.com/google/c39e55f968a8aff4eecb1c7043394100b4ea49910b578a60ca428c3ad4fe4b08.jpg",
    "url": "https://www.google.com/maps/search/?api=1&query=Used%20cars%20By%20Sanjeev&query_place_id=ChIJK_3JVQDB1DsR_4oRJWMahoQ"
  },
  {
    "title": "Used Cars Nagpur",
    "subTitle": "यूज्ड कार्स नागपुर",
    "categoryName": "Used car dealer",
    "address": "Plot No. 5, Kale Motors, Mankapur Ring Rd, Raut Layout, Jafar Nagar, New Mankapur, Nagpur, Maharashtra 440030, India",
    "neighborhood": "Raut Layout, Jafar Nagar, New Mankapur",
    "street": "Plot No. 5, Kale Motors, Mankapur Ring Rd",
    "city": "Nagpur",
    "postalCode": "440030",
    "state": "Maharashtra",
    "countryCode": "IN",
    "website": "https://www.carandbike.com/used/sell-your-car",
    "phone": "+919930565555",
    "phoneUnformatted": "+919930565555",
    "location": {
      "lat": 21.1863989,
      "lng": 79.070006
    },
    "totalScore": 4.7,
    "permanentlyClosed": false,
    "temporarilyClosed": false,
    "placeId": "ChIJx69y6HnB1DsRZKm7QmbvF98",
    "categories": [
      "Used car dealer",
      "Auto broker",
      "Car dealer",
      "Motor vehicle dealer",
      "Vehicle inspection service"
    ],
    "reviewsCount": 18,
    "imagesCount": 12,
    "openingHours": [
      {
        "day": "Monday",
        "hours": "10 AM to 8 PM"
      },
      {
        "day": "Tuesday",
        "hours": "10 AM to 8 PM"
      },
      {
        "day": "Wednesday",
        "hours": "10 AM to 8 PM"
      },
      {
        "day": "Thursday",
        "hours": "10 AM to 8 PM"
      },
      {
        "day": "Friday",
        "hours": "10 AM to 8 PM"
      },
      {
        "day": "Saturday",
        "hours": "10 AM to 8 PM"
      },
      {
        "day": "Sunday",
        "hours": "10 AM to 8 PM"
      }
    ],
    "imageUrl": "https://media.indianluxurycars.com/google/3dce6c6164986d006233ab19ca82b0e40f595a242c7f6883e0c832ebbf7f9610.jpg",
    "url": "https://www.google.com/maps/search/?api=1&query=Used%20Cars%20Nagpur&query_place_id=ChIJx69y6HnB1DsRZKm7QmbvF98"
  },
  {
    "title": "Vikki Cabs- Best Car Rental Service in Nagpur | For Outstation | Luxury Car Rental in Nagpur",
    "subTitle": "विक्की टूर्स एंड ट्रैवल्स",
    "categoryName": "Car leasing service",
    "address": "Rani Durgawati Chowk, Rani Durgawati Nagar, Nagpur, Maharashtra 440017, India",
    "neighborhood": "Rani Durgawati Chowk, Rani Durgawati Nagar",
    "city": "Nagpur",
    "postalCode": "440017",
    "state": "Maharashtra",
    "countryCode": "IN",
    "website": "https://vikkitoursandtravels.com/",
    "phone": "+917020351793",
    "phoneUnformatted": "+917020351793",
    "location": {
      "lat": 21.1738233,
      "lng": 79.1176495
    },
    "totalScore": 5,
    "permanentlyClosed": false,
    "temporarilyClosed": false,
    "placeId": "ChIJRVUx-lrH1DsRf6W6w0jt5UE",
    "categories": [
      "Car leasing service",
      "Car rental agency",
      "Taxi service",
      "Tour agency",
      "Tour operator",
      "Travel agency"
    ],
    "reviewsCount": 202,
    "imagesCount": 34,
    "openingHours": [
      {
        "day": "Monday",
        "hours": "Open 24 hours"
      },
      {
        "day": "Tuesday",
        "hours": "Open 24 hours"
      },
      {
        "day": "Wednesday",
        "hours": "Open 24 hours"
      },
      {
        "day": "Thursday",
        "hours": "Open 24 hours"
      },
      {
        "day": "Friday",
        "hours": "Open 24 hours"
      },
      {
        "day": "Saturday",
        "hours": "Open 24 hours"
      },
      {
        "day": "Sunday",
        "hours": "Open 24 hours"
      }
    ],
    "imageUrl": "https://media.indianluxurycars.com/google/f37ef50efa49c072954266e3af97b03bb897067e516d053a73dc8e17b84c0e15.jpg",
    "url": "https://www.google.com/maps/search/?api=1&query=Vikki%20Cabs-%20Best%20Car%20Rental%20Service%20in%20Nagpur%20%7C%20For%20Outstation%20%7C%20Luxury%20Car%20Rental%20in%20Nagpur&query_place_id=ChIJRVUx-lrH1DsRf6W6w0jt5UE"
  },
  {
    "title": "Vintage & luxurious Cars",
    "subTitle": "विंटेज & लुक्सुरिओउस कार्स",
    "categoryName": "Car leasing service",
    "address": "Plot no. 121 new, near maneawada, Akash Nagar, Manewada, Nagpur, Maharashtra 440034, India",
    "neighborhood": "Akash Nagar, Manewada",
    "street": "Plot no. 121 new, near maneawada",
    "city": "Nagpur",
    "postalCode": "440034",
    "state": "Maharashtra",
    "countryCode": "IN",
    "location": {
      "lat": 21.0978443,
      "lng": 79.1059844
    },
    "totalScore": 5,
    "permanentlyClosed": false,
    "temporarilyClosed": false,
    "placeId": "ChIJ6YAhZy2_1DsRJMuUrQH3Hq0",
    "categories": [
      "Car leasing service"
    ],
    "reviewsCount": 3,
    "imagesCount": 12,
    "openingHours": [
      {
        "day": "Monday",
        "hours": "Open 24 hours"
      },
      {
        "day": "Tuesday",
        "hours": "Open 24 hours"
      },
      {
        "day": "Wednesday",
        "hours": "Open 24 hours"
      },
      {
        "day": "Thursday",
        "hours": "Open 24 hours"
      },
      {
        "day": "Friday",
        "hours": "Open 24 hours"
      },
      {
        "day": "Saturday",
        "hours": "Open 24 hours"
      },
      {
        "day": "Sunday",
        "hours": "Open 24 hours"
      }
    ],
    "imageUrl": "https://media.indianluxurycars.com/google/f01bca9c48ad1b8b688c2750d34a2ea9866063525522527dc3c46e3f1eb13a85.jpg",
    "url": "https://www.google.com/maps/search/?api=1&query=Vintage%20%26%20luxurious%20Cars&query_place_id=ChIJ6YAhZy2_1DsRJMuUrQH3Hq0"
  },
  {
    "title": "Viraj Auto Services",
    "subTitle": "विराज ऑटो सर्विसेस",
    "categoryName": "Car repair and maintenance service",
    "address": "Lower Ground Floor LG51, Fortune Mall, Sitabuldi Metro Interchange, Sitabuldi, Nagpur, Maharashtra 440012, India",
    "neighborhood": "Sitabuldi",
    "street": "Lower Ground Floor LG51, Fortune Mall, Sitabuldi Metro Interchange",
    "city": "Nagpur",
    "postalCode": "440012",
    "state": "Maharashtra",
    "countryCode": "IN",
    "website": "http://www.virajautoservices.com/",
    "phone": "+917506388337",
    "phoneUnformatted": "+917506388337",
    "location": {
      "lat": 21.1407252,
      "lng": 79.0820098
    },
    "totalScore": 4.3,
    "permanentlyClosed": false,
    "temporarilyClosed": false,
    "placeId": "ChIJObxYTGbB1DsRlBFT2ZZyIq8",
    "categories": [
      "Car repair and maintenance service"
    ],
    "reviewsCount": 19,
    "imagesCount": 33,
    "openingHours": [
      {
        "day": "Monday",
        "hours": "10 AM to 7 PM"
      },
      {
        "day": "Tuesday",
        "hours": "10 AM to 7 PM"
      },
      {
        "day": "Wednesday",
        "hours": "10 AM to 7 PM"
      },
      {
        "day": "Thursday",
        "hours": "10 AM to 7 PM"
      },
      {
        "day": "Friday",
        "hours": "10 AM to 7 PM"
      },
      {
        "day": "Saturday",
        "hours": "10 AM to 7 PM"
      },
      {
        "day": "Sunday",
        "hours": "Closed"
      }
    ],
    "imageUrl": "https://media.indianluxurycars.com/google/703f4433ed79bf82f660f12fcc6f88d36b8dd1d119e6c9c927c1c5d5d6277efd.jpg",
    "url": "https://www.google.com/maps/search/?api=1&query=Viraj%20Auto%20Services&query_place_id=ChIJObxYTGbB1DsRlBFT2ZZyIq8"
  },
  {
    "title": "VR Car Rental Service",
    "subTitle": "वीआर कार रेंटल सर्विस",
    "categoryName": "Car leasing service",
    "address": "Plot No. 3917, near Konark Lakeshore Apartment, Atangi Mungari, Juni Wasti, Sonegaon, Nagpur, Maharashtra 440025, India",
    "neighborhood": "Atangi Mungari, Juni Wasti, Sonegaon",
    "street": "Plot No. 3917, near Konark Lakeshore Apartment",
    "city": "Nagpur",
    "postalCode": "440025",
    "state": "Maharashtra",
    "countryCode": "IN",
    "website": "https://pdigiworld.in/VR-Car-Rental-Service",
    "phone": "+919226244101",
    "phoneUnformatted": "+919226244101",
    "location": {
      "lat": 21.0966292,
      "lng": 79.0509588
    },
    "totalScore": 5,
    "permanentlyClosed": false,
    "temporarilyClosed": false,
    "placeId": "ChIJI7yS1EcmNUYRne9aMKkoyVw",
    "categories": [
      "Car leasing service",
      "Minibus taxi service",
      "Taxi service"
    ],
    "reviewsCount": 43,
    "imagesCount": 29,
    "openingHours": [
      {
        "day": "Monday",
        "hours": "Open 24 hours"
      },
      {
        "day": "Tuesday",
        "hours": "Open 24 hours"
      },
      {
        "day": "Wednesday",
        "hours": "Open 24 hours"
      },
      {
        "day": "Thursday",
        "hours": "Open 24 hours"
      },
      {
        "day": "Friday",
        "hours": "Open 24 hours"
      },
      {
        "day": "Saturday",
        "hours": "Open 24 hours"
      },
      {
        "day": "Sunday",
        "hours": "Open 24 hours"
      }
    ],
    "imageUrl": "https://media.indianluxurycars.com/google/c5c67f39aaa61a4cc15dfe9b330facaefc2ea770a181c01ffac8e8f474b577a6.jpg",
    "url": "https://www.google.com/maps/search/?api=1&query=VR%20Car%20Rental%20Service&query_place_id=ChIJI7yS1EcmNUYRne9aMKkoyVw"
  },
  {
    "title": "VV Car Planet",
    "subTitle": "व्ही व्ही कार प्लॅनेट",
    "categoryName": "Car dealer",
    "address": "Shop No. 2 Dwarkanath Apartment Whc Road, WHC Road, Nagpur, Maharashtra 440010, India",
    "neighborhood": "Shankar Nagar, East Shankar Nagar",
    "street": "Shop No. 2 Dwarkanath Apartment Whc Road, WHC Road",
    "city": "Nagpur",
    "postalCode": "440010",
    "state": "Maharashtra",
    "countryCode": "IN",
    "website": "http://www.cartrade.com/",
    "phone": "+919422865345",
    "phoneUnformatted": "+919422865345",
    "location": {
      "lat": 21.1320639,
      "lng": 79.0622135
    },
    "totalScore": 3.7,
    "permanentlyClosed": false,
    "temporarilyClosed": false,
    "placeId": "ChIJq4gbAWPA1DsRSShgNNTB4Ug",
    "categories": [
      "Car dealer"
    ],
    "reviewsCount": 10,
    "imagesCount": 210,
    "openingHours": [
      {
        "day": "Monday",
        "hours": "9 AM to 10 PM"
      },
      {
        "day": "Tuesday",
        "hours": "9 AM to 10 PM"
      },
      {
        "day": "Wednesday",
        "hours": "9 AM to 10 PM"
      },
      {
        "day": "Thursday",
        "hours": "9 AM to 10 PM"
      },
      {
        "day": "Friday",
        "hours": "9 AM to 10 PM"
      },
      {
        "day": "Saturday",
        "hours": "9 AM to 10 PM"
      },
      {
        "day": "Sunday",
        "hours": "9 AM to 10 PM"
      }
    ],
    "imageUrl": "https://media.indianluxurycars.com/google/343f1bc81d48309f28bb0cb29032bf596260e46333dfb8b3436ff57867aaceb5.jpg",
    "url": "https://www.google.com/maps/search/?api=1&query=VV%20Car%20Planet&query_place_id=ChIJq4gbAWPA1DsRSShgNNTB4Ug"
  },
  {
    "title": "Wedding car hire nagpur",
    "subTitle": "वेडिंग कार हीरे नागपुर",
    "categoryName": "Car leasing service",
    "address": "7391nine+6666one, Lokmat Square, Ramdaspeth, Nagpur, Maharashtra 440012, India",
    "neighborhood": "Lokmat Square, Ramdaspeth",
    "street": "7391nine+6666one",
    "city": "Nagpur",
    "postalCode": "440012",
    "state": "Maharashtra",
    "countryCode": "IN",
    "location": {
      "lat": 21.134516,
      "lng": 79.0789811
    },
    "totalScore": 5,
    "permanentlyClosed": false,
    "temporarilyClosed": true,
    "placeId": "ChIJVcrnFOPB1DsRXlhPGrx3oNo",
    "categories": [
      "Car leasing service"
    ],
    "reviewsCount": 12,
    "imagesCount": 14,
    "openingHours": [],
    "imageUrl": "https://media.indianluxurycars.com/google/05a8a4c304c2f97278e49df93439ee4f969f9031749941b93340b9c731840b4a.jpg",
    "url": "https://www.google.com/maps/search/?api=1&query=Wedding%20car%20hire%20nagpur&query_place_id=ChIJVcrnFOPB1DsRXlhPGrx3oNo"
  },
  {
    "title": "Wild Angle Safaris - Jungle Safaris & Treks Bookings",
    "subTitle": "वाइल्ड एंगल सफरिस - जंगल सफरिस & ट्रेक्स बुकिंग्स",
    "categoryName": "Car leasing service",
    "address": "Jai Durga Layout No.1, New Narendra Nagar, Madhuban Layout, Somalwada, Nagpur, Maharashtra 440015, India",
    "neighborhood": "Jai Durga Layout No.1, New Narendra Nagar, Madhuban Layout, Somalwada",
    "city": "Nagpur",
    "postalCode": "440015",
    "state": "Maharashtra",
    "countryCode": "IN",
    "website": "https://www.wildanglesafaris.com/",
    "phone": "+918080373991",
    "phoneUnformatted": "+918080373991",
    "location": {
      "lat": 21.0986277,
      "lng": 79.0777053
    },
    "totalScore": 4.9,
    "permanentlyClosed": false,
    "temporarilyClosed": false,
    "placeId": "ChIJVXRzIWe_1DsR-FwYsrhLIig",
    "categories": [
      "Car leasing service",
      "Bird watching area",
      "Tour operator",
      "Photography service",
      "Tour agency",
      "Travel agency",
      "Wildlife park"
    ],
    "reviewsCount": 230,
    "imagesCount": 320,
    "openingHours": [
      {
        "day": "Monday",
        "hours": "8 AM to 8 PM"
      },
      {
        "day": "Tuesday",
        "hours": "8 AM to 8 PM"
      },
      {
        "day": "Wednesday",
        "hours": "8 AM to 8 PM"
      },
      {
        "day": "Thursday",
        "hours": "8 AM to 8 PM"
      },
      {
        "day": "Friday",
        "hours": "8 AM to 8 PM"
      },
      {
        "day": "Saturday",
        "hours": "8 AM to 8 PM"
      },
      {
        "day": "Sunday",
        "hours": "8 AM to 8 PM"
      }
    ],
    "imageUrl": "https://media.indianluxurycars.com/google/64bf03f9e7509c566d888d2dd5d04170ca391f2b71f8d4383a1b96f34f0c05be.jpg",
    "url": "https://www.google.com/maps/search/?api=1&query=Wild%20Angle%20Safaris%20-%20Jungle%20Safaris%20%26%20Treks%20Bookings&query_place_id=ChIJVXRzIWe_1DsR-FwYsrhLIig"
  },
  {
    "title": "Wildlife Car Rental",
    "subTitle": "वाइल्डलाइफ कार रेंटल",
    "categoryName": "Car rental agency",
    "address": "Apartment, A, Sakar, 3, Ambazari Rd, Hilltop Layout, Sudam Nagar, Ram Nagar, Nagpur, Maharashtra 440033, India",
    "neighborhood": "Hilltop Layout, Sudam Nagar, Ram Nagar",
    "street": "Apartment, A, Sakar, 3, Ambazari Rd",
    "city": "Nagpur",
    "postalCode": "440033",
    "state": "Maharashtra",
    "countryCode": "IN",
    "website": "https://www.wildlifecarrental.com/",
    "phone": "+919359374532",
    "phoneUnformatted": "+919359374532",
    "location": {
      "lat": 21.1368376,
      "lng": 79.0491857
    },
    "totalScore": 4.8,
    "permanentlyClosed": false,
    "temporarilyClosed": false,
    "placeId": "ChIJYWpInirB1DsRyUlJ7_qdV74",
    "categories": [
      "Car rental agency",
      "Airport shuttle service",
      "Car leasing service",
      "Tour operator",
      "Travel agency"
    ],
    "reviewsCount": 32,
    "imagesCount": 21,
    "openingHours": [
      {
        "day": "Monday",
        "hours": "Open 24 hours"
      },
      {
        "day": "Tuesday",
        "hours": "Open 24 hours"
      },
      {
        "day": "Wednesday",
        "hours": "Open 24 hours"
      },
      {
        "day": "Thursday",
        "hours": "Open 24 hours"
      },
      {
        "day": "Friday",
        "hours": "Open 24 hours"
      },
      {
        "day": "Saturday",
        "hours": "Open 24 hours"
      },
      {
        "day": "Sunday",
        "hours": "Open 24 hours"
      }
    ],
    "imageUrl": "https://media.indianluxurycars.com/google/35af1fa1042fbd6264335ade0635b173e5f4bed44be1fb64ea0e37c33da3fae2.png",
    "url": "https://www.google.com/maps/search/?api=1&query=Wildlife%20Car%20Rental&query_place_id=ChIJYWpInirB1DsRyUlJ7_qdV74"
  },
  {
    "title": "Zero mile nagpur taxi service",
    "subTitle": "जीरो मिले नागपुर टैक्सी सर्विस",
    "categoryName": "Car rental agency",
    "address": "Rai Galaxy 2, Kamptee Rd, Teka, Old Teka Naka, Teka Naka, Nagpur, Maharashtra 440017, India",
    "neighborhood": "Teka, Old Teka Naka, Teka Naka",
    "street": "Rai Galaxy 2, Kamptee Rd",
    "city": "Nagpur",
    "postalCode": "440017",
    "state": "Maharashtra",
    "countryCode": "IN",
    "website": "https://zeromilenagpurtaxi.com/",
    "phone": "+919307190586",
    "phoneUnformatted": "+919307190586",
    "location": {
      "lat": 21.1775513,
      "lng": 79.109136
    },
    "totalScore": 5,
    "permanentlyClosed": false,
    "temporarilyClosed": false,
    "placeId": "ChIJNfLdhFDB1DsRzAB7NLwlCs8",
    "categories": [
      "Car rental agency",
      "Car leasing service",
      "Taxi service"
    ],
    "reviewsCount": 70,
    "imagesCount": 53,
    "openingHours": [],
    "imageUrl": "https://media.indianluxurycars.com/google/2a38ea7872b14c9d181c21ce51e3af90d266f92a1ab4e56512427451a6a91d6a.jpg",
    "url": "https://www.google.com/maps/search/?api=1&query=Zero%20mile%20nagpur%20taxi%20service&query_place_id=ChIJNfLdhFDB1DsRzAB7NLwlCs8"
  }
]
