[
  {
    "title": "ALL BRAND CARS",
    "subTitle": "ऑल ब्रँड कार्स",
    "categoryName": "Used car dealer",
    "address": "Plot No A6, nice, MIDC Area, Satpur Colony, Nashik, Maharashtra 422005, India",
    "neighborhood": "MIDC Area, MIDC, Satpur Colony",
    "street": "Plot No A6, nice",
    "city": "Nashik",
    "postalCode": "422005",
    "state": "Maharashtra",
    "countryCode": "IN",
    "phone": "+918275273628",
    "phoneUnformatted": "+918275273628",
    "location": {
      "lat": 19.9935619,
      "lng": 73.7479164
    },
    "totalScore": 2.8,
    "permanentlyClosed": false,
    "temporarilyClosed": false,
    "placeId": "ChIJOxBR2B_r3TsRamvOxrSBGgY",
    "categories": [
      "Used car dealer",
      "Car dealer"
    ],
    "reviewsCount": 6,
    "imagesCount": 4,
    "openingHours": [
      {
        "day": "Monday",
        "hours": "Open 24 hours"
      },
      {
        "day": "Tuesday",
        "hours": "Open 24 hours"
      },
      {
        "day": "Wednesday",
        "hours": "Open 24 hours"
      },
      {
        "day": "Thursday",
        "hours": "Open 24 hours"
      },
      {
        "day": "Friday",
        "hours": "Open 24 hours"
      },
      {
        "day": "Saturday",
        "hours": "Open 24 hours"
      },
      {
        "day": "Sunday",
        "hours": "Closed"
      }
    ],
    "imageUrl": "https://media.indianluxurycars.com/google/4588eae3c46d685e46bcabfcb5e53755e85c7691e6fc20f4283a52bbb12e15df.jpg",
    "url": "https://www.google.com/maps/search/?api=1&query=ALL%20BRAND%20CARS&query_place_id=ChIJOxBR2B_r3TsRamvOxrSBGgY"
  },
  {
    "title": "Ambika Tours and Travels",
    "subTitle": "अंबिका टूर्स एंड ट्रैवल्स",
    "categoryName": "Car rental agency",
    "address": "No. 1, Om Shubham Apartment, Opp: Chopda Lawns, Behind Indraprasth Hall Old Gangapur Naka, behind Indraprasth Hall, Gangapur Rd, Nashik, Maharashtra 422002, India",
    "neighborhood": "Shivaji Nagar",
    "street": "No. 1, Om Shubham Apartment, Opp: Chopda Lawns, Behind Indraprasth Hall Old Gangapur Naka, behind Indraprasth Hall, Gangapur Rd",
    "city": "Nashik",
    "postalCode": "422002",
    "state": "Maharashtra",
    "countryCode": "IN",
    "website": "http://www.ambicatours.net/",
    "phone": "+919860082786",
    "phoneUnformatted": "+919860082786",
    "location": {
      "lat": 20.0088482,
      "lng": 73.7724909
    },
    "totalScore": 4.5,
    "permanentlyClosed": false,
    "temporarilyClosed": false,
    "placeId": "ChIJE0X-M6Lr3TsRaL_z0vper40",
    "categories": [
      "Car rental agency",
      "Airline ticket agency",
      "Car leasing service",
      "Tour operator",
      "Passport agent",
      "Sightseeing tour agency",
      "Tour agency",
      "Train ticket agency",
      "Travel agency",
      "Visa consulting service"
    ],
    "reviewsCount": 395,
    "imagesCount": 110,
    "openingHours": [
      {
        "day": "Monday",
        "hours": "9 AM to 8 PM"
      },
      {
        "day": "Tuesday",
        "hours": "9 AM to 8 PM"
      },
      {
        "day": "Wednesday",
        "hours": "9 AM to 8 PM"
      },
      {
        "day": "Thursday",
        "hours": "9 AM to 8 PM"
      },
      {
        "day": "Friday",
        "hours": "9 AM to 8 PM"
      },
      {
        "day": "Saturday",
        "hours": "9 AM to 8 PM"
      },
      {
        "day": "Sunday",
        "hours": "9 AM to 8 PM"
      }
    ],
    "imageUrl": "https://media.indianluxurycars.com/google/7af5872cdb86c45f41eaeea835dab17f79c356d5b12d246d8f7a6108fc423256.jpg",
    "url": "https://www.google.com/maps/search/?api=1&query=Ambika%20Tours%20and%20Travels&query_place_id=ChIJE0X-M6Lr3TsRaL_z0vper40"
  },
  {
    "title": "Anand Car Mall & Anand Auto Consultant Nashik",
    "subTitle": "आनंद कार मॉल & आनंद ऑटो कंसलटेंट नाशिक",
    "categoryName": "Used car dealer",
    "address": "Aurangabad Rd, Panchavati, Nashik, Maharashtra 422003, India",
    "neighborhood": "Panchavati",
    "street": "Aurangabad Rd",
    "city": "Nashik",
    "postalCode": "422003",
    "state": "Maharashtra",
    "countryCode": "IN",
    "phone": "+917040204003",
    "phoneUnformatted": "+917040204003",
    "location": {
      "lat": 20.0021704,
      "lng": 73.8310794
    },
    "totalScore": 4.7,
    "permanentlyClosed": false,
    "temporarilyClosed": false,
    "placeId": "ChIJZ4pMzYfq3TsRiBDySdx_cNk",
    "categories": [
      "Used car dealer",
      "Auto body shop",
      "Auto bodywork mechanic",
      "Auto insurance agency",
      "Auto painting",
      "Auto restoration service",
      "Car dealer",
      "Car finance and loan company",
      "Smart Car dealer",
      "Suzuki dealer"
    ],
    "reviewsCount": 327,
    "imagesCount": 695,
    "openingHours": [
      {
        "day": "Monday",
        "hours": "10:15 AM to 7:45 PM"
      },
      {
        "day": "Tuesday",
        "hours": "10:15 AM to 8 PM"
      },
      {
        "day": "Wednesday",
        "hours": "10:15 AM to 7 PM"
      },
      {
        "day": "Thursday",
        "hours": "10:15 AM to 7 PM"
      },
      {
        "day": "Friday",
        "hours": "10:15 AM to 7 PM"
      },
      {
        "day": "Saturday",
        "hours": "10:15 AM to 7:45 PM"
      },
      {
        "day": "Sunday",
        "hours": "12 to 7 PM"
      }
    ],
    "imageUrl": "https://media.indianluxurycars.com/google/e9c5e4d9275477eb658ccd981e0a6858f4fe38e315249b6a63e035bdafc3e403.jpg",
    "url": "https://www.google.com/maps/search/?api=1&query=Anand%20Car%20Mall%20%26%20Anand%20Auto%20Consultant%20Nashik&query_place_id=ChIJZ4pMzYfq3TsRiBDySdx_cNk"
  },
  {
    "title": "Anmol Autostore -used car dealer , Pre owned car",
    "subTitle": "अनमोल ऑटोस्टोर -उस्ड कार डीलर , प्री ओन्ड कार",
    "categoryName": "Used car dealer",
    "address": "Behind mc Donald's, Patil lane no.3, Magnum hosp. Road, off, College Rd, Nashik, Maharashtra 422005, India",
    "neighborhood": "Yashogandha Society, Patil Colony, Canada Corner",
    "street": "Behind mc Donald's, Patil lane no.3, Magnum hosp. Road, off, College Rd",
    "city": "Nashik",
    "postalCode": "422005",
    "state": "Maharashtra",
    "countryCode": "IN",
    "website": "http://www.autostoreindia.com/",
    "phone": "+919292929275",
    "phoneUnformatted": "+919292929275",
    "location": {
      "lat": 20.0066506,
      "lng": 73.7671583
    },
    "totalScore": 4.4,
    "permanentlyClosed": false,
    "temporarilyClosed": false,
    "placeId": "ChIJzXgyKfLr3TsR8OLTLcJDeB4",
    "categories": [
      "Used car dealer",
      "Auto broker",
      "Car dealer"
    ],
    "reviewsCount": 122,
    "imagesCount": 279,
    "openingHours": [
      {
        "day": "Monday",
        "hours": "9:30 AM to 8 PM"
      },
      {
        "day": "Tuesday",
        "hours": "9:30 AM to 8 PM"
      },
      {
        "day": "Wednesday",
        "hours": "9:30 AM to 8 PM"
      },
      {
        "day": "Thursday",
        "hours": "9:30 AM to 8 PM"
      },
      {
        "day": "Friday",
        "hours": "9:30 AM to 8 PM"
      },
      {
        "day": "Saturday",
        "hours": "9:30 AM to 8 PM"
      },
      {
        "day": "Sunday",
        "hours": "9:30 AM to 8 PM"
      }
    ],
    "imageUrl": "https://media.indianluxurycars.com/google/ad0547cb06136b4222a5cdc3b923dc958d956d83346d7fd38a36a45e87dc91a3.jpg",
    "url": "https://www.google.com/maps/search/?api=1&query=Anmol%20Autostore%20-used%20car%20dealer%20%2C%20Pre%20owned%20car&query_place_id=ChIJzXgyKfLr3TsR8OLTLcJDeB4"
  },
  {
    "title": "Astha Tourism - Shirdi tour Package,",
    "subTitle": "आस्था टूरिज्म - शिरडी टूर पैकेज,",
    "categoryName": "Car rental agency",
    "address": "G7, Shreeji Biz World, Nashik - Pune Rd, opp. Camel House, Dwarka, Nashik, Maharashtra 422011, India",
    "neighborhood": "Dwarka",
    "street": "G7, Shreeji Biz World, Nashik - Pune Rd, opp. Camel House",
    "city": "Nashik",
    "postalCode": "422011",
    "state": "Maharashtra",
    "countryCode": "IN",
    "website": "https://shirditour.com/",
    "phone": "+919881001696",
    "phoneUnformatted": "+919881001696",
    "location": {
      "lat": 19.9897566,
      "lng": 73.7999653
    },
    "totalScore": 4.9,
    "permanentlyClosed": false,
    "temporarilyClosed": false,
    "placeId": "ChIJEdmNqeTq3TsRPP9q8hsNv28",
    "categories": [
      "Car rental agency",
      "Sightseeing tour agency",
      "Travel agency"
    ],
    "reviewsCount": 211,
    "imagesCount": 73,
    "openingHours": [
      {
        "day": "Monday",
        "hours": "Open 24 hours"
      },
      {
        "day": "Tuesday",
        "hours": "Open 24 hours"
      },
      {
        "day": "Wednesday",
        "hours": "Open 24 hours"
      },
      {
        "day": "Thursday",
        "hours": "Open 24 hours"
      },
      {
        "day": "Friday",
        "hours": "Open 24 hours"
      },
      {
        "day": "Saturday",
        "hours": "Open 24 hours"
      },
      {
        "day": "Sunday",
        "hours": "Open 24 hours"
      }
    ],
    "imageUrl": "https://media.indianluxurycars.com/google/592d5cd3ea4a882f64c91b991cd5d02da5491604aa7d9b61d4435d24e1acebab.jpg",
    "url": "https://www.google.com/maps/search/?api=1&query=Astha%20Tourism%20-%20Shirdi%20tour%20Package%2C&query_place_id=ChIJEdmNqeTq3TsRPP9q8hsNv28"
  },
  {
    "title": "Auto dealers Nashik | Nashik car dealers | second-hand cars Nashik | Car dealers Nashik",
    "subTitle": "ऑटो डीलर्स नाशिक | नाशिक कार डीलर्स | सेकंड-हैंड कार्स नाशिक | कार डीलर्स नाशिक",
    "categoryName": "Used car dealer",
    "address": "Aurangabad, Highway, opp. Ramanjney Temple, near Mirchi Hotel Signal, Vaishnavi Park, Nashik, Maharashtra 422003, India",
    "neighborhood": "Vaishnavi Park",
    "street": "Aurangabad, Highway, opp. Ramanjney Temple, near Mirchi Hotel Signal",
    "city": "Nashik",
    "postalCode": "422003",
    "state": "Maharashtra",
    "countryCode": "IN",
    "phone": "+919511291166",
    "phoneUnformatted": "+919511291166",
    "location": {
      "lat": 20.0041233,
      "lng": 73.8272316
    },
    "totalScore": 4.5,
    "permanentlyClosed": false,
    "temporarilyClosed": false,
    "placeId": "ChIJZ7Jd3iPr3TsR_cFCGEtEGrw",
    "categories": [
      "Used car dealer"
    ],
    "reviewsCount": 57,
    "imagesCount": 47,
    "openingHours": [
      {
        "day": "Monday",
        "hours": "9:30 AM to 7:30 PM"
      },
      {
        "day": "Tuesday",
        "hours": "9:30 AM to 7:30 PM"
      },
      {
        "day": "Wednesday",
        "hours": "9:30 AM to 7:30 PM"
      },
      {
        "day": "Thursday",
        "hours": "9:30 AM to 7:30 PM"
      },
      {
        "day": "Friday",
        "hours": "9:30 AM to 7:30 PM"
      },
      {
        "day": "Saturday",
        "hours": "9:30 AM to 7:30 PM"
      },
      {
        "day": "Sunday",
        "hours": "9:30 AM to 7:30 PM"
      }
    ],
    "imageUrl": "https://media.indianluxurycars.com/google/0f403da1ee41b80d4a25c5d21bf9a64de3a1ddf017338ad76eeceab009c0487f.jpg",
    "url": "https://www.google.com/maps/search/?api=1&query=Auto%20dealers%20Nashik%20%7C%20Nashik%20car%20dealers%20%7C%20second-hand%20cars%20Nashik%20%7C%20Car%20dealers%20Nashik&query_place_id=ChIJZ7Jd3iPr3TsR_cFCGEtEGrw"
  },
  {
    "title": "AWAY India",
    "subTitle": "अवे इंडिया",
    "categoryName": "Car accessories store",
    "address": "Third Floor, Shanta Madhav Sankul, MICO Circle, Trambakeshwar Rd, Nashik, Maharashtra 422002, India",
    "neighborhood": "Holaram Colony, Sharanpur",
    "street": "Third Floor, Shanta Madhav Sankul, MICO Circle, Trambakeshwar Rd",
    "city": "Nashik",
    "postalCode": "422002",
    "state": "Maharashtra",
    "countryCode": "IN",
    "website": "http://www.awayindia.in/",
    "location": {
      "lat": 19.9945332,
      "lng": 73.772036
    },
    "totalScore": 5,
    "permanentlyClosed": false,
    "temporarilyClosed": false,
    "placeId": "ChIJL3HBJxLr3TsRbK4vV42p3B0",
    "categories": [
      "Car accessories store",
      "Auto accessories wholesaler",
      "Auto body parts supplier",
      "Auto parts store",
      "Truck accessories store"
    ],
    "reviewsCount": 15,
    "imagesCount": 46,
    "openingHours": [
      {
        "day": "Monday",
        "hours": "9 AM to 9 PM"
      },
      {
        "day": "Tuesday",
        "hours": "9 AM to 9 PM"
      },
      {
        "day": "Wednesday",
        "hours": "9 AM to 9 PM"
      },
      {
        "day": "Thursday",
        "hours": "9 AM to 9 PM"
      },
      {
        "day": "Friday",
        "hours": "9 AM to 9 PM"
      },
      {
        "day": "Saturday",
        "hours": "9 AM to 9 PM"
      },
      {
        "day": "Sunday",
        "hours": "9 AM to 9 PM"
      }
    ],
    "imageUrl": "https://media.indianluxurycars.com/google/390c2a2f0abdfe2b2ac01436ddced56396dc66ff315391ce0276a68408b5466d.jpg",
    "url": "https://www.google.com/maps/search/?api=1&query=AWAY%20India&query_place_id=ChIJL3HBJxLr3TsRbK4vV42p3B0"
  },
  {
    "title": "Bafna Tours & Travels (Nashik Tempo Traveller)",
    "subTitle": "बाफना टूर्स & ट्रैवल्स (नाशिक टेम्पो ट्रैवलर)",
    "categoryName": "Car leasing service",
    "address": "Gangapur road Behind Chopda Lawns Sarita Darshan Society, Nashik, Maharashtra 422013, India",
    "neighborhood": "Dehmandir Cooperative Housing Society",
    "street": "Gangapur road Behind Chopda Lawns Sarita Darshan Society",
    "city": "Nashik",
    "postalCode": "422013",
    "state": "Maharashtra",
    "countryCode": "IN",
    "website": "http://ridezly.com/",
    "phone": "+919823255972",
    "phoneUnformatted": "+919823255972",
    "location": {
      "lat": 20.0097817,
      "lng": 73.7717513
    },
    "totalScore": 4.7,
    "permanentlyClosed": false,
    "temporarilyClosed": false,
    "placeId": "ChIJc5pT99rr3TsRFlyEhEEluLE",
    "categories": [
      "Car leasing service",
      "Tour operator"
    ],
    "reviewsCount": 726,
    "imagesCount": 96,
    "openingHours": [
      {
        "day": "Monday",
        "hours": "Open 24 hours"
      },
      {
        "day": "Tuesday",
        "hours": "Open 24 hours"
      },
      {
        "day": "Wednesday",
        "hours": "Open 24 hours"
      },
      {
        "day": "Thursday",
        "hours": "Open 24 hours"
      },
      {
        "day": "Friday",
        "hours": "Open 24 hours"
      },
      {
        "day": "Saturday",
        "hours": "Open 24 hours"
      },
      {
        "day": "Sunday",
        "hours": "Open 24 hours"
      }
    ],
    "imageUrl": "https://media.indianluxurycars.com/google/a4da62dc9b39dc92d2efa9c1196b241ed5fc0a6608d7da0c60d7fb7961db28f3.jpg",
    "url": "https://www.google.com/maps/search/?api=1&query=Bafna%20Tours%20%26%20Travels%20(Nashik%20Tempo%20Traveller)&query_place_id=ChIJc5pT99rr3TsRFlyEhEEluLE"
  },
  {
    "title": "Budget cab services",
    "subTitle": "बजट कैब सर्विसेस",
    "categoryName": "Car rental agency",
    "address": "Aakar bunglow, Satvik Nagar, Pakhal Rd, Bajrang Wadi, Gulshan Colony, Nashik, Maharashtra 422214, India",
    "neighborhood": "Bajrang Wadi, Gulshan Colony",
    "street": "Aakar bunglow, Satvik Nagar, Pakhal Rd",
    "city": "Nashik",
    "postalCode": "422214",
    "state": "Maharashtra",
    "countryCode": "IN",
    "website": "https://www.budgetcabsservice.com/",
    "phone": "+917977619481",
    "phoneUnformatted": "+917977619481",
    "location": {
      "lat": 19.9840404,
      "lng": 73.7970589
    },
    "totalScore": 4.8,
    "permanentlyClosed": false,
    "temporarilyClosed": false,
    "placeId": "ChIJC8FVPnHr3TsRWVYWVWTF5iU",
    "categories": [
      "Car rental agency",
      "Car leasing service",
      "Taxi service"
    ],
    "reviewsCount": 1006,
    "imagesCount": 296,
    "openingHours": [],
    "imageUrl": "https://media.indianluxurycars.com/google/35f17622d38849c5260c783c95096f6952ca083c7889a0f00fde60d6c5a16266.jpg",
    "url": "https://www.google.com/maps/search/?api=1&query=Budget%20cab%20services&query_place_id=ChIJC8FVPnHr3TsRWVYWVWTF5iU"
  },
  {
    "title": "Cabs24",
    "subTitle": "कैब्स24",
    "categoryName": "Car rental agency",
    "address": "Sailani Manzil, opposite Sahajeevan Colony, Vise Mala, Canada Corner, Nashik, Maharashtra 422005, India",
    "neighborhood": "Vise Mala, Canada Corner",
    "street": "Sailani Manzil, opposite Sahajeevan Colony",
    "city": "Nashik",
    "postalCode": "422005",
    "state": "Maharashtra",
    "countryCode": "IN",
    "website": "http://thecab24.com/",
    "phone": "+918600022255",
    "phoneUnformatted": "+918600022255",
    "location": {
      "lat": 20.0024537,
      "lng": 73.7668284
    },
    "totalScore": 4.9,
    "permanentlyClosed": false,
    "temporarilyClosed": false,
    "placeId": "ChIJO0w49VDr3TsRRUvf6EUS6FI",
    "categories": [
      "Car rental agency",
      "Car leasing service",
      "Taxi service"
    ],
    "reviewsCount": 98,
    "imagesCount": 19,
    "openingHours": [
      {
        "day": "Monday",
        "hours": "9 AM to 5:30 PM"
      },
      {
        "day": "Tuesday",
        "hours": "9 AM to 5:30 PM"
      },
      {
        "day": "Wednesday",
        "hours": "9 AM to 5:30 PM"
      },
      {
        "day": "Thursday",
        "hours": "9 AM to 5:30 PM"
      },
      {
        "day": "Friday",
        "hours": "9 AM to 5:30 PM"
      },
      {
        "day": "Saturday",
        "hours": "9 AM to 5:30 PM"
      },
      {
        "day": "Sunday",
        "hours": "9 AM to 5:30 PM"
      }
    ],
    "imageUrl": "https://media.indianluxurycars.com/google/295a80c2f8aaa863dd26b409a101a945c0b7d752dcc6090fd60027f124ba66c6.jpg",
    "url": "https://www.google.com/maps/search/?api=1&query=Cabs24&query_place_id=ChIJO0w49VDr3TsRRUvf6EUS6FI"
  },
  {
    "title": "CAR PRO",
    "subTitle": "कार प्रो",
    "categoryName": "Car dealer",
    "address": "parksyde homes, F 1101, Hanuman Nagar, Nashik, Maharashtra 422003, India",
    "neighborhood": "Hanuman Nagar",
    "street": "parksyde homes, F 1101",
    "city": "Nashik",
    "postalCode": "422003",
    "state": "Maharashtra",
    "countryCode": "IN",
    "location": {
      "lat": 20.0176718,
      "lng": 73.8339279
    },
    "permanentlyClosed": false,
    "temporarilyClosed": false,
    "placeId": "ChIJCxHx4TTr3TsRXS5BFRlsKW4",
    "categories": [
      "Car dealer",
      "BMW dealer",
      "Jaguar dealer",
      "Lamborghini dealer",
      "Land Rover dealer",
      "Lexus dealer",
      "Mercedes-Benz dealer",
      "MINI dealer",
      "Porsche dealer",
      "Volvo dealer"
    ],
    "imagesCount": 1,
    "openingHours": [
      {
        "day": "Monday",
        "hours": "Open 24 hours"
      },
      {
        "day": "Tuesday",
        "hours": "Open 24 hours"
      },
      {
        "day": "Wednesday",
        "hours": "Open 24 hours"
      },
      {
        "day": "Thursday",
        "hours": "Open 24 hours"
      },
      {
        "day": "Friday",
        "hours": "Open 24 hours"
      },
      {
        "day": "Saturday",
        "hours": "Open 24 hours"
      },
      {
        "day": "Sunday",
        "hours": "Open 24 hours"
      }
    ],
    "imageUrl": "https://media.indianluxurycars.com/google/1cb2bcd859d7ac1d0409b3d64ecafbf2fa9b8838417ba420672aae71eecd83ae.jpg",
    "url": "https://www.google.com/maps/search/?api=1&query=CAR%20PRO&query_place_id=ChIJCxHx4TTr3TsRXS5BFRlsKW4"
  },
  {
    "title": "Car Rental in Nashik",
    "subTitle": "कार रेंटल इन नाशिक",
    "categoryName": "Car rental agency",
    "address": "Pranit society, 503, Kathe Ln, Maneksha Nagar, Manekshagar, Dwarka, Nashik, Maharashtra 422011, India",
    "neighborhood": "Maneksha Nagar, Manekshagar, Dwarka",
    "street": "Pranit society, 503, Kathe Ln",
    "city": "Nashik",
    "postalCode": "422011",
    "state": "Maharashtra",
    "countryCode": "IN",
    "website": "https://carrentalinnashik.com/",
    "phone": "+919881002926",
    "phoneUnformatted": "+919881002926",
    "location": {
      "lat": 19.9907338,
      "lng": 73.8006624
    },
    "totalScore": 5,
    "permanentlyClosed": false,
    "temporarilyClosed": false,
    "placeId": "ChIJ-3_erfzq3TsRUtSKbHHnt4A",
    "categories": [
      "Car rental agency",
      "Car leasing service",
      "Minibus taxi service",
      "Sightseeing tour agency",
      "Taxi service",
      "Tour operator",
      "Travel agency"
    ],
    "reviewsCount": 7,
    "imagesCount": 11,
    "openingHours": [
      {
        "day": "Monday",
        "hours": "5 AM to 10 PM"
      },
      {
        "day": "Tuesday",
        "hours": "5 AM to 10 PM"
      },
      {
        "day": "Wednesday",
        "hours": "5 AM to 10 PM"
      },
      {
        "day": "Thursday",
        "hours": "5 AM to 10 PM"
      },
      {
        "day": "Friday",
        "hours": "5 AM to 10 PM"
      },
      {
        "day": "Saturday",
        "hours": "5 AM to 10 PM"
      },
      {
        "day": "Sunday",
        "hours": "5 AM to 10 PM"
      }
    ],
    "imageUrl": "https://media.indianluxurycars.com/google/f8c2388ae41a07711de89de4b2a4202f7e4a2f38942c6d2d4db983604c58381c.jpg",
    "url": "https://www.google.com/maps/search/?api=1&query=Car%20Rental%20in%20Nashik&query_place_id=ChIJ-3_erfzq3TsRUtSKbHHnt4A"
  },
  {
    "title": "Certified Used Cars NASHIK",
    "subTitle": "सर्टिफाइड यूज्ड कार्स नाशिक",
    "categoryName": "Used car dealer",
    "address": "Sr No.726|1-B,Plot No-42, Yeolekar Mala, Nashik, Maharashtra 422005, India",
    "neighborhood": "Yeolekar Mala, Krishi Nagar",
    "street": "Sr No.726|1-B,Plot No-42",
    "city": "Nashik",
    "postalCode": "422005",
    "state": "Maharashtra",
    "countryCode": "IN",
    "website": "https://www.mahindrafirstchoice.com/dealer/detail/nashik/near-mirchi-hotel/kapeesh-autos",
    "phone": "+919763008192",
    "phoneUnformatted": "+919763008192",
    "location": {
      "lat": 20.0017527,
      "lng": 73.7621064
    },
    "totalScore": 4,
    "permanentlyClosed": false,
    "temporarilyClosed": false,
    "placeId": "ChIJVYHRAbbt3TsR25UGU-wVMJ0",
    "categories": [
      "Used car dealer",
      "Auto broker",
      "Car dealer",
      "Motor vehicle dealer",
      "Vehicle inspection service"
    ],
    "reviewsCount": 38,
    "imagesCount": 128,
    "openingHours": [],
    "imageUrl": "https://media.indianluxurycars.com/google/0d9dbc07fd16187a62e35a7fd6cfa39f1bb3b1b100c622925f4a47b1857151a1.jpg",
    "url": "https://www.google.com/maps/search/?api=1&query=Certified%20Used%20Cars%20NASHIK&query_place_id=ChIJVYHRAbbt3TsR25UGU-wVMJ0"
  },
  {
    "title": "City cars",
    "subTitle": "सिटी कार्स",
    "categoryName": "Used car dealer",
    "address": "B Rd, Mahatma Nagar, Parijat Nagar, Nashik, Maharashtra 422005, India",
    "neighborhood": "Mahatma Nagar, Parijat Nagar",
    "street": "B Rd",
    "city": "Nashik",
    "postalCode": "422005",
    "state": "Maharashtra",
    "countryCode": "IN",
    "phone": "+919404455544",
    "phoneUnformatted": "+919404455544",
    "location": {
      "lat": 20.0006239,
      "lng": 73.752658
    },
    "totalScore": 4.8,
    "permanentlyClosed": false,
    "temporarilyClosed": false,
    "placeId": "ChIJza6dzXjr3TsRnBzFpsju11A",
    "categories": [
      "Used car dealer"
    ],
    "reviewsCount": 6,
    "imagesCount": 12,
    "openingHours": [
      {
        "day": "Monday",
        "hours": "10 AM to 6 PM"
      },
      {
        "day": "Tuesday",
        "hours": "10 AM to 6 PM"
      },
      {
        "day": "Wednesday",
        "hours": "10 AM to 6 PM"
      },
      {
        "day": "Thursday",
        "hours": "10 AM to 6 PM"
      },
      {
        "day": "Friday",
        "hours": "10 AM to 6 PM"
      },
      {
        "day": "Saturday",
        "hours": "10 AM to 6 PM"
      },
      {
        "day": "Sunday",
        "hours": "Closed"
      }
    ],
    "imageUrl": "https://media.indianluxurycars.com/google/9f230c9d447801bc4f62ae8711166ae79596afd84626ae36e11dab46900e7b3e.jpg",
    "url": "https://www.google.com/maps/search/?api=1&query=City%20cars&query_place_id=ChIJza6dzXjr3TsRnBzFpsju11A"
  },
  {
    "title": "Dhandai Travels",
    "subTitle": "धनदाई ट्रैवल्स",
    "categoryName": "Car rental agency",
    "address": "Shop No. 3, Plot No. 146, near Rasbihari English School, Vrindavan Colony, Panchavati, Balram Nagar, Nashik, Maharashtra 422003, India",
    "neighborhood": "Vrindavan Colony, Panchavati, Balram Nagar",
    "street": "Shop No. 3, Plot No. 146, near Rasbihari English School",
    "city": "Nashik",
    "postalCode": "422003",
    "state": "Maharashtra",
    "countryCode": "IN",
    "website": "https://dhandaitravels.com/",
    "phone": "+919623889977",
    "phoneUnformatted": "+919623889977",
    "location": {
      "lat": 20.0218184,
      "lng": 73.8307179
    },
    "totalScore": 4.7,
    "permanentlyClosed": false,
    "temporarilyClosed": false,
    "placeId": "ChIJ4___P6vr3TsRb10R_tsja20",
    "categories": [
      "Car rental agency",
      "Bus tour agency",
      "Car leasing service",
      "Minibus taxi service",
      "Sightseeing tour agency",
      "Taxi service",
      "Tour operator",
      "Travel agency"
    ],
    "reviewsCount": 103,
    "imagesCount": 178,
    "openingHours": [
      {
        "day": "Monday",
        "hours": "Open 24 hours"
      },
      {
        "day": "Tuesday",
        "hours": "Open 24 hours"
      },
      {
        "day": "Wednesday",
        "hours": "Open 24 hours"
      },
      {
        "day": "Thursday",
        "hours": "Open 24 hours"
      },
      {
        "day": "Friday",
        "hours": "Open 24 hours"
      },
      {
        "day": "Saturday",
        "hours": "Open 24 hours"
      },
      {
        "day": "Sunday",
        "hours": "Open 24 hours"
      }
    ],
    "imageUrl": "https://media.indianluxurycars.com/google/acd76f949bfcd6c76213318c37f024cb900459e59f506d7a1d72959537a6dd7d.jpg",
    "url": "https://www.google.com/maps/search/?api=1&query=Dhandai%20Travels&query_place_id=ChIJ4___P6vr3TsRb10R_tsja20"
  },
  {
    "title": "FRIENDS CARS - Self drive cars & bike",
    "subTitle": "फ्रेंड्स कार्स - सेल्फ ड्राइव कार्स & बाइक",
    "categoryName": "Car rental agency",
    "address": "FriendsTravels, Dindori Rd, RTO Corner, Gorksha Nagar, Mhasrul Gaon, Nashik, Maharashtra 422004, India",
    "neighborhood": "RTO Corner, Gorksha Nagar, Mhasrul Gaon",
    "street": "FriendsTravels, Dindori Rd",
    "city": "Nashik",
    "postalCode": "422004",
    "state": "Maharashtra",
    "countryCode": "IN",
    "phone": "+918446048878",
    "phoneUnformatted": "+918446048878",
    "location": {
      "lat": 20.0337193,
      "lng": 73.8029994
    },
    "totalScore": 4.9,
    "permanentlyClosed": false,
    "temporarilyClosed": false,
    "placeId": "ChIJKRVsyULr3TsRgzxRkMskFks",
    "categories": [
      "Car rental agency"
    ],
    "reviewsCount": 239,
    "imagesCount": 50,
    "openingHours": [
      {
        "day": "Monday",
        "hours": "Open 24 hours"
      },
      {
        "day": "Tuesday",
        "hours": "Open 24 hours"
      },
      {
        "day": "Wednesday",
        "hours": "Open 24 hours"
      },
      {
        "day": "Thursday",
        "hours": "Open 24 hours"
      },
      {
        "day": "Friday",
        "hours": "Open 24 hours"
      },
      {
        "day": "Saturday",
        "hours": "Open 24 hours"
      },
      {
        "day": "Sunday",
        "hours": "Open 24 hours"
      }
    ],
    "imageUrl": "https://media.indianluxurycars.com/google/9bfb271c567545eea44090629ab4d7a7ee8f8486284739f3dfdec5a4965e4f27.jpg",
    "url": "https://www.google.com/maps/search/?api=1&query=FRIENDS%20CARS%20-%20Self%20drive%20cars%20%26%20bike&query_place_id=ChIJKRVsyULr3TsRgzxRkMskFks"
  },
  {
    "title": "GALAXY CAB SERVICE",
    "subTitle": "Galaxy Cab Service",
    "categoryName": "Car rental agency",
    "address": "4, Wadala Rd, Jaydeep Nagar, Mamta Nagar, Kalpataru Nagar, Nashik, Maharashtra 422006, India",
    "neighborhood": "Jaydeep Nagar, Mamta Nagar, Kalpataru Nagar",
    "street": "4, Wadala Rd",
    "city": "Nashik",
    "postalCode": "422006",
    "state": "Maharashtra",
    "countryCode": "IN",
    "website": "https://galaxycabservice.in/",
    "phone": "+917058777792",
    "phoneUnformatted": "+917058777792",
    "location": {
      "lat": 19.9804462,
      "lng": 73.7927906
    },
    "totalScore": 5,
    "permanentlyClosed": false,
    "temporarilyClosed": false,
    "placeId": "ChIJoxpFpR_r3TsRgzI9rV5Z5B8",
    "categories": [
      "Car rental agency",
      "Car leasing service",
      "Taxi service",
      "Minibus taxi service",
      "Taxicab Stand",
      "Tour operator",
      "Travel agency"
    ],
    "reviewsCount": 17,
    "imagesCount": 10,
    "openingHours": [],
    "imageUrl": "https://media.indianluxurycars.com/google/4821ea445ffbe6a61de4ff32d3c3c1276b70205cb50b22f540cd52091a1850fd.jpg",
    "url": "https://www.google.com/maps/search/?api=1&query=GALAXY%20CAB%20SERVICE&query_place_id=ChIJoxpFpR_r3TsRgzI9rV5Z5B8"
  },
  {
    "title": "Galaxy cars",
    "subTitle": "गॅलेक्सी कार्स",
    "categoryName": "Car dealer",
    "address": "Shop no.4, Sujal park, near Krishna lawns, Bodhale Nagar, Ganesh Baba Nagar, Nashik, Maharashtra 422011, India",
    "neighborhood": "Bodhale Nagar, Ganesh Baba Nagar",
    "street": "Shop no.4, Sujal park, near Krishna lawns",
    "city": "Nashik",
    "postalCode": "422011",
    "state": "Maharashtra",
    "countryCode": "IN",
    "phone": "+919272987992",
    "phoneUnformatted": "+919272987992",
    "location": {
      "lat": 19.982986,
      "lng": 73.8038811
    },
    "totalScore": 4.2,
    "permanentlyClosed": false,
    "temporarilyClosed": false,
    "placeId": "ChIJSWPVsg3r3TsRpsAsGKtkfYY",
    "categories": [
      "Car dealer",
      "Car finance and loan company"
    ],
    "reviewsCount": 38,
    "imagesCount": 285,
    "openingHours": [
      {
        "day": "Monday",
        "hours": "9 AM to 5 PM"
      },
      {
        "day": "Tuesday",
        "hours": "9 AM to 5 PM"
      },
      {
        "day": "Wednesday",
        "hours": "9 AM to 5 PM"
      },
      {
        "day": "Thursday",
        "hours": "9 AM to 5 PM"
      },
      {
        "day": "Friday",
        "hours": "9 AM to 5 PM"
      },
      {
        "day": "Saturday",
        "hours": "9 AM to 5 PM"
      },
      {
        "day": "Sunday",
        "hours": "Closed"
      }
    ],
    "imageUrl": "https://media.indianluxurycars.com/google/25d7e0009df807c58127fd5959de88028057113de3059897cfff9c07a71e8b51.jpg",
    "url": "https://www.google.com/maps/search/?api=1&query=Galaxy%20cars&query_place_id=ChIJSWPVsg3r3TsRpsAsGKtkfYY"
  },
  {
    "title": "Galaxy Cars",
    "subTitle": "गैलेक्सी कार्स",
    "categoryName": "Car dealer",
    "address": "XQRG+G34, Shivaji Mahraj Rd, Matoshree Nagar, Nashik, Maharashtra 422002, India",
    "neighborhood": "Matoshree Nagar",
    "street": "XQRG+G34, Shivaji Mahraj Rd",
    "city": "Nashik",
    "postalCode": "422002",
    "state": "Maharashtra",
    "countryCode": "IN",
    "location": {
      "lat": 19.9912511,
      "lng": 73.7751918
    },
    "totalScore": 5,
    "permanentlyClosed": false,
    "temporarilyClosed": false,
    "placeId": "ChIJ09PiTAzr3TsRECFc9pgoM2o",
    "categories": [
      "Car dealer"
    ],
    "reviewsCount": 2,
    "imagesCount": 1,
    "openingHours": [],
    "imageUrl": "https://media.indianluxurycars.com/google/a819bc3e8b65a21f54b6d93099535d4cc1df35d85d244ec42a386e0bb878f1fd.jpg",
    "url": "https://www.google.com/maps/search/?api=1&query=Galaxy%20Cars&query_place_id=ChIJ09PiTAzr3TsRECFc9pgoM2o"
  },
  {
    "title": "Geeta Travels",
    "subTitle": "गीता ट्रैवल्स",
    "categoryName": "Car rental agency",
    "address": "Shop No:-17, Riddhi Siddhi Apartments, Indrakund, Panchavati, Nashik, Maharashtra 422003, India",
    "neighborhood": "Indrakund, Panchavati",
    "street": "Shop No:-17, Riddhi Siddhi Apartments",
    "city": "Nashik",
    "postalCode": "422003",
    "state": "Maharashtra",
    "countryCode": "IN",
    "website": "http://www.geetatravel.com/",
    "phone": "+912532511076",
    "phoneUnformatted": "+912532511076",
    "location": {
      "lat": 20.0101675,
      "lng": 73.7934611
    },
    "totalScore": 4.1,
    "permanentlyClosed": false,
    "temporarilyClosed": false,
    "placeId": "ChIJAz0Zhqfr3TsRrO2kRz2yEuo",
    "categories": [
      "Car rental agency"
    ],
    "reviewsCount": 41,
    "imagesCount": 27,
    "openingHours": [
      {
        "day": "Monday",
        "hours": "Open 24 hours"
      },
      {
        "day": "Tuesday",
        "hours": "Open 24 hours"
      },
      {
        "day": "Wednesday",
        "hours": "Open 24 hours"
      },
      {
        "day": "Thursday",
        "hours": "Open 24 hours"
      },
      {
        "day": "Friday",
        "hours": "Open 24 hours"
      },
      {
        "day": "Saturday",
        "hours": "Open 24 hours"
      },
      {
        "day": "Sunday",
        "hours": "Open 24 hours"
      }
    ],
    "imageUrl": "https://media.indianluxurycars.com/google/e50688fa387b222434276fcc6de8fc2c5a55eccff9578c24251c5a496096027d.jpg",
    "url": "https://www.google.com/maps/search/?api=1&query=Geeta%20Travels&query_place_id=ChIJAz0Zhqfr3TsRrO2kRz2yEuo"
  },
  {
    "title": "GLOBAL AUTO TRADING",
    "subTitle": "ग्लोबल ऑटो ट्रेडिंग",
    "categoryName": "Car dealer",
    "address": "Shop No. 1, Hare Krishna Marg, near Panchavati Express Hotel, Mumbai Naka, Bhagwant Nagar, Renuka Nagar, Nashik, Maharashtra 422009, India",
    "neighborhood": "Mumbai Naka, Bhagwant Nagar, Renuka Nagar",
    "street": "Shop No. 1, Hare Krishna Marg, near Panchavati Express Hotel",
    "city": "Nashik",
    "postalCode": "422009",
    "state": "Maharashtra",
    "countryCode": "IN",
    "phone": "+918421370092",
    "phoneUnformatted": "+918421370092",
    "location": {
      "lat": 19.9865591,
      "lng": 73.7846263
    },
    "totalScore": 5,
    "permanentlyClosed": false,
    "temporarilyClosed": false,
    "placeId": "ChIJEU-PRrnr3TsRpgReSylIpdw",
    "categories": [
      "Car dealer"
    ],
    "reviewsCount": 1,
    "imagesCount": 2,
    "openingHours": [
      {
        "day": "Monday",
        "hours": "7 AM to 9:30 PM"
      },
      {
        "day": "Tuesday",
        "hours": "7 AM to 9:30 PM"
      },
      {
        "day": "Wednesday",
        "hours": "7 AM to 9:30 PM"
      },
      {
        "day": "Thursday",
        "hours": "7 AM to 9:30 PM"
      },
      {
        "day": "Friday",
        "hours": "7 AM to 9:30 PM"
      },
      {
        "day": "Saturday",
        "hours": "7 AM to 9:30 PM"
      },
      {
        "day": "Sunday",
        "hours": "7 AM to 9:30 PM"
      }
    ],
    "imageUrl": "https://media.indianluxurycars.com/google/1d6317aec22efca4eb0c470e6f520073d861dfa9bee263c1f785c5b5894634e8.jpg",
    "url": "https://www.google.com/maps/search/?api=1&query=GLOBAL%20AUTO%20TRADING&query_place_id=ChIJEU-PRrnr3TsRpgReSylIpdw"
  },
  {
    "title": "gocabish",
    "subTitle": "गोकॅबिश",
    "categoryName": "Car rental agency",
    "address": "Shop no. 1 Swami Vivekananda nagar, amrutdham, Panchavati, Nashik, Maharashtra 422003, India",
    "neighborhood": "Malegaon Stand, Panchavati",
    "street": "Shop no. 1 Swami Vivekananda nagar, amrutdham",
    "city": "Nashik",
    "postalCode": "422003",
    "state": "Maharashtra",
    "countryCode": "IN",
    "website": "http://www.gocabish.com/",
    "phone": "+918989282811",
    "phoneUnformatted": "+918989282811",
    "location": {
      "lat": 20.0095493,
      "lng": 73.7918777
    },
    "totalScore": 4.8,
    "permanentlyClosed": false,
    "temporarilyClosed": false,
    "placeId": "ChIJ1X6L9GTr3TsR6Cb18FBWtCQ",
    "categories": [
      "Car rental agency",
      "Airport shuttle service",
      "Car leasing service",
      "Taxi service"
    ],
    "reviewsCount": 131,
    "imagesCount": 47,
    "openingHours": [],
    "imageUrl": "https://media.indianluxurycars.com/google/35b7b62d98e9c8242dffaa61eb5a513afe6ef54dbccd9ee0a750f4a6a3039b82.jpg",
    "url": "https://www.google.com/maps/search/?api=1&query=gocabish&query_place_id=ChIJ1X6L9GTr3TsR6Cb18FBWtCQ"
  },
  {
    "title": "GURU CABS SERVICES",
    "subTitle": "गुरू कॉब्स सर्विसेस",
    "categoryName": "Car rental agency",
    "address": "New CBS Bus Stand, Thakkar Bazar, Police Staff Colony, Nashik, Maharashtra 422002, India",
    "neighborhood": "Thakkar Bazar, Police Staff Colony",
    "street": "New CBS Bus Stand",
    "city": "Nashik",
    "postalCode": "422002",
    "state": "Maharashtra",
    "countryCode": "IN",
    "phone": "+919730563567",
    "phoneUnformatted": "+919730563567",
    "location": {
      "lat": 19.9986486,
      "lng": 73.7804971
    },
    "totalScore": 4.8,
    "permanentlyClosed": false,
    "temporarilyClosed": false,
    "placeId": "ChIJF_6PNAjr3TsRrHYbBDEMiHU",
    "categories": [
      "Car rental agency",
      "Car leasing service",
      "Taxi service"
    ],
    "reviewsCount": 13,
    "imagesCount": 2,
    "openingHours": [],
    "imageUrl": "https://media.indianluxurycars.com/google/b65a1718f79b97461c3e18ec583eddba20b2b0aadf2d350241513c63e4c8cec9.jpg",
    "url": "https://www.google.com/maps/search/?api=1&query=GURU%20CABS%20SERVICES&query_place_id=ChIJF_6PNAjr3TsRrHYbBDEMiHU"
  },
  {
    "title": "Highline Motors – Leading Used Car Mall in Nashik",
    "subTitle": "हायलाईन मोटर्स",
    "categoryName": "Used car dealer",
    "address": "Aurangabad Rd, near Samruddhi Hospital, opp. Yashwant Lawns, Wadivarhe, Nandur Naka, Nashik, Maharashtra 422003, India",
    "neighborhood": "Wadivarhe, Nandur Naka",
    "street": "Aurangabad Rd, near Samruddhi Hospital, opp. Yashwant Lawns",
    "city": "Nashik",
    "postalCode": "422003",
    "state": "Maharashtra",
    "countryCode": "IN",
    "phone": "+919881786512",
    "phoneUnformatted": "+919881786512",
    "location": {
      "lat": 19.9994873,
      "lng": 73.8362325
    },
    "totalScore": 5,
    "permanentlyClosed": false,
    "temporarilyClosed": false,
    "placeId": "ChIJbe9zDcLr3TsR5VTGFOJHAEU",
    "categories": [
      "Used car dealer",
      "Auto broker",
      "Auto insurance agency",
      "Auto market",
      "Car dealer",
      "Car finance and loan company",
      "Motoring club"
    ],
    "reviewsCount": 4,
    "imagesCount": 24,
    "openingHours": [
      {
        "day": "Monday",
        "hours": "10 AM to 8 PM"
      },
      {
        "day": "Tuesday",
        "hours": "10 AM to 8 PM"
      },
      {
        "day": "Wednesday",
        "hours": "10 AM to 8 PM"
      },
      {
        "day": "Thursday",
        "hours": "10 AM to 8 PM"
      },
      {
        "day": "Friday",
        "hours": "10 AM to 8 PM"
      },
      {
        "day": "Saturday",
        "hours": "10 AM to 8 PM"
      },
      {
        "day": "Sunday",
        "hours": "10 AM to 3 PM"
      }
    ],
    "imageUrl": "https://media.indianluxurycars.com/google/5d12b0df8edcc1fac67ffe7326c90b32f1f1233df7ca4cb5004fb523a0540aa9.jpg",
    "url": "https://www.google.com/maps/search/?api=1&query=Highline%20Motors%20%E2%80%93%20Leading%20Used%20Car%20Mall%20in%20Nashik&query_place_id=ChIJbe9zDcLr3TsR5VTGFOJHAEU"
  },
  {
    "title": "Home car rental",
    "subTitle": "होम कार रेंटल",
    "categoryName": "Car rental agency",
    "address": "Samruddhi Park, Agricultur college, behind K K Wagh, Hari Om Kapalesh Nagar, Saraswati Nagar, Panchavati, Nashik, Maharashtra 422003, India",
    "neighborhood": "Hari Om Kapalesh Nagar, Saraswati Nagar, Panchavati",
    "street": "Samruddhi Park, Agricultur college, behind K K Wagh",
    "city": "Nashik",
    "postalCode": "422003",
    "state": "Maharashtra",
    "countryCode": "IN",
    "website": "https://homecarrental.com/",
    "phone": "+919325910143",
    "phoneUnformatted": "+919325910143",
    "location": {
      "lat": 20.0265203,
      "lng": 73.8337471
    },
    "totalScore": 5,
    "permanentlyClosed": false,
    "temporarilyClosed": false,
    "placeId": "ChIJoajJ0Vjr3TsR6T9PZaO4WGQ",
    "categories": [
      "Car rental agency",
      "Car leasing service",
      "Taxi service",
      "Minibus taxi service",
      "Tour agency",
      "Travel agency"
    ],
    "reviewsCount": 9,
    "imagesCount": 22,
    "openingHours": [],
    "imageUrl": "https://media.indianluxurycars.com/google/5ba54a52a6cc4dbed211e6b459eabc691dba7f42eec6033557fef7872d9a4677.jpg",
    "url": "https://www.google.com/maps/search/?api=1&query=Home%20car%20rental&query_place_id=ChIJoajJ0Vjr3TsR6T9PZaO4WGQ"
  },
  {
    "title": "Infinity Self drive service Nashik",
    "subTitle": "इन्फिनिटी सेल्फ ड्राइव सर्विस नाशिक",
    "categoryName": "Car rental agency",
    "address": "Amrut Garden, ABP circle, near post office, NICE Area, Mahatma Nagar, Parijat Nagar, Nashik, Maharashtra 422010, India",
    "neighborhood": "NICE Area, Mahatma Nagar, Parijat Nagar",
    "street": "Amrut Garden, ABP circle, near post office",
    "city": "Nashik",
    "postalCode": "422010",
    "state": "Maharashtra",
    "countryCode": "IN",
    "website": "https://selfdrive.in/",
    "phone": "+917558441243",
    "phoneUnformatted": "+917558441243",
    "location": {
      "lat": 19.9937068,
      "lng": 73.7503929
    },
    "totalScore": 4.8,
    "permanentlyClosed": false,
    "temporarilyClosed": false,
    "placeId": "ChIJI4PCkS_r3TsR2811DA705bQ",
    "categories": [
      "Car rental agency",
      "Car leasing service"
    ],
    "reviewsCount": 134,
    "imagesCount": 11,
    "openingHours": [
      {
        "day": "Monday",
        "hours": "Open 24 hours"
      },
      {
        "day": "Tuesday",
        "hours": "Open 24 hours"
      },
      {
        "day": "Wednesday",
        "hours": "Open 24 hours"
      },
      {
        "day": "Thursday",
        "hours": "Open 24 hours"
      },
      {
        "day": "Friday",
        "hours": "Open 24 hours"
      },
      {
        "day": "Saturday",
        "hours": "Open 24 hours"
      },
      {
        "day": "Sunday",
        "hours": "Open 24 hours"
      }
    ],
    "imageUrl": "https://media.indianluxurycars.com/google/85735f4a66f9e72bb0b60ff62c90aa8f25bd02cfb7322ddcd3edf74469a68218.jpg",
    "url": "https://www.google.com/maps/search/?api=1&query=Infinity%20Self%20drive%20service%20Nashik&query_place_id=ChIJI4PCkS_r3TsR2811DA705bQ"
  },
  {
    "title": "K-Infinity Tourism",
    "subTitle": "के-इन्फिनिटी टुरिझम",
    "categoryName": "Car leasing service",
    "address": "1st floor, Gurudwara Road, opp. Sandeep hotel, Shingada Talav, Mumbai Naka, Renuka Nagar, Nashik, Maharashtra 422001, India",
    "neighborhood": "Shingada Talav, Mumbai Naka, Renuka Nagar",
    "street": "1st floor, Gurudwara Road, opp. Sandeep hotel",
    "city": "Nashik",
    "postalCode": "422001",
    "state": "Maharashtra",
    "countryCode": "IN",
    "website": "https://youtube.com/@kinfinitytourism?si=sHXbochLBv2TrLAH",
    "location": {
      "lat": 19.9908324,
      "lng": 73.7835917
    },
    "totalScore": 4.8,
    "permanentlyClosed": false,
    "temporarilyClosed": false,
    "placeId": "ChIJWZ22B0zr3TsROVm7guvDcbo",
    "categories": [
      "Car leasing service",
      "Tour operator",
      "Passport agent",
      "Tourist attraction",
      "Travel agency"
    ],
    "reviewsCount": 599,
    "imagesCount": 3063,
    "openingHours": [
      {
        "day": "Monday",
        "hours": "Open 24 hours"
      },
      {
        "day": "Tuesday",
        "hours": "Open 24 hours"
      },
      {
        "day": "Wednesday",
        "hours": "Open 24 hours"
      },
      {
        "day": "Thursday",
        "hours": "Open 24 hours"
      },
      {
        "day": "Friday",
        "hours": "Open 24 hours"
      },
      {
        "day": "Saturday",
        "hours": "Open 24 hours"
      },
      {
        "day": "Sunday",
        "hours": "Open 24 hours"
      }
    ],
    "imageUrl": "https://media.indianluxurycars.com/google/e5376a8333b52afe877b3955b4dcac061a95389e15787903a88789156c9d72e0.jpg",
    "url": "https://www.google.com/maps/search/?api=1&query=K-Infinity%20Tourism&query_place_id=ChIJWZ22B0zr3TsROVm7guvDcbo"
  },
  {
    "title": "Karcaro",
    "subTitle": "कार्कॅरो",
    "categoryName": "Car rental agency",
    "address": "Tirupati Shopping Complex, F5, Mane Nagar, Asha Nagar, Nashik, Maharashtra 422003, India",
    "neighborhood": "Mane Nagar, Asha Nagar",
    "street": "Tirupati Shopping Complex, F5",
    "city": "Nashik",
    "state": "Maharashtra",
    "countryCode": "IN",
    "website": "https://karcaro.com/",
    "phone": "+917887881199",
    "phoneUnformatted": "+917887881199",
    "location": {
      "lat": 20.0289581,
      "lng": 73.8295795
    },
    "totalScore": 5,
    "permanentlyClosed": false,
    "temporarilyClosed": false,
    "placeId": "ChIJvb1KHLp33mARs6tdvr15gfg",
    "categories": [
      "Car rental agency"
    ],
    "reviewsCount": 39,
    "imagesCount": 169,
    "openingHours": [
      {
        "day": "Monday",
        "hours": "Open 24 hours"
      },
      {
        "day": "Tuesday",
        "hours": "Open 24 hours"
      },
      {
        "day": "Wednesday",
        "hours": "Open 24 hours"
      },
      {
        "day": "Thursday",
        "hours": "Open 24 hours"
      },
      {
        "day": "Friday",
        "hours": "Open 24 hours"
      },
      {
        "day": "Saturday",
        "hours": "Open 24 hours"
      },
      {
        "day": "Sunday",
        "hours": "Open 24 hours"
      }
    ],
    "imageUrl": "https://media.indianluxurycars.com/google/e9ddb5f3cd3998d1161e2ebfc0f8f98cf9e410aabf654c54a2c77cc9cf10b9cf.jpg",
    "url": "https://www.google.com/maps/search/?api=1&query=Karcaro&query_place_id=ChIJvb1KHLp33mARs6tdvr15gfg"
  },
  {
    "title": "Kings Travel",
    "subTitle": "किंग्स ट्रैवल",
    "categoryName": "Car rental agency",
    "address": "Shop No. A-8, Business Plaza, near Zudio, Adgaon Naka, Panchavati, Nashik, Maharashtra 422003, India",
    "neighborhood": "Adgaon Naka, Panchavati",
    "street": "Shop No. A-8, Business Plaza, near Zudio",
    "city": "Nashik",
    "postalCode": "422003",
    "state": "Maharashtra",
    "countryCode": "IN",
    "website": "http://www.kingstravel.in/",
    "phone": "+919226922122",
    "phoneUnformatted": "+919226922122",
    "location": {
      "lat": 20.0094908,
      "lng": 73.8048874
    },
    "totalScore": 4.7,
    "permanentlyClosed": false,
    "temporarilyClosed": false,
    "placeId": "ChIJ-f__Pwnr3TsRS9dK62shuRQ",
    "categories": [
      "Car rental agency",
      "Car leasing service",
      "Taxi service",
      "Motorcycle rental agency"
    ],
    "reviewsCount": 306,
    "imagesCount": 51,
    "openingHours": [],
    "imageUrl": "https://media.indianluxurycars.com/google/ad053bfeffe452503e4397f95f28e13ac1724f33f407966e44c04f384a25d72f.jpg",
    "url": "https://www.google.com/maps/search/?api=1&query=Kings%20Travel&query_place_id=ChIJ-f__Pwnr3TsRS9dK62shuRQ"
  },
  {
    "title": "LUCKY TOURS AND TRAVELS",
    "subTitle": "लकी कॅब सर्विस",
    "categoryName": "Car rental agency",
    "address": "Near, Pandey Mithai, Panchavati Karanja, Panchavati, Nashik, Maharashtra 422003, India",
    "neighborhood": "Panchavati Karanja, Panchavati",
    "street": "Near, Pandey Mithai",
    "city": "Nashik",
    "postalCode": "422003",
    "state": "Maharashtra",
    "countryCode": "IN",
    "website": "https://sites.google.com/view/lucky-tours-and-travel/home",
    "phone": "+919503547686",
    "phoneUnformatted": "+919503547686",
    "location": {
      "lat": 20.0097364,
      "lng": 73.795198
    },
    "totalScore": 4.8,
    "permanentlyClosed": false,
    "temporarilyClosed": false,
    "placeId": "ChIJW2fUnCfr3TsRzLXD_xgqte0",
    "categories": [
      "Car rental agency",
      "Car leasing service",
      "Taxi service",
      "Travel agency"
    ],
    "reviewsCount": 56,
    "imagesCount": 69,
    "openingHours": [],
    "imageUrl": "https://media.indianluxurycars.com/google/64beead97b01fa978d66429b17ae395845d6acd5461ba022acd42a4a7281f810.jpg",
    "url": "https://www.google.com/maps/search/?api=1&query=LUCKY%20TOURS%20AND%20TRAVELS&query_place_id=ChIJW2fUnCfr3TsRzLXD_xgqte0"
  },
  {
    "title": "Mansi Cab Services",
    "subTitle": "मानसी कैब सर्विसेस",
    "categoryName": "Car rental agency",
    "address": "Plot no.9, Amrutdham, Link Road, Bidi Kamgar Colony, Nashik, Maharashtra 422003, India",
    "neighborhood": "Bidi Kamgar Colony",
    "street": "Plot no.9, Amrutdham, Link Road",
    "city": "Nashik",
    "postalCode": "422003",
    "state": "Maharashtra",
    "countryCode": "IN",
    "website": "http://www.mansicab.com/",
    "phone": "+918585857798",
    "phoneUnformatted": "+918585857798",
    "location": {
      "lat": 20.0098094,
      "lng": 73.8261843
    },
    "totalScore": 4.8,
    "permanentlyClosed": false,
    "temporarilyClosed": false,
    "placeId": "ChIJaWYEfK7r3TsR3_tXjZ2xQtE",
    "categories": [
      "Car rental agency",
      "Air taxi",
      "Car leasing service",
      "Taxi service",
      "Minibus taxi service",
      "Tour agency",
      "Tour operator",
      "Travel agency"
    ],
    "reviewsCount": 614,
    "imagesCount": 260,
    "openingHours": [],
    "imageUrl": "https://media.indianluxurycars.com/google/d2761faaa93eb4e97b55d56aa030051f4852610887da33c00b0816d71a5a7dd5.jpg",
    "url": "https://www.google.com/maps/search/?api=1&query=Mansi%20Cab%20Services&query_place_id=ChIJaWYEfK7r3TsR3_tXjZ2xQtE"
  },
  {
    "title": "MAPPELLE SELF DRIVE CAR'S",
    "subTitle": "मेपल सेल्फ ड्राइव कार'से",
    "categoryName": "Car rental agency",
    "address": "Mumbai Naka, Matoshree Nagar, Nashik, Maharashtra 422002, India",
    "neighborhood": "Mumbai Naka, Matoshree Nagar",
    "city": "Nashik",
    "postalCode": "422002",
    "state": "Maharashtra",
    "countryCode": "IN",
    "website": "http://travels.mappelle.in/",
    "phone": "+917304243961",
    "phoneUnformatted": "+917304243961",
    "location": {
      "lat": 19.9902986,
      "lng": 73.7827084
    },
    "totalScore": 5,
    "permanentlyClosed": false,
    "temporarilyClosed": false,
    "placeId": "ChIJD52lH67r3TsR-QiijZe2JR8",
    "categories": [
      "Car rental agency"
    ],
    "reviewsCount": 33,
    "imagesCount": 23,
    "openingHours": [
      {
        "day": "Monday",
        "hours": "Open 24 hours"
      },
      {
        "day": "Tuesday",
        "hours": "Open 24 hours"
      },
      {
        "day": "Wednesday",
        "hours": "Open 24 hours"
      },
      {
        "day": "Thursday",
        "hours": "Open 24 hours"
      },
      {
        "day": "Friday",
        "hours": "Open 24 hours"
      },
      {
        "day": "Saturday",
        "hours": "Open 24 hours"
      },
      {
        "day": "Sunday",
        "hours": "Open 24 hours"
      }
    ],
    "imageUrl": "https://media.indianluxurycars.com/google/326ebddeb47e569b5a29588e7988f6927cc3ab82280db6a5f0e6cabbf99bf64f.jpg",
    "url": "https://www.google.com/maps/search/?api=1&query=MAPPELLE%20SELF%20DRIVE%20CAR'S&query_place_id=ChIJD52lH67r3TsR-QiijZe2JR8"
  },
  {
    "title": "Mayur Car Mall",
    "subTitle": "मयुर कार मॉल",
    "categoryName": "Used car dealer",
    "address": "City centre Mall, to, link road, Radha Vasudev Batavia Nagar, Govind Nagar, Nashik, Maharashtra 422008, India",
    "neighborhood": "Radha Vasudev Batavia Nagar, Govind Nagar",
    "street": "City centre Mall, to, link road",
    "city": "Nashik",
    "postalCode": "422008",
    "state": "Maharashtra",
    "countryCode": "IN",
    "phone": "+919422269159",
    "phoneUnformatted": "+919422269159",
    "location": {
      "lat": 19.9876809,
      "lng": 73.7687449
    },
    "totalScore": 4.9,
    "permanentlyClosed": false,
    "temporarilyClosed": false,
    "placeId": "ChIJkWeUsbPr3TsROtKF64uIfJs",
    "categories": [
      "Used car dealer"
    ],
    "reviewsCount": 381,
    "imagesCount": 165,
    "openingHours": [
      {
        "day": "Monday",
        "hours": "10:30 AM to 7:30 PM"
      },
      {
        "day": "Tuesday",
        "hours": "10:30 AM to 7:30 PM"
      },
      {
        "day": "Wednesday",
        "hours": "10:30 AM to 7:30 PM"
      },
      {
        "day": "Thursday",
        "hours": "10:30 AM to 7:30 PM"
      },
      {
        "day": "Friday",
        "hours": "10:30 AM to 7:30 PM"
      },
      {
        "day": "Saturday",
        "hours": "10:30 AM to 7:30 PM"
      },
      {
        "day": "Sunday",
        "hours": "10:30 AM to 6 PM"
      }
    ],
    "imageUrl": "https://media.indianluxurycars.com/google/6263722f56fb87e5fa03734200dc46e973b1f7b78f531e8fcfbd259e216eea7a.jpg",
    "url": "https://www.google.com/maps/search/?api=1&query=Mayur%20Car%20Mall&query_place_id=ChIJkWeUsbPr3TsROtKF64uIfJs"
  },
  {
    "title": "Meera Tours & Travels",
    "subTitle": "मीरा ट्रॅव्हल्स",
    "categoryName": "Car rental agency",
    "address": "Sakal Office Basement, BA 4, Thakkar Bazar, New CBS, Police Staff Colony, Nashik, Maharashtra 422002, India",
    "neighborhood": "Thakkar Bazar, New CBS, Police Staff Colony",
    "street": "Sakal Office Basement, BA 4",
    "city": "Nashik",
    "postalCode": "422002",
    "state": "Maharashtra",
    "countryCode": "IN",
    "website": "http://meeratourstravels.in/",
    "phone": "+917507778070",
    "phoneUnformatted": "+917507778070",
    "location": {
      "lat": 19.9990971,
      "lng": 73.7804343
    },
    "totalScore": 4.8,
    "permanentlyClosed": false,
    "temporarilyClosed": false,
    "placeId": "ChIJPcJeUwjr3TsRJyL2_Ao1Jtg",
    "categories": [
      "Car rental agency",
      "Airline ticket agency",
      "Car leasing service",
      "Minibus taxi service",
      "Taxi service",
      "Tour agency",
      "Tour operator",
      "Train ticket agency",
      "Travel agency"
    ],
    "reviewsCount": 846,
    "imagesCount": 784,
    "openingHours": [
      {
        "day": "Monday",
        "hours": "Open 24 hours"
      },
      {
        "day": "Tuesday",
        "hours": "Open 24 hours"
      },
      {
        "day": "Wednesday",
        "hours": "Open 24 hours"
      },
      {
        "day": "Thursday",
        "hours": "Open 24 hours"
      },
      {
        "day": "Friday",
        "hours": "Open 24 hours"
      },
      {
        "day": "Saturday",
        "hours": "Open 24 hours"
      },
      {
        "day": "Sunday",
        "hours": "Open 24 hours"
      }
    ],
    "imageUrl": "https://media.indianluxurycars.com/google/bb0d04756c1f32caec2f3020be772f37dfd8cc1a775df452988edb778ae5698b.jpg",
    "url": "https://www.google.com/maps/search/?api=1&query=Meera%20Tours%20%26%20Travels&query_place_id=ChIJPcJeUwjr3TsRJyL2_Ao1Jtg"
  },
  {
    "title": "MH 15 Car Mall",
    "categoryName": "Used car dealer",
    "address": "B square, 102, first floor, near Shraddha Petrol Pump, Yeolekar Mala, Nashik, Maharashtra 422005, India",
    "neighborhood": "Yeolekar Mala, Krishi Nagar",
    "street": "B square, 102, first floor, near Shraddha Petrol Pump",
    "city": "Nashik",
    "postalCode": "422005",
    "state": "Maharashtra",
    "countryCode": "IN",
    "phone": "+919881716892",
    "phoneUnformatted": "+919881716892",
    "location": {
      "lat": 20.0033216,
      "lng": 73.7624073
    },
    "totalScore": 4.2,
    "permanentlyClosed": false,
    "temporarilyClosed": false,
    "placeId": "ChIJfZjgnw7r3TsRYkMlOZoHljs",
    "categories": [
      "Used car dealer"
    ],
    "reviewsCount": 98,
    "imagesCount": 26,
    "openingHours": [],
    "imageUrl": "https://media.indianluxurycars.com/google/fd17d3b529b5d6405e27752433cca2b321cecec3216cfe27dda797983ffd1700.jpg",
    "url": "https://www.google.com/maps/search/?api=1&query=MH%2015%20Car%20Mall&query_place_id=ChIJfZjgnw7r3TsRYkMlOZoHljs"
  },
  {
    "title": "Morya Cars Pvt Ltd Nashik Showroom",
    "subTitle": "मोरया कार्स पीवीटी एलटीडी नाशिक शोरूम",
    "categoryName": "Used car dealer",
    "address": "Avani Heights, Ahilyadevi Holkar Rd, opp. Suyash Hospital, Mumbai Naka, Tidke Colony, Nashik, Maharashtra 422002, India",
    "neighborhood": "Mumbai Naka, Tidke Colony",
    "street": "Avani Heights, Ahilyadevi Holkar Rd, opp. Suyash Hospital",
    "city": "Nashik",
    "postalCode": "422002",
    "state": "Maharashtra",
    "countryCode": "IN",
    "phone": "+917066035000",
    "phoneUnformatted": "+917066035000",
    "location": {
      "lat": 19.9893721,
      "lng": 73.7790204
    },
    "totalScore": 5,
    "permanentlyClosed": false,
    "temporarilyClosed": false,
    "placeId": "ChIJP4P5LXvr3TsRp-N3rF6sRsc",
    "categories": [
      "Used car dealer"
    ],
    "reviewsCount": 5,
    "imagesCount": 4,
    "openingHours": [
      {
        "day": "Monday",
        "hours": "11 AM to 7:30 PM"
      },
      {
        "day": "Tuesday",
        "hours": "11 AM to 7:30 PM"
      },
      {
        "day": "Wednesday",
        "hours": "11 AM to 7:30 PM"
      },
      {
        "day": "Thursday",
        "hours": "11 AM to 7:30 PM"
      },
      {
        "day": "Friday",
        "hours": "11 AM to 7:30 PM"
      },
      {
        "day": "Saturday",
        "hours": "11 AM to 7:30 PM"
      },
      {
        "day": "Sunday",
        "hours": "10:30 AM to 6:30 PM"
      }
    ],
    "imageUrl": "https://media.indianluxurycars.com/google/e84547cc616e8cc7d5022e18e3a59ffbc8bf231e68a4aa5b72873679a6377743.jpg",
    "url": "https://www.google.com/maps/search/?api=1&query=Morya%20Cars%20Pvt%20Ltd%20Nashik%20Showroom&query_place_id=ChIJP4P5LXvr3TsRp-N3rF6sRsc"
  },
  {
    "title": "Nashik Cab Service",
    "subTitle": "नाशिक कैब सर्विस",
    "categoryName": "Car rental agency",
    "address": "Maneksha Nagar, Dwarka, Nashik, Maharashtra 422001, India",
    "neighborhood": "Maneksha Nagar, Dwarka",
    "city": "Nashik",
    "postalCode": "422001",
    "state": "Maharashtra",
    "countryCode": "IN",
    "phone": "+917058324981",
    "phoneUnformatted": "+917058324981",
    "location": {
      "lat": 19.9939378,
      "lng": 73.7976115
    },
    "totalScore": 5,
    "permanentlyClosed": false,
    "temporarilyClosed": false,
    "placeId": "ChIJQWgTqODr3TsR7lTA6kg04OA",
    "categories": [
      "Car rental agency",
      "Car leasing service",
      "Taxi service",
      "Minibus taxi service",
      "Tour operator"
    ],
    "reviewsCount": 1,
    "imagesCount": 45,
    "openingHours": [],
    "imageUrl": "https://media.indianluxurycars.com/google/06c558531f926527c93bb2227bde582b6a13267a91db4cf8accc39cb3ec152ae.jpg",
    "url": "https://www.google.com/maps/search/?api=1&query=Nashik%20Cab%20Service&query_place_id=ChIJQWgTqODr3TsR7lTA6kg04OA"
  },
  {
    "title": "Nashik Mumbai Cabs",
    "subTitle": "नाशिक मुंबई कैब्स",
    "categoryName": "Car leasing service",
    "address": "Avinash Apt, Plot No. 10, Dindori Rd, next to Sai Kirti Row House, Kalananagar, Vaiduwadi, Nashik, Maharashtra 422004, India",
    "neighborhood": "Kalananagar, Vaiduwadi",
    "street": "Avinash Apt, Plot No. 10, Dindori Rd, next to Sai Kirti Row House",
    "city": "Nashik",
    "postalCode": "422004",
    "state": "Maharashtra",
    "countryCode": "IN",
    "website": "https://sudarshancab.com/",
    "phone": "+919834657257",
    "phoneUnformatted": "+919834657257",
    "location": {
      "lat": 20.041227,
      "lng": 73.805698
    },
    "totalScore": 5,
    "permanentlyClosed": false,
    "temporarilyClosed": false,
    "placeId": "ChIJPzJlvqjr3TsRaaMEBbyssfo",
    "categories": [
      "Car leasing service",
      "Taxi service",
      "Minibus taxi service"
    ],
    "reviewsCount": 50,
    "imagesCount": 59,
    "openingHours": [],
    "imageUrl": "https://media.indianluxurycars.com/google/61fbc3ca79d2fd5e09b2f13ce763eacaff54d3f4de1a3b57da02f21ac04f7ca8.jpg",
    "url": "https://www.google.com/maps/search/?api=1&query=Nashik%20Mumbai%20Cabs&query_place_id=ChIJPzJlvqjr3TsRaaMEBbyssfo"
  },
  {
    "title": "Nashik Travel",
    "subTitle": "नाशिक ट्रैवल",
    "categoryName": "Car rental agency",
    "address": "Shop no 2, Dream Park, Ashoka Marg, Jaydeep Nagar, Mamta Nagar, Kalpataru Nagar, Nashik, Maharashtra 422006, India",
    "neighborhood": "Jaydeep Nagar, Mamta Nagar, Kalpataru Nagar",
    "street": "Shop no 2, Dream Park, Ashoka Marg",
    "city": "Nashik",
    "postalCode": "422006",
    "state": "Maharashtra",
    "countryCode": "IN",
    "website": "https://nashiktravel.in/",
    "phone": "+918433909092",
    "phoneUnformatted": "+918433909092",
    "location": {
      "lat": 19.9808561,
      "lng": 73.793289
    },
    "totalScore": 5,
    "permanentlyClosed": false,
    "temporarilyClosed": false,
    "placeId": "ChIJwY83y87r3TsRo5Vy3JYtoKM",
    "categories": [
      "Car rental agency",
      "Car leasing service",
      "Taxi service",
      "Travel agency"
    ],
    "reviewsCount": 2,
    "imagesCount": 15,
    "openingHours": [],
    "imageUrl": "https://media.indianluxurycars.com/google/8cda6b4ebd9fdb2ee997b78f9fbf11b15bd1a603d155571db6de62e7805d92dc.jpg",
    "url": "https://www.google.com/maps/search/?api=1&query=Nashik%20Travel&query_place_id=ChIJwY83y87r3TsRo5Vy3JYtoKM"
  },
  {
    "title": "Nikky's Car Decor",
    "subTitle": "निकिस कार डेकोर",
    "categoryName": "Car accessories store",
    "address": "1, Harsora Complex, near Fire Brigade Office, opposite Fire Brigade, Shingada Talav, Renuka Nagar, Nashik, Maharashtra 422001, India",
    "neighborhood": "Shingada Talav, Renuka Nagar",
    "street": "1, Harsora Complex, near Fire Brigade Office, opposite Fire Brigade",
    "city": "Nashik",
    "postalCode": "422001",
    "state": "Maharashtra",
    "countryCode": "IN",
    "phone": "+912532590014",
    "phoneUnformatted": "+912532590014",
    "location": {
      "lat": 19.9931752,
      "lng": 73.7865601
    },
    "totalScore": 4,
    "permanentlyClosed": false,
    "temporarilyClosed": false,
    "placeId": "ChIJS-fyOgHr3TsRKNuk051-sBQ",
    "categories": [
      "Car accessories store",
      "Auto parts store"
    ],
    "reviewsCount": 130,
    "imagesCount": 12,
    "openingHours": [
      {
        "day": "Monday",
        "hours": "10 AM to 8 PM"
      },
      {
        "day": "Tuesday",
        "hours": "10 AM to 8 PM"
      },
      {
        "day": "Wednesday",
        "hours": "10 AM to 8 PM"
      },
      {
        "day": "Thursday",
        "hours": "10 AM to 8 PM"
      },
      {
        "day": "Friday",
        "hours": "10 AM to 8 PM"
      },
      {
        "day": "Saturday",
        "hours": "10 AM to 8 PM"
      },
      {
        "day": "Sunday",
        "hours": "Closed"
      }
    ],
    "imageUrl": "https://media.indianluxurycars.com/google/b381cbdb793a86c5d4bd362be1afc994e72f75dd7221d70ae407bbde6d3b9afb.jpg",
    "url": "https://www.google.com/maps/search/?api=1&query=Nikky's%20Car%20Decor&query_place_id=ChIJS-fyOgHr3TsRKNuk051-sBQ"
  },
  {
    "title": "Quality Cars - Trusted Used Car Mall in Nashik",
    "subTitle": "क्वालिटी कार्स - ट्रस्टेड यूज्ड कार मॉल इन नाशिक",
    "categoryName": "Used car dealer",
    "address": "Quality cars, Aurangabad Rd, opp. Mirchi Hotel Signal, Nandur Naka, Nashik, Maharashtra 422003, India",
    "neighborhood": "Nandur Naka",
    "street": "Quality cars, Aurangabad Rd, opp. Mirchi Hotel Signal",
    "city": "Nashik",
    "postalCode": "422003",
    "state": "Maharashtra",
    "countryCode": "IN",
    "phone": "+917499387821",
    "phoneUnformatted": "+917499387821",
    "location": {
      "lat": 20.0040883,
      "lng": 73.8257303
    },
    "totalScore": 5,
    "permanentlyClosed": false,
    "temporarilyClosed": false,
    "placeId": "ChIJC8cHxFnr3TsRo1_vnMEZDy0",
    "categories": [
      "Used car dealer",
      "Auto broker",
      "Auto insurance agency",
      "Auto market",
      "Car dealer",
      "Car finance and loan company",
      "Motoring club"
    ],
    "reviewsCount": 27,
    "imagesCount": 76,
    "openingHours": [
      {
        "day": "Monday",
        "hours": "10 AM to 8 PM"
      },
      {
        "day": "Tuesday",
        "hours": "10 AM to 8 PM"
      },
      {
        "day": "Wednesday",
        "hours": "10 AM to 8 PM"
      },
      {
        "day": "Thursday",
        "hours": "10 AM to 8 PM"
      },
      {
        "day": "Friday",
        "hours": "10 AM to 8 PM"
      },
      {
        "day": "Saturday",
        "hours": "10 AM to 8 PM"
      },
      {
        "day": "Sunday",
        "hours": "10 AM to 3 PM"
      }
    ],
    "imageUrl": "https://media.indianluxurycars.com/google/3cb3d993de19f223d7f4ecc96c4108d0d6415078574970cb9060eecbb2fee991.jpg",
    "url": "https://www.google.com/maps/search/?api=1&query=Quality%20Cars%20-%20Trusted%20Used%20Car%20Mall%20in%20Nashik&query_place_id=ChIJC8cHxFnr3TsRo1_vnMEZDy0"
  },
  {
    "title": "Roam 'N' Reach Cab Service ~ Car Rental",
    "subTitle": "रोम 'न' रीच कैब सर्विस ~ कार रेंटल",
    "categoryName": "Car rental agency",
    "address": "Hokacy zone, Mahamarg CBS Office, near sandeep hotel, Mumbai Naka, Gaikwad Nagar, Nashik, Maharashtra 422002, India",
    "neighborhood": "Mumbai Naka, Gaikwad Nagar",
    "street": "Hokacy zone, Mahamarg CBS Office, near sandeep hotel",
    "city": "Nashik",
    "postalCode": "422002",
    "state": "Maharashtra",
    "countryCode": "IN",
    "phone": "+918830048133",
    "phoneUnformatted": "+918830048133",
    "location": {
      "lat": 19.9878557,
      "lng": 73.7824197
    },
    "totalScore": 4.9,
    "permanentlyClosed": false,
    "temporarilyClosed": false,
    "placeId": "ChIJzR8bMpTr3TsRErYHgq0Fqgc",
    "categories": [
      "Car rental agency",
      "Car leasing service",
      "Minibus taxi service",
      "Taxi service",
      "Travel agency"
    ],
    "reviewsCount": 14,
    "imagesCount": 29,
    "openingHours": [
      {
        "day": "Monday",
        "hours": "Open 24 hours"
      },
      {
        "day": "Tuesday",
        "hours": "Open 24 hours"
      },
      {
        "day": "Wednesday",
        "hours": "Open 24 hours"
      },
      {
        "day": "Thursday",
        "hours": "Open 24 hours"
      },
      {
        "day": "Friday",
        "hours": "Open 24 hours"
      },
      {
        "day": "Saturday",
        "hours": "Open 24 hours"
      },
      {
        "day": "Sunday",
        "hours": "Open 24 hours"
      }
    ],
    "imageUrl": "https://media.indianluxurycars.com/google/fa692f3b5ae1de0b6dce287084e2d72fe873e41aebf2c52e01f922be9745f0b4.jpg",
    "url": "https://www.google.com/maps/search/?api=1&query=Roam%20'N'%20Reach%20Cab%20Service%20~%20Car%20Rental&query_place_id=ChIJzR8bMpTr3TsRErYHgq0Fqgc"
  },
  {
    "title": "Ruchi Car Rentals",
    "subTitle": "रुचि कार रेंटल्स",
    "categoryName": "Car rental agency",
    "address": "Bungalow no 11,Manodeep ,Adarsh Society, Mahila Bank Rd, behind Indira Nagar, Indira Nagar, Nashik, Maharashtra 422009, India",
    "neighborhood": "State Bank Colony, Indira Nagar",
    "street": "Bungalow no 11,Manodeep ,Adarsh Society, Mahila Bank Rd, behind Indira Nagar",
    "city": "Nashik",
    "postalCode": "422009",
    "state": "Maharashtra",
    "countryCode": "IN",
    "location": {
      "lat": 19.9778422,
      "lng": 73.7839547
    },
    "totalScore": 3.1,
    "permanentlyClosed": false,
    "temporarilyClosed": false,
    "placeId": "ChIJH6E-gi3r3TsRR9YleSKgi60",
    "categories": [
      "Car rental agency",
      "Bus tour agency"
    ],
    "reviewsCount": 24,
    "imagesCount": 10,
    "openingHours": [
      {
        "day": "Monday",
        "hours": "11 AM to 7 PM"
      },
      {
        "day": "Tuesday",
        "hours": "11 AM to 7 PM"
      },
      {
        "day": "Wednesday",
        "hours": "11 AM to 7 PM"
      },
      {
        "day": "Thursday",
        "hours": "11 AM to 7 PM"
      },
      {
        "day": "Friday",
        "hours": "11 AM to 7 PM"
      },
      {
        "day": "Saturday",
        "hours": "11 AM to 7 PM"
      },
      {
        "day": "Sunday",
        "hours": "11 AM to 7 PM"
      }
    ],
    "imageUrl": "https://media.indianluxurycars.com/google/5d370586a4bba930d58a6ca2fd17552abb6fda0c5bc7acd25310e7cbaeb93ebc.jpg",
    "url": "https://www.google.com/maps/search/?api=1&query=Ruchi%20Car%20Rentals&query_place_id=ChIJH6E-gi3r3TsRR9YleSKgi60"
  },
  {
    "title": "Sahjanand travels",
    "subTitle": "सहजानंद ट्रैवल्स",
    "categoryName": "Car rental agency",
    "address": "8, vasudev apartment, Dindori Rd, near reliance petrol pump, Kalananagar, Sneha Nagar, Nashik, Maharashtra 422004, India",
    "neighborhood": "Kalananagar, Sneha Nagar",
    "street": "8, vasudev apartment, Dindori Rd, near reliance petrol pump",
    "city": "Nashik",
    "postalCode": "422004",
    "state": "Maharashtra",
    "countryCode": "IN",
    "location": {
      "lat": 20.038205,
      "lng": 73.8011869
    },
    "totalScore": 4.9,
    "permanentlyClosed": false,
    "temporarilyClosed": false,
    "placeId": "ChIJr-FODRTr3TsR9-O33qvHJ4s",
    "categories": [
      "Car rental agency"
    ],
    "reviewsCount": 27,
    "imagesCount": 18,
    "openingHours": [
      {
        "day": "Monday",
        "hours": "Open 24 hours"
      },
      {
        "day": "Tuesday",
        "hours": "Open 24 hours"
      },
      {
        "day": "Wednesday",
        "hours": "Open 24 hours"
      },
      {
        "day": "Thursday",
        "hours": "Open 24 hours"
      },
      {
        "day": "Friday",
        "hours": "Open 24 hours"
      },
      {
        "day": "Saturday",
        "hours": "Open 24 hours"
      },
      {
        "day": "Sunday",
        "hours": "Open 24 hours"
      }
    ],
    "imageUrl": "https://media.indianluxurycars.com/google/65cf3a828784123ac3d5dc5a746f449267c905f85da8dc0a0b40625f05b9afaf.jpg",
    "url": "https://www.google.com/maps/search/?api=1&query=Sahjanand%20travels&query_place_id=ChIJr-FODRTr3TsR9-O33qvHJ4s"
  },
  {
    "title": "Sai Asha Cab Services",
    "subTitle": "साई आशा कैब सर्विसेस",
    "categoryName": "Car rental agency",
    "address": "plot no B17/18, Satpur MIDC Main Rd, NICE Area, MIDC, Parijat Nagar, Nashik, Maharashtra 422005, India",
    "neighborhood": "NICE Area, MIDC, Parijat Nagar",
    "street": "plot no B17/18, Satpur MIDC Main Rd",
    "city": "Nashik",
    "postalCode": "422005",
    "state": "Maharashtra",
    "countryCode": "IN",
    "website": "https://saiashatravels.com/",
    "phone": "+919975173776",
    "phoneUnformatted": "+919975173776",
    "location": {
      "lat": 19.9956792,
      "lng": 73.7470747
    },
    "totalScore": 5,
    "permanentlyClosed": false,
    "temporarilyClosed": false,
    "placeId": "ChIJSef0XWTt3TsRwF2OMKXzXAQ",
    "categories": [
      "Car rental agency",
      "Car leasing service",
      "Taxi service",
      "Minibus taxi service",
      "Van rental agency"
    ],
    "reviewsCount": 40,
    "imagesCount": 38,
    "openingHours": [],
    "imageUrl": "https://media.indianluxurycars.com/google/3fb99ec6f17ddf4bd7b9b2999f0aa32a7af56a64271252a2bc1bcddba202fa84.jpg",
    "url": "https://www.google.com/maps/search/?api=1&query=Sai%20Asha%20Cab%20Services&query_place_id=ChIJSef0XWTt3TsRwF2OMKXzXAQ"
  },
  {
    "title": "SAI SIDDHI CARS",
    "subTitle": "साई सिद्धी कार्स",
    "categoryName": "Used car dealer",
    "address": "&, Aurangabad Rd, near Yashwant Lawans, opposite to Samruddhi Hospital, Wadivarhe, Nandur Naka, Nashik, Maharashtra 422003, India",
    "neighborhood": "Wadivarhe, Nandur Naka",
    "street": "&, Aurangabad Rd, near Yashwant Lawans, opposite to Samruddhi Hospital",
    "city": "Nashik",
    "postalCode": "422003",
    "state": "Maharashtra",
    "countryCode": "IN",
    "phone": "+919960615557",
    "phoneUnformatted": "+919960615557",
    "location": {
      "lat": 19.9996854,
      "lng": 73.8353069
    },
    "totalScore": 4.3,
    "permanentlyClosed": false,
    "temporarilyClosed": false,
    "placeId": "ChIJv2NW56Lr3TsRhvYx0Mpw68Y",
    "categories": [
      "Used car dealer"
    ],
    "reviewsCount": 38,
    "imagesCount": 115,
    "openingHours": [
      {
        "day": "Monday",
        "hours": "9:30 AM to 8 PM"
      },
      {
        "day": "Tuesday",
        "hours": "9:30 AM to 8 PM"
      },
      {
        "day": "Wednesday",
        "hours": "9:30 AM to 8 PM"
      },
      {
        "day": "Thursday",
        "hours": "9:30 AM to 8 PM"
      },
      {
        "day": "Friday",
        "hours": "9:30 AM to 8 PM"
      },
      {
        "day": "Saturday",
        "hours": "9:30 AM to 8 PM"
      },
      {
        "day": "Sunday",
        "hours": "10 AM to 2 PM"
      }
    ],
    "imageUrl": "https://media.indianluxurycars.com/google/8bc9a8137c2b68802a40f18b9b87ef9042d85c7b3f85002fd99b94c4cbea8738.jpg",
    "url": "https://www.google.com/maps/search/?api=1&query=SAI%20SIDDHI%20CARS&query_place_id=ChIJv2NW56Lr3TsRhvYx0Mpw68Y"
  },
  {
    "title": "Sarkar Travel Nashik Mumbai Pune Airport | Nashik | Shirdi | Trimbakeshwar taxi Service",
    "subTitle": "सरकार ट्रैवल नाशिक मुंबई पुणे एयरपोर्ट | नाशिक | शिरडी | त्रिम्बकेश्वर टैक्सी सर्विस",
    "categoryName": "Car rental agency",
    "address": "Basement Shop No 8/9, Silver Heights Apartment, Gurudwara Road, opp. Sandeep Hotel, Shingada Talav, Mumbai Naka, Renuka Nagar, Nashik, Maharashtra 422001, India",
    "neighborhood": "Shingada Talav, Mumbai Naka, Renuka Nagar",
    "street": "Basement Shop No 8/9, Silver Heights Apartment, Gurudwara Road, opp. Sandeep Hotel",
    "city": "Nashik",
    "postalCode": "422001",
    "state": "Maharashtra",
    "countryCode": "IN",
    "phone": "+918999146468",
    "phoneUnformatted": "+918999146468",
    "location": {
      "lat": 19.9914212,
      "lng": 73.7836333
    },
    "totalScore": 4.8,
    "permanentlyClosed": false,
    "temporarilyClosed": false,
    "placeId": "ChIJLZ5XKUDr3TsRVmEpSoe_BHI",
    "categories": [
      "Car rental agency",
      "Car leasing service",
      "Taxi service",
      "Minibus taxi service"
    ],
    "reviewsCount": 52,
    "imagesCount": 7,
    "openingHours": [],
    "imageUrl": "https://media.indianluxurycars.com/google/094dffee88f1a1a36541df5ecddfc1a7e45f58fcafc49f3e70fc83fbf9dbbe16.jpg",
    "url": "https://www.google.com/maps/search/?api=1&query=Sarkar%20Travel%20Nashik%20Mumbai%20Pune%20Airport%20%7C%20Nashik%20%7C%20Shirdi%20%7C%20Trimbakeshwar%20taxi%20Service&query_place_id=ChIJLZ5XKUDr3TsRVmEpSoe_BHI"
  },
  {
    "title": "Self drive cars Nashik",
    "subTitle": "सेल्फ ड्राइव कार्स नाशिक",
    "categoryName": "Car leasing service",
    "address": "Indira Nagar, Nashik, Maharashtra 422006, India",
    "neighborhood": "Indira Nagar",
    "city": "Nashik",
    "postalCode": "422006",
    "state": "Maharashtra",
    "countryCode": "IN",
    "website": "https://www.instagram.com/sdc_nasik?igsh=ZWI2YzEzYmMxYg==",
    "phone": "+917385309348",
    "phoneUnformatted": "+917385309348",
    "location": {
      "lat": 19.9706925,
      "lng": 73.7901239
    },
    "totalScore": 4.8,
    "permanentlyClosed": false,
    "temporarilyClosed": false,
    "placeId": "ChIJx2rFySDr3TsRZLeL8OW0TiE",
    "categories": [
      "Car leasing service",
      "Car dealer",
      "Car rental agency"
    ],
    "reviewsCount": 535,
    "imagesCount": 223,
    "openingHours": [
      {
        "day": "Monday",
        "hours": "6 AM to 10 PM"
      },
      {
        "day": "Tuesday",
        "hours": "6 AM to 10 PM"
      },
      {
        "day": "Wednesday",
        "hours": "6 AM to 10 PM"
      },
      {
        "day": "Thursday",
        "hours": "6 AM to 10 PM"
      },
      {
        "day": "Friday",
        "hours": "6 AM to 10 PM"
      },
      {
        "day": "Saturday",
        "hours": "6 AM to 10 PM"
      },
      {
        "day": "Sunday",
        "hours": "6 AM to 9 PM"
      }
    ],
    "imageUrl": "https://media.indianluxurycars.com/google/ded54d38db8e9a93df750786bc15e58fa9a3c11f44ace835b26f2569f8fafc1d.jpg",
    "url": "https://www.google.com/maps/search/?api=1&query=Self%20drive%20cars%20Nashik&query_place_id=ChIJx2rFySDr3TsRZLeL8OW0TiE"
  },
  {
    "title": "Self Drive Cars Nashik By Pingles Rental cars in nashik",
    "subTitle": "सेल्फ ड्राइव कार्स नाशिक बाय पिंगल्स रेंटल कार्स इन नाशिक",
    "categoryName": "Car rental agency",
    "address": "Gangapur Rd, D. K. Nagar, Nashik, Maharashtra 422013, India",
    "neighborhood": "D. K. Nagar",
    "street": "Gangapur Rd",
    "city": "Nashik",
    "postalCode": "422013",
    "state": "Maharashtra",
    "countryCode": "IN",
    "website": "https://www.instagram.com/selfdrive_cars_nashik_pingles?igsh=MWgycHRnNDVqMDRyOA==&utm_source=qr",
    "phone": "+917083077203",
    "phoneUnformatted": "+917083077203",
    "location": {
      "lat": 20.0199162,
      "lng": 73.7658334
    },
    "totalScore": 4.7,
    "permanentlyClosed": false,
    "temporarilyClosed": false,
    "placeId": "ChIJ42oKGWvr3TsRAfvhYTWxLkE",
    "categories": [
      "Car rental agency"
    ],
    "reviewsCount": 98,
    "imagesCount": 29,
    "openingHours": [
      {
        "day": "Monday",
        "hours": "Open 24 hours"
      },
      {
        "day": "Tuesday",
        "hours": "Open 24 hours"
      },
      {
        "day": "Wednesday",
        "hours": "Open 24 hours"
      },
      {
        "day": "Thursday",
        "hours": "Open 24 hours"
      },
      {
        "day": "Friday",
        "hours": "Open 24 hours"
      },
      {
        "day": "Saturday",
        "hours": "Open 24 hours"
      },
      {
        "day": "Sunday",
        "hours": "Open 24 hours"
      }
    ],
    "imageUrl": "https://media.indianluxurycars.com/google/5bdfe81ed4b2c68dcc4109f48a46a0b82e3d3a9a90dd2d9e6ec091c497bae31d.jpg",
    "url": "https://www.google.com/maps/search/?api=1&query=Self%20Drive%20Cars%20Nashik%20By%20Pingles%20Rental%20cars%20in%20nashik&query_place_id=ChIJ42oKGWvr3TsRAfvhYTWxLkE"
  },
  {
    "title": "SHOURYA AUTO WORLD | Used Car | Pre owned Car | Car Dealer in Nashik",
    "subTitle": "शौर्य ऑटो वर्ल्ड | यूज्ड कार | प्री ओन्ड कार | कार डीलर इन नाशिक",
    "categoryName": "Used car dealer",
    "address": "SHOP NO 92, ROONGTHA SHOPPING HUB, Agra - Mumbai Hwy, behind TAPASVI HOTEL, Kamod Nagar, Indira Nagar, Nashik, Maharashtra 422009, India",
    "neighborhood": "Kamod Nagar, Indira Nagar",
    "street": "SHOP NO 92, ROONGTHA SHOPPING HUB, Agra - Mumbai Hwy, behind TAPASVI HOTEL",
    "city": "Nashik",
    "postalCode": "422009",
    "state": "Maharashtra",
    "countryCode": "IN",
    "phone": "+919850977719",
    "phoneUnformatted": "+919850977719",
    "location": {
      "lat": 19.9784248,
      "lng": 73.7795552
    },
    "totalScore": 4.6,
    "permanentlyClosed": false,
    "temporarilyClosed": false,
    "placeId": "ChIJ3R2SJaUFVCoRyzun6hm4eSM",
    "categories": [
      "Used car dealer"
    ],
    "reviewsCount": 28,
    "imagesCount": 59,
    "openingHours": [
      {
        "day": "Monday",
        "hours": "10 AM to 6 PM"
      },
      {
        "day": "Tuesday",
        "hours": "10 AM to 6 PM"
      },
      {
        "day": "Wednesday",
        "hours": "10 AM to 6 PM"
      },
      {
        "day": "Thursday",
        "hours": "10 AM to 6 PM"
      },
      {
        "day": "Friday",
        "hours": "10 AM to 6 PM"
      },
      {
        "day": "Saturday",
        "hours": "10 AM to 6 PM"
      },
      {
        "day": "Sunday",
        "hours": "10 AM to 6 PM"
      }
    ],
    "imageUrl": "https://media.indianluxurycars.com/google/1997193bc9d8254304b9b3ef5a3d8b73706ef48529b8dd172e8823fbc02bf313.jpg",
    "url": "https://www.google.com/maps/search/?api=1&query=SHOURYA%20AUTO%20WORLD%20%7C%20Used%20Car%20%7C%20Pre%20owned%20Car%20%7C%20Car%20Dealer%20in%20Nashik&query_place_id=ChIJ3R2SJaUFVCoRyzun6hm4eSM"
  },
  {
    "title": "Shree Eknath Car Decor",
    "subTitle": "श्री एकनाथ कार डेकोर",
    "categoryName": "Car stereo store",
    "address": "Shop No.A-01, Vraj Capital, near Agnishamak Office, Shingada Talav, Ganjmal, Nashik, Maharashtra 422001, India",
    "neighborhood": "Shingada Talav, Ganjmal",
    "street": "Shop No.A-01, Vraj Capital, near Agnishamak Office",
    "city": "Nashik",
    "postalCode": "422001",
    "state": "Maharashtra",
    "countryCode": "IN",
    "phone": "+919822452589",
    "phoneUnformatted": "+919822452589",
    "location": {
      "lat": 19.9935679,
      "lng": 73.7871575
    },
    "totalScore": 4.5,
    "permanentlyClosed": false,
    "temporarilyClosed": false,
    "placeId": "ChIJ0xFx9QPr3TsRSHtULit2aac",
    "categories": [
      "Car stereo store",
      "Auto body shop",
      "Auto bodywork mechanic",
      "Auto restoration service",
      "CNG fitment center"
    ],
    "reviewsCount": 514,
    "imagesCount": 527,
    "openingHours": [
      {
        "day": "Monday",
        "hours": "11 AM to 8:30 PM"
      },
      {
        "day": "Tuesday",
        "hours": "11 AM to 8:30 PM"
      },
      {
        "day": "Wednesday",
        "hours": "11 AM to 8:30 PM"
      },
      {
        "day": "Thursday",
        "hours": "11 AM to 8:30 PM"
      },
      {
        "day": "Friday",
        "hours": "11 AM to 8:30 PM"
      },
      {
        "day": "Saturday",
        "hours": "11 AM to 8:30 PM"
      },
      {
        "day": "Sunday",
        "hours": "Closed"
      }
    ],
    "imageUrl": "https://media.indianluxurycars.com/google/86224f88fe6dcae0ed7f79792fc2bf473e45c4f5059de4f846aa7324e465bd5a.jpg",
    "url": "https://www.google.com/maps/search/?api=1&query=Shree%20Eknath%20Car%20Decor&query_place_id=ChIJ0xFx9QPr3TsRSHtULit2aac"
  },
  {
    "title": "Shree Sai Krupa Travels",
    "subTitle": "श्री साई कृपा ट्रेवल्स",
    "categoryName": "Car leasing service",
    "address": "Shree Sai Krupa Travels, Takli Rd, Dwarka, Nashik, Maharashtra 422011, India",
    "neighborhood": "Dwarka",
    "street": "Shree Sai Krupa Travels, Takli Rd",
    "city": "Nashik",
    "postalCode": "422011",
    "state": "Maharashtra",
    "countryCode": "IN",
    "website": "https://shree-sai-krupa-travels.webflow.io/",
    "phone": "+919423181865",
    "phoneUnformatted": "+919423181865",
    "location": {
      "lat": 19.9948717,
      "lng": 73.8085429
    },
    "totalScore": 4.9,
    "permanentlyClosed": false,
    "temporarilyClosed": false,
    "placeId": "ChIJC87XuCDr3TsRpKsWGXrLizs",
    "categories": [
      "Car leasing service",
      "Bus company",
      "Bus tour agency",
      "Bus charter",
      "Minibus taxi service",
      "Taxi service",
      "Tour agency",
      "Tour operator",
      "Transportation service",
      "Van rental agency"
    ],
    "reviewsCount": 298,
    "imagesCount": 168,
    "openingHours": [],
    "imageUrl": "https://media.indianluxurycars.com/google/0832d3673c6328055e277b9a15f3b08b76263129c23502fe552cec8f9e8a1a49.jpg",
    "url": "https://www.google.com/maps/search/?api=1&query=Shree%20Sai%20Krupa%20Travels&query_place_id=ChIJC87XuCDr3TsRpKsWGXrLizs"
  },
  {
    "title": "SHREE SAI TOUR AND TRAVELS",
    "subTitle": "श्री साई टूर एंड ट्रैवल्स",
    "categoryName": "Car rental agency",
    "address": "Near INOX Talkies, Nashik - Pune Rd, Siddharth Nagar, Shivaji Nagar, Nashik, Maharashtra 422006, India",
    "neighborhood": "Siddharth Nagar, Shivaji Nagar",
    "street": "Near INOX Talkies, Nashik - Pune Rd",
    "city": "Nashik",
    "postalCode": "422006",
    "state": "Maharashtra",
    "countryCode": "IN",
    "phone": "+918788955964",
    "phoneUnformatted": "+918788955964",
    "location": {
      "lat": 19.9771367,
      "lng": 73.8084424
    },
    "totalScore": 4.9,
    "permanentlyClosed": false,
    "temporarilyClosed": false,
    "placeId": "ChIJIZUA-fy-3TsRtclVQncePlw",
    "categories": [
      "Car rental agency",
      "Car leasing service",
      "Travel agency",
      "Taxi service"
    ],
    "reviewsCount": 55,
    "imagesCount": 15,
    "openingHours": [
      {
        "day": "Monday",
        "hours": "Open 24 hours"
      },
      {
        "day": "Tuesday",
        "hours": "Open 24 hours"
      },
      {
        "day": "Wednesday",
        "hours": "Open 24 hours"
      },
      {
        "day": "Thursday",
        "hours": "Open 24 hours"
      },
      {
        "day": "Friday",
        "hours": "Open 24 hours"
      },
      {
        "day": "Saturday",
        "hours": "Open 24 hours"
      },
      {
        "day": "Sunday",
        "hours": "Open 24 hours"
      }
    ],
    "imageUrl": "https://media.indianluxurycars.com/google/d4b2f1c42152b6ba987c1cd9a136fd4187b9480820171fe2c732c95510c78ee5.jpg",
    "url": "https://www.google.com/maps/search/?api=1&query=SHREE%20SAI%20TOUR%20AND%20TRAVELS&query_place_id=ChIJIZUA-fy-3TsRtclVQncePlw"
  },
  {
    "title": "SHREYA CARS",
    "subTitle": "श्रेया कार्स",
    "categoryName": "Used car dealer",
    "address": "SHOP NO 104,1ST FLOOR, THE VRAJ ARCADE, Sri Sri, Pujya Sri Sri Ravishankar Marg, opp. KK wagh Universal School, DGP Nagar 1, Nashik, Maharashtra 422006, India",
    "neighborhood": "DGP Nagar 1",
    "street": "SHOP NO 104,1ST FLOOR, THE VRAJ ARCADE, Sri Sri, Pujya Sri Sri Ravishankar Marg, opp. KK wagh Universal School",
    "city": "Nashik",
    "postalCode": "422006",
    "state": "Maharashtra",
    "countryCode": "IN",
    "website": "https://shreyacars.in/",
    "phone": "+919850070496",
    "phoneUnformatted": "+919850070496",
    "location": {
      "lat": 19.9704376,
      "lng": 73.8025332
    },
    "totalScore": 4.8,
    "permanentlyClosed": false,
    "temporarilyClosed": false,
    "placeId": "ChIJPyi4Cejq3TsRlrtlsT5HFLI",
    "categories": [
      "Used car dealer",
      "Car dealer"
    ],
    "reviewsCount": 71,
    "imagesCount": 14,
    "openingHours": [
      {
        "day": "Monday",
        "hours": "10 AM to 7 PM"
      },
      {
        "day": "Tuesday",
        "hours": "10 AM to 7 PM"
      },
      {
        "day": "Wednesday",
        "hours": "10 AM to 7 PM"
      },
      {
        "day": "Thursday",
        "hours": "10 AM to 7 PM"
      },
      {
        "day": "Friday",
        "hours": "10 AM to 7 PM"
      },
      {
        "day": "Saturday",
        "hours": "10 AM to 7 PM"
      },
      {
        "day": "Sunday",
        "hours": "Closed"
      }
    ],
    "imageUrl": "https://media.indianluxurycars.com/google/d02aa3a9992153e7106bfdb754da5418c13476c0212e35bfb920d5030404bde8.jpg",
    "url": "https://www.google.com/maps/search/?api=1&query=SHREYA%20CARS&query_place_id=ChIJPyi4Cejq3TsRlrtlsT5HFLI"
  },
  {
    "title": "Siddhivinayak Auto World",
    "subTitle": "सिद्धिविनायक ऑटो वर्ल्ड",
    "categoryName": "Used car dealer",
    "address": "Agra - Mumbai Hwy, Shanti Nagar, Lekha Nagar, Nashik, Maharashtra 422009, India",
    "neighborhood": "Shanti Nagar, Lekha Nagar",
    "street": "Agra - Mumbai Hwy",
    "city": "Nashik",
    "postalCode": "422009",
    "state": "Maharashtra",
    "countryCode": "IN",
    "phone": "+919763017637",
    "phoneUnformatted": "+919763017637",
    "location": {
      "lat": 19.9751729,
      "lng": 73.7752803
    },
    "totalScore": 4.6,
    "permanentlyClosed": false,
    "temporarilyClosed": false,
    "placeId": "ChIJbRjhQD7r3TsRElfPAU1uS38",
    "categories": [
      "Used car dealer"
    ],
    "reviewsCount": 18,
    "imagesCount": 18,
    "openingHours": [
      {
        "day": "Monday",
        "hours": "10 AM to 6 PM"
      },
      {
        "day": "Tuesday",
        "hours": "10 AM to 6 PM"
      },
      {
        "day": "Wednesday",
        "hours": "10 AM to 6 PM"
      },
      {
        "day": "Thursday",
        "hours": "10 AM to 6 PM"
      },
      {
        "day": "Friday",
        "hours": "10 AM to 6 PM"
      },
      {
        "day": "Saturday",
        "hours": "10 AM to 6 PM"
      },
      {
        "day": "Sunday",
        "hours": "10 AM to 6 PM"
      }
    ],
    "imageUrl": "https://media.indianluxurycars.com/google/8fbbcd70bc60c7ef4bcae7255392e8270903729374d1caa6177c70a169e0de11.jpg",
    "url": "https://www.google.com/maps/search/?api=1&query=Siddhivinayak%20Auto%20World&query_place_id=ChIJbRjhQD7r3TsRElfPAU1uS38"
  },
  {
    "title": "SSKT (Tempo Traveller & Mini bus Nashik)",
    "subTitle": "सकते (टेंपो ट्रैवलर & मिनी बस नाशिक)",
    "categoryName": "Car rental agency",
    "address": "Takli Rd, Dwarka, Nashik, Maharashtra 422011, India",
    "neighborhood": "Dwarka",
    "street": "Takli Rd",
    "city": "Nashik",
    "postalCode": "422011",
    "state": "Maharashtra",
    "countryCode": "IN",
    "website": "https://sskttempotraveller.wordpress.com/",
    "phone": "+919881328060",
    "phoneUnformatted": "+919881328060",
    "location": {
      "lat": 19.9948024,
      "lng": 73.8087637
    },
    "totalScore": 4.8,
    "permanentlyClosed": false,
    "temporarilyClosed": false,
    "placeId": "ChIJE6XulqXr3TsRiJxlJHsr_io",
    "categories": [
      "Car rental agency",
      "Bus tour agency",
      "Car leasing service",
      "Minibus taxi service",
      "Tour operator"
    ],
    "reviewsCount": 161,
    "imagesCount": 112,
    "openingHours": [
      {
        "day": "Monday",
        "hours": "Open 24 hours"
      },
      {
        "day": "Tuesday",
        "hours": "Open 24 hours"
      },
      {
        "day": "Wednesday",
        "hours": "Open 24 hours"
      },
      {
        "day": "Thursday",
        "hours": "Open 24 hours"
      },
      {
        "day": "Friday",
        "hours": "Open 24 hours"
      },
      {
        "day": "Saturday",
        "hours": "Open 24 hours"
      },
      {
        "day": "Sunday",
        "hours": "Open 24 hours"
      }
    ],
    "imageUrl": "https://media.indianluxurycars.com/google/fb8aca72e1504288e2a965f2bf4554e2c9bbbbf66495959f78460ff721b41b6c.jpg",
    "url": "https://www.google.com/maps/search/?api=1&query=SSKT%20(Tempo%20Traveller%20%26%20Mini%20bus%20Nashik)&query_place_id=ChIJE6XulqXr3TsRiJxlJHsr_io"
  },
  {
    "title": "Sunshine Auto Sales",
    "subTitle": "सनशाइन ऑटो सेल्स",
    "categoryName": "Used car dealer",
    "address": "Plot No. 2, Tidke Colony Rd, near RD Circle, Radha Vasudev Batavia Nagar, Govind Nagar, Nashik, Maharashtra 422008, India",
    "neighborhood": "Radha Vasudev Batavia Nagar, Govind Nagar",
    "street": "Plot No. 2, Tidke Colony Rd, near RD Circle",
    "city": "Nashik",
    "postalCode": "422008",
    "state": "Maharashtra",
    "countryCode": "IN",
    "website": "http://www.sunshineautosales.in/",
    "phone": "+919307809430",
    "phoneUnformatted": "+919307809430",
    "location": {
      "lat": 19.9879378,
      "lng": 73.7709956
    },
    "totalScore": 4.8,
    "permanentlyClosed": false,
    "temporarilyClosed": false,
    "placeId": "ChIJ23c8jRfr3TsRHdSxq4JrfHk",
    "categories": [
      "Used car dealer"
    ],
    "reviewsCount": 25,
    "imagesCount": 64,
    "openingHours": [
      {
        "day": "Monday",
        "hours": "10:30 AM to 8 PM"
      },
      {
        "day": "Tuesday",
        "hours": "10:30 AM to 8 PM"
      },
      {
        "day": "Wednesday",
        "hours": "10:30 AM to 8 PM"
      },
      {
        "day": "Thursday",
        "hours": "10:30 AM to 8 PM"
      },
      {
        "day": "Friday",
        "hours": "10:30 AM to 8 PM"
      },
      {
        "day": "Saturday",
        "hours": "10:30 AM to 8 PM"
      },
      {
        "day": "Sunday",
        "hours": "10:30 AM to 8 PM"
      }
    ],
    "imageUrl": "https://media.indianluxurycars.com/google/ac54df0fba5d94f4c27aef7794de9e929cbf21f7b1134ad0c88cba6529d4bc98.jpg",
    "url": "https://www.google.com/maps/search/?api=1&query=Sunshine%20Auto%20Sales&query_place_id=ChIJ23c8jRfr3TsRHdSxq4JrfHk"
  },
  {
    "title": "SURYA CAB SERVICE",
    "subTitle": "सूर्य कैब सर्विस",
    "categoryName": "Car rental agency",
    "address": "Parvati chowk, Kamgar Nagar, Satpur Colony, Nashik, Maharashtra 422005, India",
    "neighborhood": "Kamgar Nagar, Satpur Colony",
    "street": "Parvati chowk",
    "city": "Nashik",
    "postalCode": "422005",
    "state": "Maharashtra",
    "countryCode": "IN",
    "website": "https://www.suryacabservice.com/",
    "location": {
      "lat": 20.0016585,
      "lng": 73.7466767
    },
    "totalScore": 5,
    "permanentlyClosed": false,
    "temporarilyClosed": true,
    "placeId": "ChIJb0OKlSzt3TsRbIh18LBFXH0",
    "categories": [
      "Car rental agency",
      "Car leasing service"
    ],
    "reviewsCount": 1,
    "imagesCount": 4,
    "openingHours": [],
    "imageUrl": "https://media.indianluxurycars.com/google/3628e1204140daed1cbc03f4b97a54bd9fa174c42316fc870c4cd94640b15b63.jpg",
    "url": "https://www.google.com/maps/search/?api=1&query=SURYA%20CAB%20SERVICE&query_place_id=ChIJb0OKlSzt3TsRbIh18LBFXH0"
  },
  {
    "title": "Tiger Travels",
    "subTitle": "टाइगर ट्रैवल्स",
    "categoryName": "Car leasing service",
    "address": "Shop No. 05/B, Mathura Tower Mumbai Agra Highway, Service Road, near Barkat, Dwarka Hotel, Mumbai Naka, Nashik, Maharashtra 422011, India",
    "neighborhood": "Dwarka Hotel, Mumbai Naka, Mirajkar Nagar, Dr.Homi Bhabha Nagar",
    "street": "Shop No. 05/B, Mathura Tower Mumbai Agra Highway, Service Road, near Barkat",
    "city": "Nashik",
    "postalCode": "422011",
    "state": "Maharashtra",
    "countryCode": "IN",
    "website": "https://tigercab.in/",
    "phone": "+919172901818",
    "phoneUnformatted": "+919172901818",
    "location": {
      "lat": 19.9913818,
      "lng": 73.7929678
    },
    "totalScore": 5,
    "permanentlyClosed": false,
    "temporarilyClosed": false,
    "placeId": "ChIJ-3SzxKgbYzkRg723t72FTj0",
    "categories": [
      "Car leasing service",
      "Taxi service",
      "Minibus taxi service",
      "Travel agency"
    ],
    "reviewsCount": 12,
    "imagesCount": 51,
    "openingHours": [],
    "imageUrl": "https://media.indianluxurycars.com/google/62d115914c0d36209526df1155f88d6b50744d7da2ae1754b2f48d6a74d77921.jpg",
    "url": "https://www.google.com/maps/search/?api=1&query=Tiger%20Travels&query_place_id=ChIJ-3SzxKgbYzkRg723t72FTj0"
  },
  {
    "title": "Torque Motors",
    "subTitle": "टॉर्क मोटर्स",
    "categoryName": "Car wash",
    "address": "Survey No. 844, Torque Motors, 1/2/3/4, near Metro Wholesale Mall, off Tapovan Link Road, Bodhale Nagar, RTO Colony, Nashik, Maharashtra 422011, India",
    "neighborhood": "Bodhale Nagar, RTO Colony",
    "street": "Survey No. 844, Torque Motors, 1/2/3/4, near Metro Wholesale Mall, off Tapovan Link Road",
    "city": "Nashik",
    "postalCode": "422011",
    "state": "Maharashtra",
    "countryCode": "IN",
    "website": "https://www.instagram.com/torque_motors_nashik?igsh=c2F5aDc5ZmprN2R4&utm_source=qr",
    "phone": "+919595489984",
    "phoneUnformatted": "+919595489984",
    "location": {
      "lat": 19.9822843,
      "lng": 73.8099632
    },
    "totalScore": 5,
    "permanentlyClosed": false,
    "temporarilyClosed": false,
    "placeId": "ChIJ9fwvKpnr3TsRJwAN1k2iquA",
    "categories": [
      "Car wash",
      "Auto body shop",
      "Auto bodywork mechanic",
      "Auto insurance agency",
      "Auto painting",
      "Auto repair shop",
      "Auto restoration service",
      "Car battery store",
      "Car dealer",
      "Car stereo store"
    ],
    "reviewsCount": 17,
    "imagesCount": 10,
    "openingHours": [
      {
        "day": "Monday",
        "hours": "9:30 AM to 8 PM"
      },
      {
        "day": "Tuesday",
        "hours": "9:30 AM to 8 PM"
      },
      {
        "day": "Wednesday",
        "hours": "9:30 AM to 8 PM"
      },
      {
        "day": "Thursday",
        "hours": "9:30 AM to 8 PM"
      },
      {
        "day": "Friday",
        "hours": "9:30 AM to 8 PM"
      },
      {
        "day": "Saturday",
        "hours": "9:30 AM to 8 PM"
      },
      {
        "day": "Sunday",
        "hours": "9:30 AM to 8 PM"
      }
    ],
    "imageUrl": "https://media.indianluxurycars.com/google/1f4b6f07c31b14cdf79f354f4b3df2e626d3ff8d737bcd39825c2c93d9d1e465.jpg",
    "url": "https://www.google.com/maps/search/?api=1&query=Torque%20Motors&query_place_id=ChIJ9fwvKpnr3TsRJwAN1k2iquA"
  },
  {
    "title": "TS Travels",
    "subTitle": "टीएस ट्रैवल्स",
    "categoryName": "Car rental agency",
    "address": "Shop No 5, Ashok Garden, Gurudwara Road, Shingada Talav, Mumbai Naka, Renuka Nagar, Nashik, Maharashtra 422001, India",
    "neighborhood": "Shingada Talav, Mumbai Naka, Renuka Nagar",
    "street": "Shop No 5, Ashok Garden, Gurudwara Road",
    "city": "Nashik",
    "postalCode": "422001",
    "state": "Maharashtra",
    "countryCode": "IN",
    "website": "http://www.tstravels.in/",
    "phone": "+919970251251",
    "phoneUnformatted": "+919970251251",
    "location": {
      "lat": 19.9906445,
      "lng": 73.7837868
    },
    "totalScore": 4.7,
    "permanentlyClosed": false,
    "temporarilyClosed": false,
    "placeId": "ChIJ0ZV76pDr3TsRDdTPly2TYms",
    "categories": [
      "Car rental agency",
      "Taxi service"
    ],
    "reviewsCount": 90,
    "imagesCount": 27,
    "openingHours": [
      {
        "day": "Monday",
        "hours": "Open 24 hours"
      },
      {
        "day": "Tuesday",
        "hours": "Open 24 hours"
      },
      {
        "day": "Wednesday",
        "hours": "Open 24 hours"
      },
      {
        "day": "Thursday",
        "hours": "Open 24 hours"
      },
      {
        "day": "Friday",
        "hours": "Open 24 hours"
      },
      {
        "day": "Saturday",
        "hours": "Open 24 hours"
      },
      {
        "day": "Sunday",
        "hours": "Open 24 hours"
      }
    ],
    "imageUrl": "https://media.indianluxurycars.com/google/36454bb6afb5a90e941799fd63a7cc7d21f06350c0f94bc1b3648f789c1b7710.jpg",
    "url": "https://www.google.com/maps/search/?api=1&query=TS%20Travels&query_place_id=ChIJ0ZV76pDr3TsRDdTPly2TYms"
  },
  {
    "title": "UNIVERSAL CARS",
    "subTitle": "युनिव्हर्सल कार",
    "categoryName": "Used car dealer",
    "address": "Tibetian Market Road, Parnashree Society, Opposite Krishinagar Joggers Park, Behind HPT/RYK College, Krishi Nagar, Nashik, Maharashtra 422005, India",
    "neighborhood": "Parnashree Society, Opposite Krishinagar Joggers Park, Behind HPT/RYK College, Krishi Nagar",
    "street": "Tibetian Market Road",
    "city": "Nashik",
    "postalCode": "422005",
    "state": "Maharashtra",
    "countryCode": "IN",
    "phone": "+919850055889",
    "phoneUnformatted": "+919850055889",
    "location": {
      "lat": 20.002024,
      "lng": 73.75995
    },
    "totalScore": 4.7,
    "permanentlyClosed": false,
    "temporarilyClosed": false,
    "placeId": "ChIJSb_90Zzr3TsRum-RpQeOdTM",
    "categories": [
      "Used car dealer"
    ],
    "reviewsCount": 40,
    "imagesCount": 346,
    "openingHours": [
      {
        "day": "Monday",
        "hours": "10 AM to 7 PM"
      },
      {
        "day": "Tuesday",
        "hours": "10 AM to 7 PM"
      },
      {
        "day": "Wednesday",
        "hours": "10 AM to 7 PM"
      },
      {
        "day": "Thursday",
        "hours": "10 AM to 7 PM"
      },
      {
        "day": "Friday",
        "hours": "10 AM to 7 PM"
      },
      {
        "day": "Saturday",
        "hours": "10 AM to 7 PM"
      },
      {
        "day": "Sunday",
        "hours": "10 AM to 7 PM"
      }
    ],
    "imageUrl": "https://media.indianluxurycars.com/google/70e30aa812a72871c5e2c094810047ccfefe1a987b15daa7a6fa0ea6229b6595.jpg",
    "url": "https://www.google.com/maps/search/?api=1&query=UNIVERSAL%20CARS&query_place_id=ChIJSb_90Zzr3TsRum-RpQeOdTM"
  },
  {
    "title": "Used Cars Nashik",
    "subTitle": "यूज्ड कार्स नाशिक",
    "categoryName": "Used car dealer",
    "address": "Kapeesh Autos Jejurkar Mala Near Mirchi Hotel Signal Aurangabad - Pune, Link Road, Nashik, Maharashtra 422003, India",
    "neighborhood": "Samarth Nagar, Makhmalabad",
    "street": "Kapeesh Autos Jejurkar Mala Near Mirchi Hotel Signal Aurangabad - Pune, Link Road",
    "city": "Nashik",
    "postalCode": "422003",
    "state": "Maharashtra",
    "countryCode": "IN",
    "website": "https://www.carandbike.com/used/sell-your-car",
    "phone": "+919930565555",
    "phoneUnformatted": "+919930565555",
    "location": {
      "lat": 20.0278325,
      "lng": 73.7950635
    },
    "totalScore": 4.7,
    "permanentlyClosed": false,
    "temporarilyClosed": false,
    "placeId": "ChIJdXQNM6_r3TsRgL4Sdf3TW-U",
    "categories": [
      "Used car dealer",
      "Auto broker",
      "Car dealer",
      "Motor vehicle dealer",
      "Vehicle inspection service"
    ],
    "reviewsCount": 64,
    "imagesCount": 42,
    "openingHours": [
      {
        "day": "Monday",
        "hours": "9:30 AM to 7:30 PM"
      },
      {
        "day": "Tuesday",
        "hours": "9:30 AM to 7:30 PM"
      },
      {
        "day": "Wednesday",
        "hours": "9:30 AM to 7:30 PM"
      },
      {
        "day": "Thursday",
        "hours": "9:30 AM to 7:30 PM"
      },
      {
        "day": "Friday",
        "hours": "9:30 AM to 7:30 PM"
      },
      {
        "day": "Saturday",
        "hours": "9:30 AM to 7:30 PM"
      },
      {
        "day": "Sunday",
        "hours": "9:30 AM to 7:30 PM"
      }
    ],
    "imageUrl": "https://media.indianluxurycars.com/google/6c1e190d81d409a6e28c99acb3dbb7806c9e210f8511ddc4b7369ea294abd28a.jpg",
    "url": "https://www.google.com/maps/search/?api=1&query=Used%20Cars%20Nashik&query_place_id=ChIJdXQNM6_r3TsRgL4Sdf3TW-U"
  }
]
