[
  {
    "title": "24motors",
    "subTitle": "24‡§Æ‡•ã‡§ü‡§∞‡•ç‡§∏",
    "categoryName": "Used car dealer",
    "address": "first floor, B-113, Block B, Lajpat Nagar 4, Lajpat Nagar, New Delhi, Delhi 110024, India",
    "neighborhood": "Block B, Lajpat Nagar 4, Lajpat Nagar",
    "street": "first floor, B-113",
    "city": "New Delhi",
    "postalCode": "110024",
    "state": "Delhi",
    "countryCode": "IN",
    "phone": "+919214777333",
    "phoneUnformatted": "+919214777333",
    "location": {
      "lat": 28.5621389,
      "lng": 77.2454243
    },
    "totalScore": 4.7,
    "permanentlyClosed": false,
    "temporarilyClosed": false,
    "placeId": "ChIJjcUpP_jjDDkRtQD9v83GHyc",
    "categories": [
      "Used car dealer"
    ],
    "reviewsCount": 14,
    "imagesCount": 75,
    "openingHours": [
      {
        "day": "Monday",
        "hours": "Open 24 hours"
      },
      {
        "day": "Tuesday",
        "hours": "Open 24 hours"
      },
      {
        "day": "Wednesday",
        "hours": "Open 24 hours"
      },
      {
        "day": "Thursday",
        "hours": "Open 24 hours"
      },
      {
        "day": "Friday",
        "hours": "Open 24 hours"
      },
      {
        "day": "Saturday",
        "hours": "Open 24 hours"
      },
      {
        "day": "Sunday",
        "hours": "Open 24 hours"
      }
    ],
    "imageUrl": "https://media.indianluxurycars.com/google/e7c30d8d834a7073cc2e08ab984720630dfcd78069c175f20a5e4a4b654c0faf.png",
    "url": "https://www.google.com/maps/search/?api=1&query=24motors&query_place_id=ChIJjcUpP_jjDDkRtQD9v83GHyc"
  },
  {
    "title": "A Luxury Car Terminal",
    "subTitle": "‡§è ‡§≤‡§ï‡•ç‡§ú‡§∞‡•Ä ‡§ï‡§æ‡§∞ ‡§ü‡§∞‡•ç‡§Æ‡§ø‡§®‡§≤",
    "categoryName": "Motor vehicle dealer",
    "address": "H699+HMH, near Haldi Ram Restaurant, South Extension, Block F, New Delhi, Delhi 110049, India",
    "neighborhood": "South Extension, Block F",
    "street": "H699+HMH, near Haldi Ram Restaurant",
    "city": "New Delhi",
    "postalCode": "110049",
    "state": "Delhi",
    "countryCode": "IN",
    "location": {
      "lat": 28.568943,
      "lng": 77.21922
    },
    "permanentlyClosed": false,
    "temporarilyClosed": false,
    "placeId": "ChIJWdJACl3iDDkRBpR7hR69dyM",
    "categories": [
      "Motor vehicle dealer"
    ],
    "imagesCount": 1,
    "openingHours": [],
    "imageUrl": "https://media.indianluxurycars.com/google/cabc951579565eb2b9955d6fcaa21700c3bea25eba59aa1ab7686cd6bd7827ef.jpg",
    "url": "https://www.google.com/maps/search/?api=1&query=A%20Luxury%20Car%20Terminal&query_place_id=ChIJWdJACl3iDDkRBpR7hR69dyM"
  },
  {
    "title": "A P Classic Motors",
    "subTitle": "‡§è ‡§™‡§ø ‡§ï‡•ç‡§≤‡§æ‡§∏‡§ø‡§ï ‡§Æ‡•ã‡§ü‡§∞‡•ç‡§∏",
    "categoryName": "Used car dealer",
    "address": "Shop No 2, B-38, Block B, Lajpat Nagar II, Lajpat Nagar, New Delhi, Delhi 110024, India",
    "neighborhood": "Block B, Lajpat Nagar II, Lajpat Nagar",
    "street": "Shop No 2, B-38",
    "city": "New Delhi",
    "postalCode": "110024",
    "state": "Delhi",
    "countryCode": "IN",
    "website": "https://www.facebook.com/apclassicmotor/",
    "phone": "+919810080877",
    "phoneUnformatted": "+919810080877",
    "location": {
      "lat": 28.5741486,
      "lng": 77.2388823
    },
    "totalScore": 4.1,
    "permanentlyClosed": false,
    "temporarilyClosed": false,
    "placeId": "ChIJpU78QGDjDDkRTdX5EuxCfcM",
    "categories": [
      "Used car dealer"
    ],
    "reviewsCount": 15,
    "imagesCount": 22,
    "openingHours": [
      {
        "day": "Monday",
        "hours": "10‚ÄØAM to 8‚ÄØPM"
      },
      {
        "day": "Tuesday",
        "hours": "10‚ÄØAM to 8‚ÄØPM"
      },
      {
        "day": "Wednesday",
        "hours": "10‚ÄØAM to 8‚ÄØPM"
      },
      {
        "day": "Thursday",
        "hours": "10‚ÄØAM to 8‚ÄØPM"
      },
      {
        "day": "Friday",
        "hours": "10‚ÄØAM to 8‚ÄØPM"
      },
      {
        "day": "Saturday",
        "hours": "10‚ÄØAM to 8‚ÄØPM"
      },
      {
        "day": "Sunday",
        "hours": "10‚ÄØAM to 8‚ÄØPM"
      }
    ],
    "imageUrl": "https://media.indianluxurycars.com/google/a4b96cddedff1863a2c2c5482fdf12346e590d7972077249ebf2670108eeb14e.jpg",
    "url": "https://www.google.com/maps/search/?api=1&query=A%20P%20Classic%20Motors&query_place_id=ChIJpU78QGDjDDkRTdX5EuxCfcM"
  },
  {
    "title": "ACS CARS PRIVATE LIMITED",
    "subTitle": "‡§è‡§∏‡•Ä‡§è‡§∏ ‡§ï‡§æ‡§∞‡•ç‡§∏ ‡§™‡•ç‡§∞‡§æ‡§á‡§µ‡•á‡§ü ‡§≤‡§ø‡§Æ‡§ø‡§ü‡•á‡§°",
    "categoryName": "Car dealer",
    "address": "BLOCK D, 101, near NATIONAL PROPERTIES, Block D, Lajpat Nagar I, Lajpat Nagar, New Delhi, Delhi 110024, India",
    "neighborhood": "Block D, Lajpat Nagar I, Lajpat Nagar",
    "street": "BLOCK D, 101, near NATIONAL PROPERTIES",
    "city": "New Delhi",
    "postalCode": "110024",
    "state": "Delhi",
    "countryCode": "IN",
    "website": "https://acscars.co.in/",
    "phone": "+918817666666",
    "phoneUnformatted": "+918817666666",
    "location": {
      "lat": 28.5775122,
      "lng": 77.2414434
    },
    "totalScore": 4.4,
    "permanentlyClosed": false,
    "temporarilyClosed": false,
    "placeId": "ChIJ95YkR_DjDDkRR-JhFftj404",
    "categories": [
      "Car dealer",
      "Audi dealer",
      "Auto broker",
      "BMW dealer",
      "Jaguar dealer",
      "Mercedes-Benz dealer",
      "Porsche dealer",
      "Used car dealer",
      "Volvo dealer"
    ],
    "reviewsCount": 7,
    "imagesCount": 4,
    "openingHours": [
      {
        "day": "Monday",
        "hours": "10‚ÄØAM to 6‚ÄØPM"
      },
      {
        "day": "Tuesday",
        "hours": "10‚ÄØAM to 6‚ÄØPM"
      },
      {
        "day": "Wednesday",
        "hours": "10‚ÄØAM to 6‚ÄØPM"
      },
      {
        "day": "Thursday",
        "hours": "10‚ÄØAM to 6‚ÄØPM"
      },
      {
        "day": "Friday",
        "hours": "10‚ÄØAM to 6‚ÄØPM"
      },
      {
        "day": "Saturday",
        "hours": "10‚ÄØAM to 6‚ÄØPM"
      },
      {
        "day": "Sunday",
        "hours": "Closed"
      }
    ],
    "imageUrl": "https://media.indianluxurycars.com/google/40487f046459a06b85442ac7e1f1baaf98512e75ea81029729deac897c6f0976.jpg",
    "url": "https://www.google.com/maps/search/?api=1&query=ACS%20CARS%20PRIVATE%20LIMITED&query_place_id=ChIJ95YkR_DjDDkRR-JhFftj404"
  },
  {
    "title": "ùêÄùêä ùêãùêîùêóùêîùêëùêò ùêÇùêÄùêÅùêí - Car Rental in Delhi - Wedding Car Rental in Delhi",
    "subTitle": "‡§è‡§ï‡•á ‡§≤‡§ï‡•ç‡§ú‡§∞‡•Ä ‡§ï‡•à‡§¨‡•ç‡§∏ - ‡§ï‡§æ‡§∞ ‡§∞‡•á‡§Ç‡§ü‡§≤ ‡§á‡§® ‡§¶‡§ø‡§≤‡•ç‡§≤‡•Ä - ‡§µ‡•á‡§°‡§ø‡§Ç‡§ó ‡§ï‡§æ‡§∞ ‡§∞‡•á‡§Ç‡§ü‡§≤ ‡§á‡§® ‡§¶‡§ø‡§≤‡•ç‡§≤‡•Ä",
    "categoryName": "Car rental agency",
    "address": "C. Market, C.S, near Bus Stop, J Pocket, Masjid Moth, Greater Kailash, New Delhi, Delhi 110048, India",
    "neighborhood": "J Pocket, Masjid Moth, Greater Kailash",
    "street": "C. Market, C.S, near Bus Stop",
    "city": "New Delhi",
    "postalCode": "110048",
    "state": "Delhi",
    "countryCode": "IN",
    "website": "https://akluxurycabs.com/",
    "phone": "+919478414242",
    "phoneUnformatted": "+919478414242",
    "location": {
      "lat": 28.540496,
      "lng": 77.2346914
    },
    "totalScore": 4.9,
    "permanentlyClosed": false,
    "temporarilyClosed": false,
    "placeId": "ChIJf-i1QAbjDDkRbOdJmGyPiRQ",
    "categories": [
      "Car rental agency",
      "Car leasing service",
      "Taxi service"
    ],
    "reviewsCount": 74,
    "imagesCount": 65,
    "openingHours": [
      {
        "day": "Monday",
        "hours": "Open 24 hours"
      },
      {
        "day": "Tuesday",
        "hours": "Open 24 hours"
      },
      {
        "day": "Wednesday",
        "hours": "Open 24 hours"
      },
      {
        "day": "Thursday",
        "hours": "Open 24 hours"
      },
      {
        "day": "Friday",
        "hours": "Open 24 hours"
      },
      {
        "day": "Saturday",
        "hours": "Open 24 hours"
      },
      {
        "day": "Sunday",
        "hours": "7‚ÄØAM to 11:30‚ÄØPM"
      }
    ],
    "imageUrl": "https://media.indianluxurycars.com/google/8790a813f98259ea3e9febafaf44a3af83e1e0cfd5719679380bbf82a5458929.jpg",
    "url": "https://www.google.com/maps/search/?api=1&query=%F0%9D%90%80%F0%9D%90%8A%20%F0%9D%90%8B%F0%9D%90%94%F0%9D%90%97%F0%9D%90%94%F0%9D%90%91%F0%9D%90%98%20%F0%9D%90%82%F0%9D%90%80%F0%9D%90%81%F0%9D%90%92%20-%20Car%20Rental%20in%20Delhi%20-%20Wedding%20Car%20Rental%20in%20Delhi&query_place_id=ChIJf-i1QAbjDDkRbOdJmGyPiRQ"
  },
  {
    "title": "AUTO SOURCING",
    "subTitle": "‡§ë‡§ü‡•ã ‡§∏‡•ã‡§∞‡•ç‡§∏‡§ø‡§Ç‡§ó",
    "categoryName": "Used car dealer",
    "address": "G-39, GROUND FLOOR, SALCON AURUM BUILDING, PLOT NO 4, District Centre, Jasola Vihar, New Delhi, Delhi 110025, India",
    "neighborhood": "District Centre, Jasola Vihar",
    "street": "G-39, GROUND FLOOR, SALCON AURUM BUILDING, PLOT NO 4",
    "city": "New Delhi",
    "postalCode": "110025",
    "state": "Delhi",
    "countryCode": "IN",
    "phone": "+919810800212",
    "phoneUnformatted": "+919810800212",
    "location": {
      "lat": 28.5383603,
      "lng": 77.2866824
    },
    "totalScore": 4.9,
    "permanentlyClosed": false,
    "temporarilyClosed": false,
    "placeId": "ChIJTdvX6xHlDDkRh7efFet_7Bk",
    "categories": [
      "Used car dealer",
      "Car dealer"
    ],
    "reviewsCount": 67,
    "imagesCount": 70,
    "openingHours": [
      {
        "day": "Monday",
        "hours": "10‚ÄØAM to 7‚ÄØPM"
      },
      {
        "day": "Tuesday",
        "hours": "10‚ÄØAM to 7‚ÄØPM"
      },
      {
        "day": "Wednesday",
        "hours": "10‚ÄØAM to 7‚ÄØPM"
      },
      {
        "day": "Thursday",
        "hours": "10‚ÄØAM to 7‚ÄØPM"
      },
      {
        "day": "Friday",
        "hours": "10‚ÄØAM to 7‚ÄØPM"
      },
      {
        "day": "Saturday",
        "hours": "10‚ÄØAM to 7‚ÄØPM"
      },
      {
        "day": "Sunday",
        "hours": "10‚ÄØAM to 7‚ÄØPM"
      }
    ],
    "imageUrl": "https://media.indianluxurycars.com/google/4b867dc58e2b84bf1cc366ce481b6ee3065719ca1141fad3518b3de5d20ec177.jpg",
    "url": "https://www.google.com/maps/search/?api=1&query=AUTO%20SOURCING&query_place_id=ChIJTdvX6xHlDDkRh7efFet_7Bk"
  },
  {
    "title": "AutoMarc",
    "subTitle": "‡§ë‡§ü‡•ã‡§Æ‡§æ‡§∞‡•ç‡§ï",
    "categoryName": "Car accessories store",
    "address": "Moolchand Shopping Complex, A-55, Ring Rd, Block F, Defence Colony, New Delhi, Delhi 110024, India",
    "neighborhood": "Block F, Defence Colony",
    "street": "Moolchand Shopping Complex, A-55, Ring Rd",
    "city": "New Delhi",
    "postalCode": "110024",
    "state": "Delhi",
    "countryCode": "IN",
    "website": "http://www.automarc.in/",
    "phone": "+919310047313",
    "phoneUnformatted": "+919310047313",
    "location": {
      "lat": 28.5660158,
      "lng": 77.2334098
    },
    "totalScore": 4.2,
    "permanentlyClosed": false,
    "temporarilyClosed": false,
    "placeId": "ChIJ65XBak7iDDkRnLeqwYKnEyQ",
    "categories": [
      "Car accessories store",
      "Auto body parts supplier",
      "Auto body shop",
      "Auto bodywork mechanic",
      "Auto painting",
      "Auto parts store",
      "Auto repair shop",
      "Auto restoration service",
      "Auto tune up service"
    ],
    "reviewsCount": 440,
    "imagesCount": 333,
    "openingHours": [
      {
        "day": "Monday",
        "hours": "11‚ÄØAM to 7‚ÄØPM"
      },
      {
        "day": "Tuesday",
        "hours": "11‚ÄØAM to 7‚ÄØPM"
      },
      {
        "day": "Wednesday",
        "hours": "11‚ÄØAM to 7‚ÄØPM"
      },
      {
        "day": "Thursday",
        "hours": "11‚ÄØAM to 7‚ÄØPM"
      },
      {
        "day": "Friday",
        "hours": "11‚ÄØAM to 7‚ÄØPM"
      },
      {
        "day": "Saturday",
        "hours": "11‚ÄØAM to 7‚ÄØPM"
      },
      {
        "day": "Sunday",
        "hours": "Closed"
      }
    ],
    "imageUrl": "https://media.indianluxurycars.com/google/4715539555cfb60acac32ca5c5ec48129e4874a6c2690dac324bf092aabc4192.jpg",
    "url": "https://www.google.com/maps/search/?api=1&query=AutoMarc&query_place_id=ChIJ65XBak7iDDkRnLeqwYKnEyQ"
  },
  {
    "title": "Big Rydz",
    "subTitle": "‡§¨‡§ø‡§ó ‡§∞‡§ø‡§°‡•ç‡§ú‡§º",
    "categoryName": "Used car dealer",
    "address": "Palm Ave, Sector D, Vasant Kunj, New Delhi, Delhi 110070, India",
    "neighborhood": "Sector D, Vasant Kunj",
    "street": "Palm Ave",
    "city": "New Delhi",
    "postalCode": "110070",
    "state": "Delhi",
    "countryCode": "IN",
    "website": "https://bigrydz.com/",
    "phone": "+919910662604",
    "phoneUnformatted": "+919910662604",
    "location": {
      "lat": 28.5175796,
      "lng": 77.1516315
    },
    "totalScore": 4.5,
    "permanentlyClosed": false,
    "temporarilyClosed": false,
    "placeId": "ChIJ2b2lOQAfDTkRMmPAsCQxvIQ",
    "categories": [
      "Used car dealer",
      "Corporate office"
    ],
    "reviewsCount": 42,
    "imagesCount": 25,
    "openingHours": [
      {
        "day": "Monday",
        "hours": "11‚ÄØAM to 6‚ÄØPM"
      },
      {
        "day": "Tuesday",
        "hours": "11‚ÄØAM to 6‚ÄØPM"
      },
      {
        "day": "Wednesday",
        "hours": "11‚ÄØAM to 6‚ÄØPM"
      },
      {
        "day": "Thursday",
        "hours": "11‚ÄØAM to 6‚ÄØPM"
      },
      {
        "day": "Friday",
        "hours": "11‚ÄØAM to 6‚ÄØPM"
      },
      {
        "day": "Saturday",
        "hours": "11‚ÄØAM to 6‚ÄØPM"
      },
      {
        "day": "Sunday",
        "hours": "11‚ÄØAM to 6‚ÄØPM"
      }
    ],
    "imageUrl": "https://media.indianluxurycars.com/google/8a292edc5fd88da64677e2f8d1710f307f3396f75667179ef47ee5d9edd2dd95.png",
    "url": "https://www.google.com/maps/search/?api=1&query=Big%20Rydz&query_place_id=ChIJ2b2lOQAfDTkRMmPAsCQxvIQ"
  },
  {
    "title": "Boss Rydz",
    "subTitle": "‡§¨‡•â‡§∏ ‡§∞‡§ø‡§°‡•ç‡§ú‡§º",
    "categoryName": "Used car dealer",
    "address": "NBCC shopping COMPLEX, F38, South Extension I, Block E, East Kidwai Nagar, Kidwai Nagar, New Delhi, Delhi 110023, India",
    "neighborhood": "South Extension I, Block E, East Kidwai Nagar, Kidwai Nagar",
    "street": "NBCC shopping COMPLEX, F38",
    "city": "New Delhi",
    "postalCode": "110023",
    "state": "Delhi",
    "countryCode": "IN",
    "website": "https://www.bossrydz.com/",
    "phone": "+919214777333",
    "phoneUnformatted": "+919214777333",
    "location": {
      "lat": 28.5733721,
      "lng": 77.2175222
    },
    "totalScore": 4.1,
    "permanentlyClosed": false,
    "temporarilyClosed": false,
    "placeId": "ChIJY3fLMaHjDDkRdp3zmdOG_h4",
    "categories": [
      "Used car dealer"
    ],
    "reviewsCount": 13,
    "imagesCount": 10,
    "openingHours": [],
    "imageUrl": "https://media.indianluxurycars.com/google/3a9bc5096b500243d7f8876893a11aae5b349b5029e7b5e61c7994536051a7bc.jpg",
    "url": "https://www.google.com/maps/search/?api=1&query=Boss%20Rydz&query_place_id=ChIJY3fLMaHjDDkRdp3zmdOG_h4"
  },
  {
    "title": "Car collective",
    "subTitle": "‡§ï‡§æ‡§∞ ‡§ï‡§≤‡•á‡§ï‡•ç‡§ü‡§ø‡§µ",
    "categoryName": "Car dealer",
    "address": "D Block, Rajokri, New Delhi, Delhi 110097, India",
    "neighborhood": "D Block, Rajokri",
    "city": "New Delhi",
    "postalCode": "110097",
    "state": "Delhi",
    "countryCode": "IN",
    "phone": "+919349600001",
    "phoneUnformatted": "+919349600001",
    "location": {
      "lat": 28.5231393,
      "lng": 77.0990025
    },
    "totalScore": 5,
    "permanentlyClosed": false,
    "temporarilyClosed": false,
    "placeId": "ChIJ96MhTecfDTkRG4lUfw5LcUI",
    "categories": [
      "Car dealer"
    ],
    "reviewsCount": 8,
    "imagesCount": 8,
    "openingHours": [
      {
        "day": "Monday",
        "hours": "11‚ÄØAM to 6‚ÄØPM"
      },
      {
        "day": "Tuesday",
        "hours": "11‚ÄØAM to 6‚ÄØPM"
      },
      {
        "day": "Wednesday",
        "hours": "11‚ÄØAM to 6‚ÄØPM"
      },
      {
        "day": "Thursday",
        "hours": "11‚ÄØAM to 6‚ÄØPM"
      },
      {
        "day": "Friday",
        "hours": "11‚ÄØAM to 6‚ÄØPM"
      },
      {
        "day": "Saturday",
        "hours": "11‚ÄØAM to 6‚ÄØPM"
      },
      {
        "day": "Sunday",
        "hours": "11‚ÄØAM to 6‚ÄØPM"
      }
    ],
    "imageUrl": "https://media.indianluxurycars.com/google/7de723f68a353500a193f909859dabaf508cde53d44edb5d0e21b3e2be04811d.jpg",
    "url": "https://www.google.com/maps/search/?api=1&query=Car%20collective&query_place_id=ChIJ96MhTecfDTkRG4lUfw5LcUI"
  },
  {
    "title": "Car Collective",
    "subTitle": "‡§ï‡§æ‡§∞ ‡§ï‡§≤‡•á‡§ï‡•ç‡§ü‡§ø‡§µ",
    "categoryName": "Car dealer",
    "address": "H5CV+2CH, Rajmata Vijayraje Scindia Marg, Sulekha Vihar, Block G I, Sarojini Nagar, New Delhi, Delhi 110023, India",
    "neighborhood": "Sulekha Vihar, Block G I, Sarojini Nagar",
    "street": "H5CV+2CH, Rajmata Vijayraje Scindia Marg",
    "city": "New Delhi",
    "postalCode": "110023",
    "state": "Delhi",
    "countryCode": "IN",
    "location": {
      "lat": 28.5700744,
      "lng": 77.1936136
    },
    "totalScore": 4.4,
    "permanentlyClosed": false,
    "temporarilyClosed": false,
    "placeId": "ChIJ7by0sYAdDTkRcKtpbNvShvY",
    "categories": [
      "Car dealer"
    ],
    "reviewsCount": 9,
    "imagesCount": 7,
    "openingHours": [],
    "imageUrl": "https://media.indianluxurycars.com/google/c8b38b8a4ab24e2b218e62a6414d6eb1fd21ff83cbf945cd69477a7c9c0081c6.jpg",
    "url": "https://www.google.com/maps/search/?api=1&query=Car%20Collective&query_place_id=ChIJ7by0sYAdDTkRcKtpbNvShvY"
  },
  {
    "title": "Car Expert",
    "subTitle": "‡§ï‡§æ‡§∞ ‡§è‡§ï‡•ç‡§∏‡§™‡§∞‡•ç‡§ü",
    "categoryName": "Used car dealer",
    "address": "G4WM+Q5J, Khasra No. 951, 1, Mahipalpur Bypass, near Fauji Daba, Mahipalpur Extension, Mahipalpur, New Delhi, Delhi 110037, India",
    "neighborhood": "Mahipalpur Extension, Mahipalpur",
    "street": "G4WM+Q5J, Khasra No. 951, 1, Mahipalpur Bypass, near Fauji Daba",
    "city": "New Delhi",
    "postalCode": "110037",
    "state": "Delhi",
    "countryCode": "IN",
    "website": "http://www.carexpertindia.com/",
    "phone": "+919266223333",
    "phoneUnformatted": "+919266223333",
    "location": {
      "lat": 28.5469653,
      "lng": 77.1328795
    },
    "totalScore": 4.3,
    "permanentlyClosed": false,
    "temporarilyClosed": false,
    "placeId": "ChIJC0BZ138dDTkRCprpYm2_dOc",
    "categories": [
      "Used car dealer"
    ],
    "reviewsCount": 6,
    "imagesCount": 6,
    "openingHours": [
      {
        "day": "Monday",
        "hours": "10‚ÄØAM to 8‚ÄØPM"
      },
      {
        "day": "Tuesday",
        "hours": "10‚ÄØAM to 8‚ÄØPM"
      },
      {
        "day": "Wednesday",
        "hours": "10‚ÄØAM to 8‚ÄØPM"
      },
      {
        "day": "Thursday",
        "hours": "10‚ÄØAM to 8‚ÄØPM"
      },
      {
        "day": "Friday",
        "hours": "10‚ÄØAM to 8‚ÄØPM"
      },
      {
        "day": "Saturday",
        "hours": "10‚ÄØAM to 8‚ÄØPM"
      },
      {
        "day": "Sunday",
        "hours": "10‚ÄØAM to 8‚ÄØPM"
      }
    ],
    "imageUrl": "https://media.indianluxurycars.com/google/cb0d1f3e7a5acd521deeb002c781a8e2be3b44fb7a36519231e57fbe96bd86b8.jpg",
    "url": "https://www.google.com/maps/search/?api=1&query=Car%20Expert&query_place_id=ChIJC0BZ138dDTkRCprpYm2_dOc"
  },
  {
    "title": "Car Street",
    "subTitle": "‡§ï‡§æ‡§∞ ‡§∏‡•ç‡§ü‡•ç‡§∞‡•Ä‡§ü | ‡§™‡•ç‡§∞-‡§ì‡§Ç‡§µ‡•á‡§° ‡§™‡•ç‡§∞‡•Ä‡§Æ‡§ø‡§Ø‡§Æ ‡§ï‡§æ‡§∞‡•ç‡§∏",
    "categoryName": "Used car dealer",
    "address": "A-16, A, NEAR, State Bank Of India, Shindi Colony, Branch, Naraina, New Delhi, Delhi 110028, India",
    "neighborhood": "Shindi Colony, Branch, Naraina",
    "street": "A-16, A, NEAR, State Bank Of India",
    "city": "New Delhi",
    "postalCode": "110028",
    "state": "Delhi",
    "countryCode": "IN",
    "website": "http://www.carstreetindia.com/",
    "phone": "+917070707026",
    "phoneUnformatted": "+917070707026",
    "location": {
      "lat": 28.6267948,
      "lng": 77.1359519
    },
    "totalScore": 4.6,
    "permanentlyClosed": false,
    "temporarilyClosed": false,
    "placeId": "ChIJbVG4LyUDDTkRGWiMov43hig",
    "categories": [
      "Used car dealer"
    ],
    "reviewsCount": 391,
    "imagesCount": 76,
    "openingHours": [
      {
        "day": "Monday",
        "hours": "10‚ÄØAM to 8‚ÄØPM"
      },
      {
        "day": "Tuesday",
        "hours": "10‚ÄØAM to 8‚ÄØPM"
      },
      {
        "day": "Wednesday",
        "hours": "10‚ÄØAM to 8‚ÄØPM"
      },
      {
        "day": "Thursday",
        "hours": "10‚ÄØAM to 8‚ÄØPM"
      },
      {
        "day": "Friday",
        "hours": "10‚ÄØAM to 8‚ÄØPM"
      },
      {
        "day": "Saturday",
        "hours": "10‚ÄØAM to 8‚ÄØPM"
      },
      {
        "day": "Sunday",
        "hours": "10‚ÄØAM to 8‚ÄØPM"
      }
    ],
    "imageUrl": "https://media.indianluxurycars.com/google/d7438345fe14027233063db098f59f6d50525197dd059c32df61c117a165a023.jpg",
    "url": "https://www.google.com/maps/search/?api=1&query=Car%20Street&query_place_id=ChIJbVG4LyUDDTkRGWiMov43hig"
  },
  {
    "title": "CarGiant Nariana",
    "subTitle": "‡§ï‡§æ‡§∞‡•ç‡§ú‡§ø‡§è‡§Ç‡§ü ‡§®‡§∞‡§ø‡§Ø‡§æ‡§®‡§æ",
    "categoryName": "Auto broker",
    "address": "Picasso hotel A 14 Main Road, Naraina Vihar, New Delhi, Delhi 110028, India",
    "neighborhood": "Shindi Colony, Naraina Vihar, Naraina",
    "street": "Picasso hotel A 14 Main Road",
    "city": "New Delhi",
    "postalCode": "110028",
    "state": "Delhi",
    "countryCode": "IN",
    "website": "http://www.cargiant.co.in/",
    "phone": "+919811170893",
    "phoneUnformatted": "+919811170893",
    "location": {
      "lat": 28.6265864,
      "lng": 77.135433
    },
    "totalScore": 4.4,
    "permanentlyClosed": false,
    "temporarilyClosed": false,
    "placeId": "ChIJwTMmXhECDTkR1dOnwHBJBm0",
    "categories": [
      "Auto broker",
      "Audi dealer",
      "BMW dealer",
      "Car dealer",
      "Ferrari dealer",
      "Ford dealer",
      "Hyundai dealer",
      "Jaguar dealer",
      "Used auto parts store",
      "Volvo dealer"
    ],
    "reviewsCount": 143,
    "imagesCount": 57,
    "openingHours": [
      {
        "day": "Monday",
        "hours": "10‚ÄØAM to 8‚ÄØPM"
      },
      {
        "day": "Tuesday",
        "hours": "10‚ÄØAM to 8‚ÄØPM"
      },
      {
        "day": "Wednesday",
        "hours": "10‚ÄØAM to 8‚ÄØPM"
      },
      {
        "day": "Thursday",
        "hours": "10‚ÄØAM to 8‚ÄØPM"
      },
      {
        "day": "Friday",
        "hours": "10‚ÄØAM to 8‚ÄØPM"
      },
      {
        "day": "Saturday",
        "hours": "Closed"
      },
      {
        "day": "Sunday",
        "hours": "10‚ÄØAM to 8‚ÄØPM"
      }
    ],
    "imageUrl": "https://media.indianluxurycars.com/google/8c9bab1b96cdb46480ce116a06f667b474391bb5a1802cf9db41b8d0c2bd8da2.jpg",
    "url": "https://www.google.com/maps/search/?api=1&query=CarGiant%20Nariana&query_place_id=ChIJwTMmXhECDTkR1dOnwHBJBm0"
  },
  {
    "title": "Chaudhary Luxury Cars",
    "subTitle": "‡§ö‡•å‡§ß‡§∞‡•Ä ‡§≤‡§ï‡•ç‡§ú‡§∞‡•Ä ‡§ï‡§æ‡§∞‡•ç‡§∏",
    "categoryName": "Car rental agency",
    "address": "Jr, Nz, 125, Main Shalimar Garoaden Road, Vikram Enclave, Shalimar Garoaden, Ghaziabad, Uttar Pradesh, Sahibabad, New Delhi, Delhi 110095, India",
    "neighborhood": "Vikram Enclave, Shalimar Garden, Sahibabad",
    "street": "Jr, Nz, 125, Main Shalimar Garoaden Road, Vikram Enclave, Shalimar Garoaden, Ghaziabad, Uttar Pradesh",
    "city": "New Delhi",
    "postalCode": "110095",
    "state": "Delhi",
    "countryCode": "IN",
    "website": "https://www.facebook.com/choudhary.abid.165?mibextid=ZbWKwL",
    "location": {
      "lat": 28.6867344,
      "lng": 77.3312884
    },
    "totalScore": 5,
    "permanentlyClosed": false,
    "temporarilyClosed": false,
    "placeId": "ChIJD-JpvKz7DDkRGkTD4_w4H38",
    "categories": [
      "Car rental agency"
    ],
    "reviewsCount": 5,
    "imagesCount": 31,
    "openingHours": [
      {
        "day": "Monday",
        "hours": "8‚ÄØAM to 10‚ÄØPM"
      },
      {
        "day": "Tuesday",
        "hours": "8‚ÄØAM to 10‚ÄØPM"
      },
      {
        "day": "Wednesday",
        "hours": "8‚ÄØAM to 10‚ÄØPM"
      },
      {
        "day": "Thursday",
        "hours": "8‚ÄØAM to 10‚ÄØPM"
      },
      {
        "day": "Friday",
        "hours": "8‚ÄØAM to 10‚ÄØPM"
      },
      {
        "day": "Saturday",
        "hours": "8‚ÄØAM to 10‚ÄØPM"
      },
      {
        "day": "Sunday",
        "hours": "8‚ÄØAM to 10‚ÄØPM"
      }
    ],
    "imageUrl": "https://media.indianluxurycars.com/google/527b6ab48310b1f4c9f57bcd4e3842e7102640425f4ee53a671da4b83e9fc8c6.jpg",
    "url": "https://www.google.com/maps/search/?api=1&query=Chaudhary%20Luxury%20Cars&query_place_id=ChIJD-JpvKz7DDkRGkTD4_w4H38"
  },
  {
    "title": "Dashmesh Luxury Cars",
    "subTitle": "‡§¶‡§∂‡§Æ‡•á‡§∂ ‡§≤‡§ï‡•ç‡§ú‡§∞‡•Ä ‡§ï‡§æ‡§∞‡•ç‡§∏",
    "categoryName": "Car rental agency",
    "address": "1/204, Cantt-110010, behind Overseas Bank, Sadar Bazaar, Naraina, New Delhi, Delhi 110028, India",
    "neighborhood": "Sadar Bazaar, Naraina",
    "street": "1/204, Cantt-110010, behind Overseas Bank",
    "city": "New Delhi",
    "postalCode": "110028",
    "state": "Delhi",
    "countryCode": "IN",
    "location": {
      "lat": 28.6220528,
      "lng": 77.1397389
    },
    "permanentlyClosed": false,
    "temporarilyClosed": false,
    "placeId": "ChIJAzDRfS4DDTkRL1DYhj_4_J4",
    "categories": [
      "Car rental agency"
    ],
    "openingHours": [],
    "url": "https://www.google.com/maps/search/?api=1&query=Dashmesh%20Luxury%20Cars&query_place_id=ChIJAzDRfS4DDTkRL1DYhj_4_J4"
  },
  {
    "title": "Delight Auto-Best Car Dealers in Delhi/Top Second Hand Car Dealers in Delhi",
    "subTitle": "‡§°‡§ø‡§≤‡§æ‡§á‡§ü ‡§ë‡§ü‡•ã-‡§¨‡•á‡§∏‡•ç‡§ü ‡§ï‡§æ‡§∞ ‡§°‡•Ä‡§≤‡§∞‡•ç‡§∏ ‡§á‡§® ‡§¶‡§ø‡§≤‡•ç‡§≤‡•Ä/‡§ü‡•â‡§™ ‡§∏‡•á‡§ï‡§Ç‡§° ‡§π‡•à‡§Ç‡§° ‡§ï‡§æ‡§∞ ‡§°‡•Ä‡§≤‡§∞‡•ç‡§∏ ‡§á‡§® ‡§¶‡§ø‡§≤‡•ç‡§≤‡•Ä",
    "categoryName": "Car dealer",
    "address": "O-14, 2nd, Block O, Lajpat Nagar II, Lajpat Nagar, New Delhi, Delhi 110024, India",
    "neighborhood": "Block O, Lajpat Nagar II, Lajpat Nagar",
    "street": "O-14, 2nd",
    "city": "New Delhi",
    "postalCode": "110024",
    "state": "Delhi",
    "countryCode": "IN",
    "location": {
      "lat": 28.5670524,
      "lng": 77.2468443
    },
    "totalScore": 5,
    "permanentlyClosed": false,
    "temporarilyClosed": false,
    "placeId": "ChIJM7fy3SfjDDkRZlmM5PmAXVs",
    "categories": [
      "Car dealer"
    ],
    "reviewsCount": 26,
    "imagesCount": 14,
    "openingHours": [
      {
        "day": "Monday",
        "hours": "10‚ÄØAM to 8‚ÄØPM"
      },
      {
        "day": "Tuesday",
        "hours": "10‚ÄØAM to 8‚ÄØPM"
      },
      {
        "day": "Wednesday",
        "hours": "10‚ÄØAM to 8‚ÄØPM"
      },
      {
        "day": "Thursday",
        "hours": "10‚ÄØAM to 8‚ÄØPM"
      },
      {
        "day": "Friday",
        "hours": "10‚ÄØAM to 8‚ÄØPM"
      },
      {
        "day": "Saturday",
        "hours": "10‚ÄØAM to 8‚ÄØPM"
      },
      {
        "day": "Sunday",
        "hours": "10‚ÄØAM to 8‚ÄØPM"
      }
    ],
    "imageUrl": "https://media.indianluxurycars.com/google/7e03deff468de55c2ddafe89bdaded460a8b39040a7dbd2f73e79de53b80ab8d.jpg",
    "url": "https://www.google.com/maps/search/?api=1&query=Delight%20Auto-Best%20Car%20Dealers%20in%20Delhi%2FTop%20Second%20Hand%20Car%20Dealers%20in%20Delhi&query_place_id=ChIJM7fy3SfjDDkRZlmM5PmAXVs"
  },
  {
    "title": "EliteCarz",
    "subTitle": "‡§è‡§≤‡§ø‡§ü‡§ï‡§æ‡§∞‡•ç‡§ú",
    "categoryName": "Used car dealer",
    "address": "Indra Market, CB-382, Ring Rd, Block CB, Naraina Village, Naraina, New Delhi, Delhi 110028, India",
    "neighborhood": "Block CB, Naraina Village, Naraina",
    "street": "Indra Market, CB-382, Ring Rd",
    "city": "New Delhi",
    "postalCode": "110028",
    "state": "Delhi",
    "countryCode": "IN",
    "website": "https://elitecarz.in/",
    "phone": "+919711163000",
    "phoneUnformatted": "+919711163000",
    "location": {
      "lat": 28.6265549,
      "lng": 77.1335315
    },
    "totalScore": 4.7,
    "permanentlyClosed": false,
    "temporarilyClosed": false,
    "placeId": "ChIJX06l6VX7DDkRdZOa8MMwkTQ",
    "categories": [
      "Used car dealer"
    ],
    "reviewsCount": 84,
    "imagesCount": 14,
    "openingHours": [
      {
        "day": "Monday",
        "hours": "11‚ÄØAM to 7‚ÄØPM"
      },
      {
        "day": "Tuesday",
        "hours": "11‚ÄØAM to 7‚ÄØPM"
      },
      {
        "day": "Wednesday",
        "hours": "11‚ÄØAM to 7‚ÄØPM"
      },
      {
        "day": "Thursday",
        "hours": "11‚ÄØAM to 7‚ÄØPM"
      },
      {
        "day": "Friday",
        "hours": "11‚ÄØAM to 7‚ÄØPM"
      },
      {
        "day": "Saturday",
        "hours": "11‚ÄØAM to 4‚ÄØPM"
      },
      {
        "day": "Sunday",
        "hours": "11‚ÄØAM to 7‚ÄØPM"
      }
    ],
    "imageUrl": "https://media.indianluxurycars.com/google/10ffd92cd099178ea1ec0eec9ca1ace45ae5b6ed3713b3013c26f505901f1ce7.jpg",
    "url": "https://www.google.com/maps/search/?api=1&query=EliteCarz&query_place_id=ChIJX06l6VX7DDkRdZOa8MMwkTQ"
  },
  {
    "title": "Expert Car",
    "subTitle": "‡§è‡§ï‡•ç‡§∏‡§™‡§∞‡•ç‡§ü ‡§ï‡§æ‡§∞",
    "categoryName": "Car dealer",
    "address": "26A&, J Pocket, Phase II, Sheikh Sarai, New Delhi, Delhi 110017, India",
    "neighborhood": "J Pocket, Phase II, Sheikh Sarai",
    "street": "26A&",
    "city": "New Delhi",
    "postalCode": "110017",
    "state": "Delhi",
    "countryCode": "IN",
    "phone": "+919919997444",
    "phoneUnformatted": "+919919997444",
    "location": {
      "lat": 28.535318,
      "lng": 77.229265
    },
    "totalScore": 4.9,
    "permanentlyClosed": false,
    "temporarilyClosed": false,
    "placeId": "ChIJ8a6-N4DjDDkRoIyPeC9Mqlg",
    "categories": [
      "Car dealer"
    ],
    "reviewsCount": 18,
    "imagesCount": 3,
    "openingHours": [
      {
        "day": "Monday",
        "hours": "9‚ÄØAM to 8:30‚ÄØPM"
      },
      {
        "day": "Tuesday",
        "hours": "9‚ÄØAM to 8:30‚ÄØPM"
      },
      {
        "day": "Wednesday",
        "hours": "9‚ÄØAM to 8:30‚ÄØPM"
      },
      {
        "day": "Thursday",
        "hours": "9‚ÄØAM to 8:30‚ÄØPM"
      },
      {
        "day": "Friday",
        "hours": "9‚ÄØAM to 8:30‚ÄØPM"
      },
      {
        "day": "Saturday",
        "hours": "9‚ÄØAM to 8:30‚ÄØPM"
      },
      {
        "day": "Sunday",
        "hours": "9‚ÄØAM to 8:30‚ÄØPM"
      }
    ],
    "imageUrl": "https://media.indianluxurycars.com/google/0501e676b5c2927bd954fa2c387807bd6e0c56109ab995f2060b22d083ca9821.jpg",
    "url": "https://www.google.com/maps/search/?api=1&query=Expert%20Car&query_place_id=ChIJ8a6-N4DjDDkRoIyPeC9Mqlg"
  },
  {
    "title": "High Street cars",
    "subTitle": "‡§π‡§æ‡§à ‡§∏‡•ç‡§ü‡•ç‡§∞‡•Ä‡§ü ‡§ï‡§æ‡§∞‡•ç‡§∏",
    "categoryName": "Car dealer",
    "address": "JK Farm, Ghitorni, New Delhi, Delhi 110070, India",
    "neighborhood": "Ghitorni",
    "street": "JK Farm",
    "city": "New Delhi",
    "postalCode": "110070",
    "state": "Delhi",
    "countryCode": "IN",
    "website": "https://www.highstreetcars.in/",
    "phone": "+918062463523",
    "phoneUnformatted": "+918062463523",
    "location": {
      "lat": 28.5084272,
      "lng": 77.1483055
    },
    "totalScore": 2.7,
    "permanentlyClosed": false,
    "temporarilyClosed": false,
    "placeId": "ChIJj_sU23YfDTkRQu92I8OU_EQ",
    "categories": [
      "Car dealer",
      "Used car dealer",
      "Vehicle exporter"
    ],
    "reviewsCount": 927,
    "imagesCount": 105,
    "openingHours": [
      {
        "day": "Monday",
        "hours": "11‚ÄØAM to 8‚ÄØPM"
      },
      {
        "day": "Tuesday",
        "hours": "11‚ÄØAM to 8‚ÄØPM"
      },
      {
        "day": "Wednesday",
        "hours": "11‚ÄØAM to 8‚ÄØPM"
      },
      {
        "day": "Thursday",
        "hours": "11‚ÄØAM to 8‚ÄØPM"
      },
      {
        "day": "Friday",
        "hours": "11‚ÄØAM to 8‚ÄØPM"
      },
      {
        "day": "Saturday",
        "hours": "11‚ÄØAM to 8‚ÄØPM"
      },
      {
        "day": "Sunday",
        "hours": "11‚ÄØAM to 8‚ÄØPM"
      }
    ],
    "imageUrl": "https://media.indianluxurycars.com/google/a1deb5a08f1fc5bab5d608b2bf3e44fb987173876dffe29082c8206d0213c96e.jpg",
    "url": "https://www.google.com/maps/search/?api=1&query=High%20Street%20cars&query_place_id=ChIJj_sU23YfDTkRQu92I8OU_EQ"
  },
  {
    "title": "High Street Exclusive Cars",
    "subTitle": "‡§π‡§æ‡§à ‡§∏‡•ç‡§ü‡•ç‡§∞‡•Ä‡§ü ‡§è‡§ï‡•ç‡§∏‡§ï‡•ç‡§≤‡•Ç‡§∏‡§ø‡§µ ‡§ï‡§æ‡§∞‡•ç‡§∏",
    "categoryName": "Car dealer",
    "address": "Milakpur Kohi Rangpuri, Mahipalpur, New Delhi, Delhi 110037, India",
    "neighborhood": "Milakpur Kohi Rangpuri, Mahipalpur",
    "city": "New Delhi",
    "postalCode": "110037",
    "state": "Delhi",
    "countryCode": "IN",
    "website": "https://www.instagram.com/highstreetexclusivecars",
    "location": {
      "lat": 28.5364987,
      "lng": 77.1313965
    },
    "totalScore": 5,
    "permanentlyClosed": false,
    "temporarilyClosed": false,
    "placeId": "ChIJF5HbcgAdDTkRw1c2rMnd9-g",
    "categories": [
      "Car dealer"
    ],
    "reviewsCount": 4,
    "imagesCount": 1,
    "openingHours": [
      {
        "day": "Monday",
        "hours": "10‚ÄØAM to 8‚ÄØPM"
      },
      {
        "day": "Tuesday",
        "hours": "10‚ÄØAM to 8‚ÄØPM"
      },
      {
        "day": "Wednesday",
        "hours": "10‚ÄØAM to 8‚ÄØPM"
      },
      {
        "day": "Thursday",
        "hours": "10‚ÄØAM to 8‚ÄØPM"
      },
      {
        "day": "Friday",
        "hours": "10‚ÄØAM to 8‚ÄØPM"
      },
      {
        "day": "Saturday",
        "hours": "10‚ÄØAM to 8‚ÄØPM"
      },
      {
        "day": "Sunday",
        "hours": "10‚ÄØAM to 8‚ÄØPM"
      }
    ],
    "imageUrl": "https://media.indianluxurycars.com/google/57e8724d4c061200efa2dd7ac12cded9c2d63cc8cb76db90bf9b6979ae2856b9.jpg",
    "url": "https://www.google.com/maps/search/?api=1&query=High%20Street%20Exclusive%20Cars&query_place_id=ChIJF5HbcgAdDTkRw1c2rMnd9-g"
  },
  {
    "title": "imported car dealer",
    "subTitle": "‡§á‡§Ç‡§™‡•ã‡§∞‡•ç‡§ü‡•á‡§° ‡§ï‡§æ‡§∞ ‡§°‡•Ä‡§≤‡§∞",
    "categoryName": "Used car dealer",
    "address": "shop no 18A, Prithviraj Rd, Khan Market, market, New Delhi, Delhi 110011, India",
    "neighborhood": "Khan Market, market",
    "street": "shop no 18A, Prithviraj Rd",
    "city": "New Delhi",
    "postalCode": "110011",
    "state": "Delhi",
    "countryCode": "IN",
    "location": {
      "lat": 28.5979545,
      "lng": 77.2180956
    },
    "totalScore": 5,
    "permanentlyClosed": false,
    "temporarilyClosed": false,
    "placeId": "ChIJ2VI-kS3jDDkR4KLklhqaPQo",
    "categories": [
      "Used car dealer"
    ],
    "reviewsCount": 2,
    "imagesCount": 2,
    "openingHours": [
      {
        "day": "Monday",
        "hours": "11‚ÄØAM to 8‚ÄØPM"
      },
      {
        "day": "Tuesday",
        "hours": "11‚ÄØAM to 8‚ÄØPM"
      },
      {
        "day": "Wednesday",
        "hours": "11‚ÄØAM to 8:30‚ÄØPM"
      },
      {
        "day": "Thursday",
        "hours": "11‚ÄØAM to 8:30‚ÄØPM"
      },
      {
        "day": "Friday",
        "hours": "11‚ÄØAM to 8‚ÄØPM"
      },
      {
        "day": "Saturday",
        "hours": "11‚ÄØAM to 8‚ÄØPM"
      },
      {
        "day": "Sunday",
        "hours": "11‚ÄØAM to 8‚ÄØPM"
      }
    ],
    "imageUrl": "https://media.indianluxurycars.com/google/136436f540ea361db5bfea172c456abb678c7a4bed0188a584d72ed847cfda71.jpg",
    "url": "https://www.google.com/maps/search/?api=1&query=imported%20car%20dealer&query_place_id=ChIJ2VI-kS3jDDkR4KLklhqaPQo"
  },
  {
    "title": "Incredible Heritage Tours",
    "subTitle": "‡§á‡§®‡§ï‡•ç‡§∞‡•á‡§°‡§ø‡§¨‡§≤ ‡§π‡•á‡§∞‡§ø‡§ü‡•á‡§ú ‡§ü‡•Ç‡§∞‡•ç‡§∏",
    "categoryName": "Car rental agency",
    "address": "Metro Station, G-24 Palika Place Panchukian Road, Near R K, Ashram Marg, New Delhi, Delhi 110001, India",
    "neighborhood": "Block 42, DIZ Area, Gole Market",
    "street": "Metro Station, G-24 Palika Place Panchukian Road, Near R K, Ashram Marg",
    "city": "New Delhi",
    "postalCode": "110001",
    "state": "Delhi",
    "countryCode": "IN",
    "website": "http://www.incredibleheritagetours.com/",
    "phone": "+919818236503",
    "phoneUnformatted": "+919818236503",
    "location": {
      "lat": 28.6385644,
      "lng": 77.2086861
    },
    "totalScore": 5,
    "permanentlyClosed": false,
    "temporarilyClosed": false,
    "placeId": "ChIJ50gHgJ79DDkRmfL8t8sS7NA",
    "categories": [
      "Car rental agency",
      "Car leasing service"
    ],
    "reviewsCount": 176,
    "imagesCount": 134,
    "openingHours": [
      {
        "day": "Monday",
        "hours": "9‚ÄØAM to 9‚ÄØPM"
      },
      {
        "day": "Tuesday",
        "hours": "9‚ÄØAM to 9‚ÄØPM"
      },
      {
        "day": "Wednesday",
        "hours": "9‚ÄØAM to 9‚ÄØPM"
      },
      {
        "day": "Thursday",
        "hours": "9‚ÄØAM to 9‚ÄØPM"
      },
      {
        "day": "Friday",
        "hours": "9‚ÄØAM to 9‚ÄØPM"
      },
      {
        "day": "Saturday",
        "hours": "9‚ÄØAM to 9‚ÄØPM"
      },
      {
        "day": "Sunday",
        "hours": "9‚ÄØAM to 9‚ÄØPM"
      }
    ],
    "imageUrl": "https://media.indianluxurycars.com/google/9c33f6b0c98f732b8f46e9884044aae12e21ff025b98a36b837f596332c9184e.jpg",
    "url": "https://www.google.com/maps/search/?api=1&query=Incredible%20Heritage%20Tours&query_place_id=ChIJ50gHgJ79DDkRmfL8t8sS7NA"
  },
  {
    "title": "J&H Auto Deals - Luxury Car Dealers In Delhi",
    "subTitle": "‡§ú‡§æ&‡§π‡•à ‡§ë‡§ü‡•ã ‡§°‡•Ä‡§≤‡•ç‡§∏ - ‡§≤‡§ï‡•ç‡§ú‡§∞‡•Ä ‡§ï‡§æ‡§∞ ‡§°‡•Ä‡§≤‡§∞‡•ç‡§∏ ‡§á‡§® ‡§¶‡§ø‡§≤‡•ç‡§≤‡•Ä",
    "categoryName": "Smart Car dealer",
    "address": "G - 50, J&H Auto Deals, NBCC SHOPPING COMPLEX, Block A, East Kidwai Nagar, Kidwai Nagar, New Delhi, Delhi 110023, India",
    "neighborhood": "Block A, East Kidwai Nagar, Kidwai Nagar",
    "street": "G - 50, J&H Auto Deals, NBCC SHOPPING COMPLEX",
    "city": "New Delhi",
    "postalCode": "110023",
    "state": "Delhi",
    "countryCode": "IN",
    "website": "https://jhautodeals.com/",
    "phone": "+919289442688",
    "phoneUnformatted": "+919289442688",
    "location": {
      "lat": 28.5697861,
      "lng": 77.213379
    },
    "totalScore": 5,
    "permanentlyClosed": false,
    "temporarilyClosed": false,
    "placeId": "ChIJtZTb_crjDDkRawNBH0y_7nM",
    "categories": [
      "Smart Car dealer"
    ],
    "reviewsCount": 8,
    "imagesCount": 11,
    "openingHours": [
      {
        "day": "Monday",
        "hours": "10‚ÄØAM to 8‚ÄØPM"
      },
      {
        "day": "Tuesday",
        "hours": "10‚ÄØAM to 8‚ÄØPM"
      },
      {
        "day": "Wednesday",
        "hours": "10‚ÄØAM to 8‚ÄØPM"
      },
      {
        "day": "Thursday",
        "hours": "10‚ÄØAM to 8‚ÄØPM"
      },
      {
        "day": "Friday",
        "hours": "10‚ÄØAM to 8‚ÄØPM"
      },
      {
        "day": "Saturday",
        "hours": "10‚ÄØAM to 8‚ÄØPM"
      },
      {
        "day": "Sunday",
        "hours": "10‚ÄØAM to 8‚ÄØPM"
      }
    ],
    "imageUrl": "https://media.indianluxurycars.com/google/da0e4d47b352e43b52a44828cbb0c024f29953ab43669502260c085def63fc8b.jpg",
    "url": "https://www.google.com/maps/search/?api=1&query=J%26H%20Auto%20Deals%20-%20Luxury%20Car%20Dealers%20In%20Delhi&query_place_id=ChIJtZTb_crjDDkRawNBH0y_7nM"
  },
  {
    "title": "Jagat Motors",
    "subTitle": "‡§ú‡§ó‡§§ ‡§Æ‡•ã‡§ü‡§∞‡•ç‡§∏",
    "categoryName": "Used car dealer",
    "address": "Yashwant place, Chanakyapuri, New Delhi, Delhi 110021, India",
    "neighborhood": "Chanakyapuri",
    "street": "Yashwant place",
    "city": "New Delhi",
    "postalCode": "110021",
    "state": "Delhi",
    "countryCode": "IN",
    "website": "https://www.jagatmotors.com/",
    "location": {
      "lat": 28.5851809,
      "lng": 77.1915486
    },
    "totalScore": 3.9,
    "permanentlyClosed": false,
    "temporarilyClosed": false,
    "placeId": "ChIJ-bdsfyXjDDkRCBe4Yd-SiOE",
    "categories": [
      "Used car dealer"
    ],
    "reviewsCount": 16,
    "imagesCount": 3,
    "openingHours": [],
    "imageUrl": "https://media.indianluxurycars.com/google/d65af78127de2b56b541d00ab99a2366e34d80e3e0c26fde711b047aa75c165b.jpg",
    "url": "https://www.google.com/maps/search/?api=1&query=Jagat%20Motors&query_place_id=ChIJ-bdsfyXjDDkRCBe4Yd-SiOE"
  },
  {
    "title": "Krazy About Carz",
    "subTitle": "‡§ï‡•ç‡§∞‡•á‡§ú‡§º‡•Ä ‡§Ö‡§¨‡§æ‡§â‡§ü ‡§ï‡§æ‡§∞‡•ç‡•õ",
    "categoryName": "Used car dealer",
    "address": "645/2, Silver Oak Farms, Zero No. Road, Chattarpur, near Ghitorni, Metrostation, New Delhi, Delhi 110030, India",
    "neighborhood": "Metrostation, Ghitorni",
    "street": "645/2, Silver Oak Farms, Zero No. Road, Chattarpur, near Ghitorni",
    "city": "New Delhi",
    "postalCode": "110030",
    "state": "Delhi",
    "countryCode": "IN",
    "phone": "+919999809647",
    "phoneUnformatted": "+919999809647",
    "location": {
      "lat": 28.4924781,
      "lng": 77.1344992
    },
    "totalScore": 4.4,
    "permanentlyClosed": false,
    "temporarilyClosed": false,
    "placeId": "ChIJk2wbweAeDTkRxYUmAYXGhwM",
    "categories": [
      "Used car dealer"
    ],
    "reviewsCount": 125,
    "imagesCount": 118,
    "openingHours": [
      {
        "day": "Monday",
        "hours": "10:30‚ÄØAM to 6‚ÄØPM"
      },
      {
        "day": "Tuesday",
        "hours": "10:30‚ÄØAM to 6‚ÄØPM"
      },
      {
        "day": "Wednesday",
        "hours": "10:30‚ÄØAM to 6‚ÄØPM"
      },
      {
        "day": "Thursday",
        "hours": "10:30‚ÄØAM to 6‚ÄØPM"
      },
      {
        "day": "Friday",
        "hours": "10:30‚ÄØAM to 6‚ÄØPM"
      },
      {
        "day": "Saturday",
        "hours": "10:30‚ÄØAM to 6‚ÄØPM"
      },
      {
        "day": "Sunday",
        "hours": "10:30‚ÄØAM to 6‚ÄØPM"
      }
    ],
    "imageUrl": "https://media.indianluxurycars.com/google/459acdc65ce12df316832ee7146c638cc7c7de04c87e07f8eb106e7f4cb9560e.png",
    "url": "https://www.google.com/maps/search/?api=1&query=Krazy%20About%20Carz&query_place_id=ChIJk2wbweAeDTkRxYUmAYXGhwM"
  },
  {
    "title": "KTC India - Luxury Car Rental Delhi",
    "subTitle": "‡§ï‡•á ‡§ü‡•Ä ‡§∏‡•Ä ‡§á‡§Ç‡§°‡§ø‡§Ø‡§æ - ‡§≤‡§ï‡•ç‡§ú‡§∞‡•Ä ‡§ï‡§æ‡§∞ ‡§∞‡•á‡§Ç‡§ü‡§≤ ‡§¶‡§ø‡§≤‡•ç‡§≤‡•Ä",
    "categoryName": "Car rental agency",
    "address": "RZ‚ÄìA/96, Road.6, Street No.9, Mahipalpur Extension, Block RZ, Mahipalpur Village, Mahipalpur, New Delhi, Delhi 110037, India",
    "neighborhood": "Block RZ, Mahipalpur Village, Mahipalpur",
    "street": "RZ‚ÄìA/96, Road.6, Street No.9, Mahipalpur Extension",
    "city": "New Delhi",
    "postalCode": "110037",
    "state": "Delhi",
    "countryCode": "IN",
    "website": "https://www.ktcindia.com/",
    "phone": "+911142588888",
    "phoneUnformatted": "+911142588888",
    "location": {
      "lat": 28.550249,
      "lng": 77.130417
    },
    "totalScore": 4.4,
    "permanentlyClosed": false,
    "temporarilyClosed": false,
    "placeId": "ChIJrfncAaodDTkRu0_3neQgVkQ",
    "categories": [
      "Car rental agency",
      "Chauffeur service",
      "Sightseeing tour agency",
      "Tour operator",
      "Transportation service",
      "Van rental agency"
    ],
    "reviewsCount": 116,
    "imagesCount": 63,
    "openingHours": [
      {
        "day": "Monday",
        "hours": "Open 24 hours"
      },
      {
        "day": "Tuesday",
        "hours": "Open 24 hours"
      },
      {
        "day": "Wednesday",
        "hours": "Open 24 hours"
      },
      {
        "day": "Thursday",
        "hours": "Open 24 hours"
      },
      {
        "day": "Friday",
        "hours": "Open 24 hours"
      },
      {
        "day": "Saturday",
        "hours": "Open 24 hours"
      },
      {
        "day": "Sunday",
        "hours": "Open 24 hours"
      }
    ],
    "imageUrl": "https://media.indianluxurycars.com/google/b279ee78d2a3ab57893fed362692a444ddd197e5ba7829751fb7785811e5cb19.jpg",
    "url": "https://www.google.com/maps/search/?api=1&query=KTC%20India%20-%20Luxury%20Car%20Rental%20Delhi&query_place_id=ChIJrfncAaodDTkRu0_3neQgVkQ"
  },
  {
    "title": "Kunj Motor",
    "subTitle": "‡§ï‡•Å‡§Ç‡§ú ‡§Æ‡•ã‡§ü‡§∞‡•ç‡§∏",
    "categoryName": "Used car dealer",
    "address": "Dwarka Underpass Road,, Dwarka Link Rd, Opposite IGI Airport Boundary, Near Hotel Uppal Orchid, Samalka, New Delhi, Delhi 110097, India",
    "neighborhood": "D Block, Samalka",
    "street": "Dwarka Underpass Road,, Dwarka Link Rd, Opposite IGI Airport Boundary, Near Hotel Uppal Orchid",
    "city": "New Delhi",
    "postalCode": "110097",
    "state": "Delhi",
    "countryCode": "IN",
    "website": "http://www.kunjmotor.com/",
    "phone": "+919811002232",
    "phoneUnformatted": "+919811002232",
    "location": {
      "lat": 28.5357792,
      "lng": 77.1028245
    },
    "totalScore": 4.5,
    "permanentlyClosed": false,
    "temporarilyClosed": false,
    "placeId": "ChIJj92jqW0cDTkR2KqLJ7rMKAI",
    "categories": [
      "Used car dealer"
    ],
    "reviewsCount": 599,
    "imagesCount": 312,
    "openingHours": [
      {
        "day": "Monday",
        "hours": "10‚ÄØAM to 7‚ÄØPM"
      },
      {
        "day": "Tuesday",
        "hours": "10‚ÄØAM to 7‚ÄØPM"
      },
      {
        "day": "Wednesday",
        "hours": "10‚ÄØAM to 7‚ÄØPM"
      },
      {
        "day": "Thursday",
        "hours": "10‚ÄØAM to 7‚ÄØPM"
      },
      {
        "day": "Friday",
        "hours": "10‚ÄØAM to 7‚ÄØPM"
      },
      {
        "day": "Saturday",
        "hours": "10‚ÄØAM to 7‚ÄØPM"
      },
      {
        "day": "Sunday",
        "hours": "10‚ÄØAM to 7‚ÄØPM"
      }
    ],
    "imageUrl": "https://media.indianluxurycars.com/google/b0a0c9e1598772259077b08784bd69a98c41e22df596f26c58507a46955e6819.jpg",
    "url": "https://www.google.com/maps/search/?api=1&query=Kunj%20Motor&query_place_id=ChIJj92jqW0cDTkR2KqLJ7rMKAI"
  },
  {
    "title": "Low2Luxe Carz | Used car Dealer",
    "subTitle": "‡§≤‡•ã2‡§≤‡§ï‡•ç‡§∏ ‡§ï‡§æ‡§∞‡•ç‡§ú‡§º | ‡§Ø‡•Ç‡§ú‡•ç‡§° ‡§ï‡§æ‡§∞ ‡§°‡•Ä‡§≤‡§∞",
    "categoryName": "Used car dealer",
    "address": "Shree Ram lane, Jk Farm 3, Green Avenue St, Vasant Kunj, New Delhi, Delhi 110070, India",
    "neighborhood": "Vasant Kunj",
    "street": "Shree Ram lane, Jk Farm 3, Green Avenue St",
    "city": "New Delhi",
    "postalCode": "110070",
    "state": "Delhi",
    "countryCode": "IN",
    "website": "https://low2luxecarz.in/",
    "location": {
      "lat": 28.5075206,
      "lng": 77.1482631
    },
    "totalScore": 5,
    "permanentlyClosed": false,
    "temporarilyClosed": false,
    "placeId": "ChIJZx_6otkfDTkRpA7gaPR4OgE",
    "categories": [
      "Used car dealer",
      "Car dealer"
    ],
    "reviewsCount": 5,
    "imagesCount": 25,
    "openingHours": [
      {
        "day": "Monday",
        "hours": "10‚ÄØAM to 8‚ÄØPM"
      },
      {
        "day": "Tuesday",
        "hours": "10‚ÄØAM to 8‚ÄØPM"
      },
      {
        "day": "Wednesday",
        "hours": "10‚ÄØAM to 8‚ÄØPM"
      },
      {
        "day": "Thursday",
        "hours": "10‚ÄØAM to 8‚ÄØPM"
      },
      {
        "day": "Friday",
        "hours": "10‚ÄØAM to 8‚ÄØPM"
      },
      {
        "day": "Saturday",
        "hours": "10‚ÄØAM to 8‚ÄØPM"
      },
      {
        "day": "Sunday",
        "hours": "10‚ÄØAM to 8‚ÄØPM"
      }
    ],
    "imageUrl": "https://media.indianluxurycars.com/google/8473103d4d675d16238848992eaace7579526d233cbf9a52cf129635c214dce5.png",
    "url": "https://www.google.com/maps/search/?api=1&query=Low2Luxe%20Carz%20%7C%20Used%20car%20Dealer&query_place_id=ChIJZx_6otkfDTkRpA7gaPR4OgE"
  },
  {
    "title": "LUXORIDES - Luxury car rental in Delhi, Gurgaon, Noida and nearby",
    "subTitle": "‡§≤‡§ï‡•ç‡§∏‡§∞‡§æ‡§á‡§°‡•ç‡§∏ - ‡§≤‡§ï‡•ç‡§ú‡§∞‡•Ä ‡§ï‡§æ‡§∞ ‡§∞‡•á‡§Ç‡§ü‡§≤ ‡§á‡§® ‡§¶‡§ø‡§≤‡•ç‡§≤‡•Ä, ‡§ó‡•Å‡§°‡§ó‡§æ‡§Ç‡§µ, ‡§®‡•ã‡§è‡§°‡§æ ‡§è‡§Ç‡§° ‡§®‡•Ä‡§Ø‡§∞‡§¨‡§æ‡§Ø",
    "categoryName": "Car rental agency",
    "address": "Umbrella Room Ventures India Pvt Ltd, DLF Building, Sansad Marg, Janpath, Connaught Place, New Delhi, Delhi 110001, India",
    "neighborhood": "Janpath, Connaught Place",
    "street": "Umbrella Room Ventures India Pvt Ltd, DLF Building, Sansad Marg",
    "city": "New Delhi",
    "postalCode": "110001",
    "state": "Delhi",
    "countryCode": "IN",
    "website": "https://luxorides.com/?utm_source=google&utm_medium=organic&utm_content=main_button&utm_campaign=gmb",
    "phone": "+918287568015",
    "phoneUnformatted": "+918287568015",
    "location": {
      "lat": 28.6284608,
      "lng": 77.2172528
    },
    "totalScore": 4.8,
    "permanentlyClosed": false,
    "temporarilyClosed": false,
    "placeId": "ChIJYSMwjZwRDTkRKwXx1M5ocIg",
    "categories": [
      "Car rental agency",
      "Car leasing service",
      "Carriage ride service",
      "Corporate office",
      "Leasing service",
      "Limousine service",
      "Transportation escort service",
      "Transportation service",
      "Van rental agency",
      "Wedding service"
    ],
    "reviewsCount": 115,
    "imagesCount": 138,
    "openingHours": [
      {
        "day": "Monday",
        "hours": "Open 24 hours"
      },
      {
        "day": "Tuesday",
        "hours": "Open 24 hours"
      },
      {
        "day": "Wednesday",
        "hours": "Open 24 hours"
      },
      {
        "day": "Thursday",
        "hours": "Open 24 hours"
      },
      {
        "day": "Friday",
        "hours": "Open 24 hours"
      },
      {
        "day": "Saturday",
        "hours": "Open 24 hours"
      },
      {
        "day": "Sunday",
        "hours": "Open 24 hours"
      }
    ],
    "imageUrl": "https://media.indianluxurycars.com/google/d60e92395bdb582489390d8554c719aba556d06d398bd6530ebd460f1cc164db.jpg",
    "url": "https://www.google.com/maps/search/?api=1&query=LUXORIDES%20-%20Luxury%20car%20rental%20in%20Delhi%2C%20Gurgaon%2C%20Noida%20and%20nearby&query_place_id=ChIJYSMwjZwRDTkRKwXx1M5ocIg"
  },
  {
    "title": "Luxorides | Premium and Luxury Cabs for Tours, Travel and Delhi Airport Transfers",
    "subTitle": "‡§≤‡§ï‡•ç‡§∏‡§∞‡§æ‡§á‡§°‡•ç‡§∏ | ‡§™‡•ç‡§∞‡•Ä‡§Æ‡§ø‡§Ø‡§Æ ‡§è‡§Ç‡§° ‡§≤‡§ï‡•ç‡§ú‡§∞‡•Ä ‡§ï‡•à‡§¨‡•ç‡§∏ ‡§´‡•â‡§∞ ‡§ü‡•Ç‡§∞‡•ç‡§∏, ‡§ü‡•ç‡§∞‡•à‡§µ‡§≤ ‡§è‡§Ç‡§° ‡§¶‡§ø‡§≤‡•ç‡§≤‡•Ä ‡§è‡§Ø‡§∞‡§™‡•ã‡§∞‡•ç‡§ü ‡§ü‡•ç‡§∞‡§æ‡§Ç‡§∏‡§´‡§∞‡•ç‡§∏",
    "categoryName": "Car rental agency",
    "address": "Farm 47, Umbrella Estate Rd, D Block, Kapas Hera Estate, New Delhi, Delhi 110037, India",
    "neighborhood": "D Block, Kapas Hera Estate",
    "street": "Farm 47, Umbrella Estate Rd",
    "city": "New Delhi",
    "postalCode": "110037",
    "state": "Delhi",
    "countryCode": "IN",
    "website": "https://luxorides.com/rent-luxury-cars-in-delhi.html",
    "phone": "+918700663974",
    "phoneUnformatted": "+918700663974",
    "location": {
      "lat": 28.5194283,
      "lng": 77.0910545
    },
    "totalScore": 5,
    "permanentlyClosed": false,
    "temporarilyClosed": false,
    "placeId": "ChIJ13caZtoZDTkReHKnLsCvPAQ",
    "categories": [
      "Car rental agency",
      "Airport shuttle service",
      "Car leasing service",
      "Limousine service",
      "Taxi service",
      "Tour operator"
    ],
    "reviewsCount": 8,
    "imagesCount": 22,
    "openingHours": [
      {
        "day": "Monday",
        "hours": "Open 24 hours"
      },
      {
        "day": "Tuesday",
        "hours": "Open 24 hours"
      },
      {
        "day": "Wednesday",
        "hours": "Open 24 hours"
      },
      {
        "day": "Thursday",
        "hours": "Open 24 hours"
      },
      {
        "day": "Friday",
        "hours": "Open 24 hours"
      },
      {
        "day": "Saturday",
        "hours": "Open 24 hours"
      },
      {
        "day": "Sunday",
        "hours": "Open 24 hours"
      }
    ],
    "imageUrl": "https://media.indianluxurycars.com/google/553bcb3312703a6d27ab6b949398de1b8e0abccda966e1a9a520c221093fc4e4.jpg",
    "url": "https://www.google.com/maps/search/?api=1&query=Luxorides%20%7C%20Premium%20and%20Luxury%20Cabs%20for%20Tours%2C%20Travel%20and%20Delhi%20Airport%20Transfers&query_place_id=ChIJ13caZtoZDTkReHKnLsCvPAQ"
  },
  {
    "title": "Luxury Car Terminal",
    "subTitle": "‡§≤‡§ï‡•ç‡§ú‡§∞‡•Ä ‡§ï‡§æ‡§∞ ‡§ü‡§∞‡•ç‡§Æ‡§ø‡§®‡§≤",
    "categoryName": "Motor vehicle dealer",
    "address": "Luxury Car Terminal, Delhi -A, Defence Colony, New Delhi, Delhi 110024, India",
    "neighborhood": "Delhi -A, Defence Colony",
    "street": "Luxury Car Terminal",
    "city": "New Delhi",
    "postalCode": "110024",
    "state": "Delhi",
    "countryCode": "IN",
    "location": {
      "lat": 28.578484,
      "lng": 77.2368255
    },
    "permanentlyClosed": false,
    "temporarilyClosed": false,
    "placeId": "ChIJ3cxCkFXiDDkRP6LPbTZhQa4",
    "categories": [
      "Motor vehicle dealer"
    ],
    "openingHours": [],
    "url": "https://www.google.com/maps/search/?api=1&query=Luxury%20Car%20Terminal&query_place_id=ChIJ3cxCkFXiDDkRP6LPbTZhQa4"
  },
  {
    "title": "Malviya Car Bazar",
    "subTitle": "‡§Æ‡§æ‡§≤‡§µ‡•Ä‡§Ø ‡§ï‡§æ‡§∞ ‡§¨‡§æ‡§ú‡§æ‡§∞",
    "categoryName": "Car dealer",
    "address": "22, CSC, DDA Market, No - 21, Masjid Moth Phase 2, Greater Kailash, New Delhi, Delhi 110048, India",
    "neighborhood": "Masjid Moth Phase 2, Greater Kailash",
    "street": "22, CSC, DDA Market, No - 21",
    "city": "New Delhi",
    "postalCode": "110048",
    "state": "Delhi",
    "countryCode": "IN",
    "website": "http://www.malviyacarbazar.in/",
    "phone": "+918048055315",
    "phoneUnformatted": "+918048055315",
    "location": {
      "lat": 28.5403509,
      "lng": 77.232724
    },
    "totalScore": 3.9,
    "permanentlyClosed": false,
    "temporarilyClosed": false,
    "placeId": "ChIJpe7UmC7iDDkRMC_-HVsmldE",
    "categories": [
      "Car dealer",
      "Motor vehicle dealer",
      "Truck dealer",
      "Used car dealer",
      "Used truck dealer"
    ],
    "reviewsCount": 58,
    "imagesCount": 22,
    "openingHours": [
      {
        "day": "Monday",
        "hours": "9:30‚ÄØAM to 7‚ÄØPM"
      },
      {
        "day": "Tuesday",
        "hours": "9:30‚ÄØAM to 7‚ÄØPM"
      },
      {
        "day": "Wednesday",
        "hours": "9:30‚ÄØAM to 7‚ÄØPM"
      },
      {
        "day": "Thursday",
        "hours": "9:30‚ÄØAM to 7‚ÄØPM"
      },
      {
        "day": "Friday",
        "hours": "9:30‚ÄØAM to 7‚ÄØPM"
      },
      {
        "day": "Saturday",
        "hours": "9:30‚ÄØAM to 7‚ÄØPM"
      },
      {
        "day": "Sunday",
        "hours": "9:30‚ÄØAM to 7‚ÄØPM"
      }
    ],
    "imageUrl": "https://media.indianluxurycars.com/google/701ce26acc4617796d54fe993d913bcecaa585556e35dcf1239cfb8d493cc489.jpg",
    "url": "https://www.google.com/maps/search/?api=1&query=Malviya%20Car%20Bazar&query_place_id=ChIJpe7UmC7iDDkRMC_-HVsmldE"
  },
  {
    "title": "Mr Car (Naraina)",
    "subTitle": "‡§Æ‡§ø‡§∏‡•ç‡§ü‡§∞ ‡§ï‡§æ‡§∞ ‡§®‡§∞‡•à‡§®‡§æ",
    "categoryName": "Used car dealer",
    "address": "CB 164, Ring Rd, Block CB, Naraina Vihar, Naraina, New Delhi, Delhi 110028, India",
    "neighborhood": "Block CB, Naraina Vihar, Naraina",
    "street": "CB 164, Ring Rd",
    "city": "New Delhi",
    "postalCode": "110028",
    "state": "Delhi",
    "countryCode": "IN",
    "website": "http://www.mrcarnaraina.com/",
    "phone": "+918447735205",
    "phoneUnformatted": "+918447735205",
    "location": {
      "lat": 28.6233752,
      "lng": 77.1351346
    },
    "totalScore": 4.6,
    "permanentlyClosed": false,
    "temporarilyClosed": false,
    "placeId": "ChIJ38-lsDEDDTkRgsXKoPPxBqQ",
    "categories": [
      "Used car dealer"
    ],
    "reviewsCount": 618,
    "imagesCount": 473,
    "openingHours": [
      {
        "day": "Monday",
        "hours": "10‚ÄØAM to 8‚ÄØPM"
      },
      {
        "day": "Tuesday",
        "hours": "10‚ÄØAM to 8‚ÄØPM"
      },
      {
        "day": "Wednesday",
        "hours": "10‚ÄØAM to 8‚ÄØPM"
      },
      {
        "day": "Thursday",
        "hours": "10‚ÄØAM to 8‚ÄØPM"
      },
      {
        "day": "Friday",
        "hours": "10‚ÄØAM to 8‚ÄØPM"
      },
      {
        "day": "Saturday",
        "hours": "10‚ÄØAM to 8‚ÄØPM"
      },
      {
        "day": "Sunday",
        "hours": "10‚ÄØAM to 8‚ÄØPM"
      }
    ],
    "imageUrl": "https://media.indianluxurycars.com/google/b2e0cd677b60b5b9620cf54ca7dcc0110e4603558b0ff7b3722a659d03c58dc8.jpg",
    "url": "https://www.google.com/maps/search/?api=1&query=Mr%20Car%20(Naraina)&query_place_id=ChIJ38-lsDEDDTkRgsXKoPPxBqQ"
  },
  {
    "title": "Pannu Car Rentals Pvt.Ltd",
    "subTitle": "‡§™‡§®‡•ç‡§®‡•Ç ‡§ï‡§æ‡§∞ ‡§ï‡§ø‡§∞‡§æ‡§Ø‡•á ‡§™‡•ç‡§∞‡§æ‡•§ ‡§≤‡§ø‡§Æ‡§ø‡§ü‡•á‡§°",
    "categoryName": "Car rental agency",
    "address": "Shop No.5, Sector -4, DIZ Area, BKS Marg, Connaught Place, New Delhi, Delhi 110001, India",
    "neighborhood": "DIZ Staff Quarters, Connaught Place",
    "street": "Shop No.5, Sector -4, DIZ Area, BKS Marg, Connaught Place",
    "city": "New Delhi",
    "postalCode": "110001",
    "state": "Delhi",
    "countryCode": "IN",
    "website": "http://pannucarrental.com/",
    "phone": "+919818010389",
    "phoneUnformatted": "+919818010389",
    "location": {
      "lat": 28.6291821,
      "lng": 77.209655
    },
    "totalScore": 3.1,
    "permanentlyClosed": false,
    "temporarilyClosed": false,
    "placeId": "ChIJBWJYMkT9DDkRwx02mR2Xz0k",
    "categories": [
      "Car rental agency"
    ],
    "reviewsCount": 513,
    "imagesCount": 67,
    "openingHours": [
      {
        "day": "Monday",
        "hours": "Open 24 hours"
      },
      {
        "day": "Tuesday",
        "hours": "Open 24 hours"
      },
      {
        "day": "Wednesday",
        "hours": "Open 24 hours"
      },
      {
        "day": "Thursday",
        "hours": "Open 24 hours"
      },
      {
        "day": "Friday",
        "hours": "Open 24 hours"
      },
      {
        "day": "Saturday",
        "hours": "Open 24 hours"
      },
      {
        "day": "Sunday",
        "hours": "Open 24 hours"
      }
    ],
    "imageUrl": "https://media.indianluxurycars.com/google/94f62937bbf8d1d330a3ab9cc905ae7411db6741017e2657890f7099b1a1390c.jpg",
    "url": "https://www.google.com/maps/search/?api=1&query=Pannu%20Car%20Rentals%20Pvt.Ltd&query_place_id=ChIJBWJYMkT9DDkRwx02mR2Xz0k"
  },
  {
    "title": "Punia Traveleaze Pvt. Ltd.",
    "subTitle": "‡§™‡•Å‡§®‡§ø‡§Ø‡§æ ‡§ü‡•ç‡§∞‡•á‡§µ‡§≤‡•Ä‡§ú ‡§™‡•Ä‡§µ‡•Ä‡§ü‡•Ä. ‡§è‡§≤‡§ü‡•Ä‡§°‡•Ä.",
    "categoryName": "Car rental agency",
    "address": "IInd Floor, M-2, Main Market, M-Block, Greater Kailash, Part - 1, Greater Kailash, New Delhi, Delhi 110048, India",
    "neighborhood": "Main Market, M-Block, Greater Kailash, Part - 1, Greater Kailash",
    "street": "IInd Floor, M-2",
    "city": "New Delhi",
    "postalCode": "110048",
    "state": "Delhi",
    "countryCode": "IN",
    "phone": "+911126413730",
    "phoneUnformatted": "+911126413730",
    "location": {
      "lat": 28.548155,
      "lng": 77.240909
    },
    "totalScore": 4.7,
    "permanentlyClosed": false,
    "temporarilyClosed": false,
    "placeId": "ChIJMfT8Kc3jDDkR1ilb2QozKCc",
    "categories": [
      "Car rental agency"
    ],
    "reviewsCount": 37,
    "imagesCount": 2,
    "openingHours": [],
    "imageUrl": "https://media.indianluxurycars.com/google/d23b192b77da4f7aa2056793b8e81690598c2362ed50478710a84e1d37dd1cbe.jpg",
    "url": "https://www.google.com/maps/search/?api=1&query=Punia%20Traveleaze%20Pvt.%20Ltd.&query_place_id=ChIJMfT8Kc3jDDkR1ilb2QozKCc"
  },
  {
    "title": "ùêèùêîùêçùêàùêÄ ùêìùêëùêïùêãùêÑùêô ùêàùêçùêÉùêàùêÄ - Luxury car rentals in Delhi",
    "subTitle": "‡§§‡•ç‡§∞‡§µ‡§æ‡§≤‡•á‡§ú",
    "categoryName": "Car rental agency",
    "address": "M- 2, Greater Kailash-1, M Block, Greater Kailash I, Greater Kailash, New Delhi, Delhi 110048, India",
    "neighborhood": "Greater Kailash-1, M Block, Greater Kailash I, Greater Kailash",
    "street": "M- 2",
    "city": "New Delhi",
    "postalCode": "110048",
    "state": "Delhi",
    "countryCode": "IN",
    "website": "https://www.trvlez.in/",
    "phone": "+919999919396",
    "phoneUnformatted": "+919999919396",
    "location": {
      "lat": 28.5500037,
      "lng": 77.2338099
    },
    "totalScore": 5,
    "permanentlyClosed": false,
    "temporarilyClosed": false,
    "placeId": "ChIJOdpoX5TjDDkRBbvZv9N1F6s",
    "categories": [
      "Car rental agency",
      "Car dealer",
      "Car factory",
      "Chauffeur service",
      "Corporate office",
      "Motoring club",
      "Transcription service",
      "Transportation service",
      "Travel agency",
      "Wedding service"
    ],
    "reviewsCount": 1004,
    "imagesCount": 159,
    "openingHours": [
      {
        "day": "Monday",
        "hours": "Open 24 hours"
      },
      {
        "day": "Tuesday",
        "hours": "Open 24 hours"
      },
      {
        "day": "Wednesday",
        "hours": "Open 24 hours"
      },
      {
        "day": "Thursday",
        "hours": "Open 24 hours"
      },
      {
        "day": "Friday",
        "hours": "Open 24 hours"
      },
      {
        "day": "Saturday",
        "hours": "Open 24 hours"
      },
      {
        "day": "Sunday",
        "hours": "Open 24 hours"
      }
    ],
    "imageUrl": "https://media.indianluxurycars.com/google/5720d19fa46ae843dd83febfd16f7ea9df8d960bee25ea0d75efba9d81dd30ad.png",
    "url": "https://www.google.com/maps/search/?api=1&query=%F0%9D%90%8F%F0%9D%90%94%F0%9D%90%8D%F0%9D%90%88%F0%9D%90%80%20%F0%9D%90%93%F0%9D%90%91%F0%9D%90%95%F0%9D%90%8B%F0%9D%90%84%F0%9D%90%99%20%F0%9D%90%88%F0%9D%90%8D%F0%9D%90%83%F0%9D%90%88%F0%9D%90%80%20-%20Luxury%20car%20rentals%20in%20Delhi&query_place_id=ChIJOdpoX5TjDDkRBbvZv9N1F6s"
  },
  {
    "title": "Rally Motors",
    "subTitle": "‡§∞‡•à‡§≤‡•Ä ‡§Æ‡•ã‡§ü‡§∞‡•ç‡§∏",
    "categoryName": "Used car dealer",
    "address": "Rally Motors, Plot No. 541, Mehrauli-Gurgaon Road, D Block, Kapas Hera Estate, New Delhi, Delhi 110097, India",
    "neighborhood": "D Block, Kapas Hera Estate",
    "street": "Rally Motors, Plot No. 541, Mehrauli-Gurgaon Road",
    "city": "New Delhi",
    "postalCode": "110097",
    "state": "Delhi",
    "countryCode": "IN",
    "website": "http://www.rallymotors.co.in/",
    "phone": "+918290009000",
    "phoneUnformatted": "+918290009000",
    "location": {
      "lat": 28.5216146,
      "lng": 77.0977024
    },
    "totalScore": 4.4,
    "permanentlyClosed": false,
    "temporarilyClosed": false,
    "placeId": "ChIJSXQKDA8cDTkReqtpaC2PpJ8",
    "categories": [
      "Used car dealer"
    ],
    "reviewsCount": 82,
    "imagesCount": 46,
    "openingHours": [
      {
        "day": "Monday",
        "hours": "10‚ÄØAM to 8‚ÄØPM"
      },
      {
        "day": "Tuesday",
        "hours": "10‚ÄØAM to 8‚ÄØPM"
      },
      {
        "day": "Wednesday",
        "hours": "10‚ÄØAM to 8‚ÄØPM"
      },
      {
        "day": "Thursday",
        "hours": "10‚ÄØAM to 8‚ÄØPM"
      },
      {
        "day": "Friday",
        "hours": "10‚ÄØAM to 8‚ÄØPM"
      },
      {
        "day": "Saturday",
        "hours": "10‚ÄØAM to 8‚ÄØPM"
      },
      {
        "day": "Sunday",
        "hours": "10‚ÄØAM to 8‚ÄØPM"
      }
    ],
    "imageUrl": "https://media.indianluxurycars.com/google/14493763ea6d8b116c3fec6e931f41a67448f7f3af63eea844b87e671fac9e68.jpg",
    "url": "https://www.google.com/maps/search/?api=1&query=Rally%20Motors&query_place_id=ChIJSXQKDA8cDTkReqtpaC2PpJ8"
  },
  {
    "title": "Richie Rich Cars",
    "subTitle": "‡§∞‡§ø‡§ö‡•Ä ‡§∞‡§ø‡§ö ‡§ï‡§æ‡§∞‡•ç‡§∏",
    "categoryName": "Car dealer",
    "address": "D-15, South Extension II, Block D, New Delhi, Delhi 110049, India",
    "neighborhood": "South Extension II, Block D",
    "street": "D-15",
    "city": "New Delhi",
    "postalCode": "110049",
    "state": "Delhi",
    "countryCode": "IN",
    "phone": "+919773580777",
    "phoneUnformatted": "+919773580777",
    "location": {
      "lat": 28.568244,
      "lng": 77.2174791
    },
    "totalScore": 4.5,
    "permanentlyClosed": false,
    "temporarilyClosed": false,
    "placeId": "ChIJQc_wIsXjDDkRCFtQw2T0gA0",
    "categories": [
      "Car dealer"
    ],
    "reviewsCount": 2,
    "imagesCount": 30,
    "openingHours": [
      {
        "day": "Monday",
        "hours": "9‚ÄØAM to 7‚ÄØPM"
      },
      {
        "day": "Tuesday",
        "hours": "9‚ÄØAM to 7‚ÄØPM"
      },
      {
        "day": "Wednesday",
        "hours": "9‚ÄØAM to 7‚ÄØPM"
      },
      {
        "day": "Thursday",
        "hours": "9‚ÄØAM to 7‚ÄØPM"
      },
      {
        "day": "Friday",
        "hours": "9‚ÄØAM to 7‚ÄØPM"
      },
      {
        "day": "Saturday",
        "hours": "9‚ÄØAM to 7‚ÄØPM"
      },
      {
        "day": "Sunday",
        "hours": "9‚ÄØAM to 7‚ÄØPM"
      }
    ],
    "imageUrl": "https://media.indianluxurycars.com/google/be0d7b887783d1511864ed8f2eb9e0dc65fc53ad9dbe540f9a5b7383de531fa4.jpg",
    "url": "https://www.google.com/maps/search/?api=1&query=Richie%20Rich%20Cars&query_place_id=ChIJQc_wIsXjDDkRCFtQw2T0gA0"
  },
  {
    "title": "Rolls-Royce Motor Cars New Delhi",
    "subTitle": "‡§∞‡•ã‡§≤‡•ç‡§∏-‡§∞‡•â‡§Ø‡§∏ ‡§®‡•ç‡§Ø‡•Ç ‡§¶‡§ø‡§≤‡•ç‡§≤‡•Ä",
    "categoryName": "Rolls-Royce dealer",
    "address": "A19, Mathura Rd, Mohan Cooperative Industrial Estate, Saidabad, New Delhi, Delhi 110044, India",
    "neighborhood": "Mohan Cooperative Industrial Estate, Saidabad",
    "street": "A19, Mathura Rd",
    "city": "New Delhi",
    "postalCode": "110044",
    "state": "Delhi",
    "countryCode": "IN",
    "website": "http://www.rolls-roycemotorcars-newdelhi.in/",
    "phone": "+911144767555",
    "phoneUnformatted": "+911144767555",
    "location": {
      "lat": 28.5298278,
      "lng": 77.2872309
    },
    "totalScore": 4.5,
    "permanentlyClosed": false,
    "temporarilyClosed": false,
    "placeId": "ChIJOSJygkvnDDkRVb7MMLNDsKk",
    "categories": [
      "Rolls-Royce dealer",
      "Car dealer"
    ],
    "reviewsCount": 351,
    "imagesCount": 201,
    "openingHours": [
      {
        "day": "Monday",
        "hours": "10‚ÄØAM to 6:30‚ÄØPM"
      },
      {
        "day": "Tuesday",
        "hours": "10‚ÄØAM to 6:30‚ÄØPM"
      },
      {
        "day": "Wednesday",
        "hours": "10‚ÄØAM to 6:30‚ÄØPM"
      },
      {
        "day": "Thursday",
        "hours": "10‚ÄØAM to 6:30‚ÄØPM"
      },
      {
        "day": "Friday",
        "hours": "10‚ÄØAM to 6:30‚ÄØPM"
      },
      {
        "day": "Saturday",
        "hours": "9‚ÄØAM to 1‚ÄØPM"
      },
      {
        "day": "Sunday",
        "hours": "Closed"
      }
    ],
    "imageUrl": "https://media.indianluxurycars.com/google/12b059767b9b125756b61d0f5c25857c5cc5b345ee4a7887c1d18067560ac5a6.jpg",
    "url": "https://www.google.com/maps/search/?api=1&query=Rolls-Royce%20Motor%20Cars%20New%20Delhi&query_place_id=ChIJOSJygkvnDDkRVb7MMLNDsKk"
  },
  {
    "title": "Royal Street Cars",
    "subTitle": "‡§∞‡•â‡§Ø‡§≤ ‡§∏‡•ç‡§ü‡•ç‡§∞‡•Ä‡§ü ‡§ï‡§æ‡§∞‡•ç‡§∏",
    "categoryName": "Car dealer",
    "address": "G4F2+5PJ, Yawantika Colony, Rangpuri, New Delhi, Delhi 110038, India",
    "neighborhood": "Yawantika Colony, Rangpuri",
    "street": "G4F2+5PJ",
    "city": "New Delhi",
    "postalCode": "110038",
    "state": "Delhi",
    "countryCode": "IN",
    "location": {
      "lat": 28.5229636,
      "lng": 77.1017762
    },
    "totalScore": 4.7,
    "permanentlyClosed": false,
    "temporarilyClosed": false,
    "placeId": "ChIJx7GiZgAbDTkR8PvXdOpTXHU",
    "categories": [
      "Car dealer"
    ],
    "reviewsCount": 75,
    "imagesCount": 11,
    "openingHours": [
      {
        "day": "Monday",
        "hours": "11‚ÄØAM to 7:30‚ÄØPM"
      },
      {
        "day": "Tuesday",
        "hours": "11‚ÄØAM to 7:30‚ÄØPM"
      },
      {
        "day": "Wednesday",
        "hours": "11‚ÄØAM to 7:30‚ÄØPM"
      },
      {
        "day": "Thursday",
        "hours": "11‚ÄØAM to 7:30‚ÄØPM"
      },
      {
        "day": "Friday",
        "hours": "11‚ÄØAM to 7:30‚ÄØPM"
      },
      {
        "day": "Saturday",
        "hours": "11‚ÄØAM to 7:30‚ÄØPM"
      },
      {
        "day": "Sunday",
        "hours": "11‚ÄØAM to 7:30‚ÄØPM"
      }
    ],
    "imageUrl": "https://media.indianluxurycars.com/google/1f1ebbc821c195323739cc30bc7b1bf7907abcbae5abde7aadf9ca01d77eeb8c.jpg",
    "url": "https://www.google.com/maps/search/?api=1&query=Royal%20Street%20Cars&query_place_id=ChIJx7GiZgAbDTkR8PvXdOpTXHU"
  },
  {
    "title": "South Delhi Luxury Car Rental",
    "subTitle": "‡§∏‡§æ‡§â‡§• ‡§¶‡§ø‡§≤‡•ç‡§≤‡•Ä ‡§≤‡§ï‡•ç‡§ú‡§∞‡•Ä ‡§ï‡§æ‡§∞ ‡§∞‡•á‡§Ç‡§ü‡§≤",
    "categoryName": "Car rental agency",
    "address": "B-Block, near Ashoka Park, Zakir Bagh, Sarai Jullena, New Friends Colony, New Delhi, Delhi 110025, India",
    "neighborhood": "Zakir Bagh, Sarai Jullena, New Friends Colony",
    "street": "B-Block, near Ashoka Park",
    "city": "New Delhi",
    "postalCode": "110025",
    "state": "Delhi",
    "countryCode": "IN",
    "location": {
      "lat": 28.560833,
      "lng": 77.2699661
    },
    "permanentlyClosed": false,
    "temporarilyClosed": false,
    "placeId": "ChIJ6U8tXZPjDDkR8mpODY2PnNs",
    "categories": [
      "Car rental agency"
    ],
    "imagesCount": 1,
    "openingHours": [],
    "imageUrl": "https://media.indianluxurycars.com/google/ef3c23b118043be51155d37b70538b9fc4a3f66053e7ca7e41edac791ecfedbf.jpg",
    "url": "https://www.google.com/maps/search/?api=1&query=South%20Delhi%20Luxury%20Car%20Rental&query_place_id=ChIJ6U8tXZPjDDkR8mpODY2PnNs"
  },
  {
    "title": "Swamy Motors",
    "subTitle": "‡§∏‡•ç‡§µ‡§æ‡§Æ‡•Ä ‡§Æ‡•ã‡§ü‡§∞‡•ç‡§∏",
    "categoryName": "Used car dealer",
    "address": "181, Defence Colony Flyover, Block M, Jungpura Extension, Defence Colony, New Delhi, Delhi 110024, India",
    "neighborhood": "Block M, Jungpura Extension, Defence Colony",
    "street": "181, Defence Colony Flyover",
    "city": "New Delhi",
    "postalCode": "110024",
    "state": "Delhi",
    "countryCode": "IN",
    "phone": "+919811466679",
    "phoneUnformatted": "+919811466679",
    "location": {
      "lat": 28.5801894,
      "lng": 77.238514
    },
    "totalScore": 4,
    "permanentlyClosed": false,
    "temporarilyClosed": false,
    "placeId": "ChIJhVNIlP_iDDkRH_GjS5CKFEI",
    "categories": [
      "Used car dealer"
    ],
    "reviewsCount": 22,
    "imagesCount": 24,
    "openingHours": [
      {
        "day": "Monday",
        "hours": "10‚ÄØAM to 7:30‚ÄØPM"
      },
      {
        "day": "Tuesday",
        "hours": "10‚ÄØAM to 7:30‚ÄØPM"
      },
      {
        "day": "Wednesday",
        "hours": "10‚ÄØAM to 7:30‚ÄØPM"
      },
      {
        "day": "Thursday",
        "hours": "10‚ÄØAM to 7:30‚ÄØPM"
      },
      {
        "day": "Friday",
        "hours": "10‚ÄØAM to 7:30‚ÄØPM"
      },
      {
        "day": "Saturday",
        "hours": "10‚ÄØAM to 7:30‚ÄØPM"
      },
      {
        "day": "Sunday",
        "hours": "Closed"
      }
    ],
    "imageUrl": "https://media.indianluxurycars.com/google/8589974865bac0cefd0051ff6177908d75c7ec55d1f2c24050cdcaa5410b6b09.jpg",
    "url": "https://www.google.com/maps/search/?api=1&query=Swamy%20Motors&query_place_id=ChIJhVNIlP_iDDkRH_GjS5CKFEI"
  },
  {
    "title": "United Cars",
    "subTitle": "‡§Ø‡•Ç‡§®‡§æ‡§á‡§ü‡•á‡§° ‡§ï‡§æ‡§∞‡•á‡§Ç",
    "categoryName": "Used car dealer",
    "address": "nehru apartment, K1/69, Road, opposite South park apartments, near B Block Road, Gurudwara, Chittaranjan Park, New Delhi, Delhi 110019, India",
    "neighborhood": "Gurudwara, Chittaranjan Park",
    "street": "nehru apartment, K1/69, Road, opposite South park apartments, near B Block Road",
    "city": "New Delhi",
    "postalCode": "110019",
    "state": "Delhi",
    "countryCode": "IN",
    "website": "https://unitedcarsindia.com/",
    "phone": "+919999986757",
    "phoneUnformatted": "+919999986757",
    "location": {
      "lat": 28.5401613,
      "lng": 77.2507706
    },
    "totalScore": 4.9,
    "permanentlyClosed": false,
    "temporarilyClosed": false,
    "placeId": "ChIJURtyztDjDDkRX7aR7NvMdRg",
    "categories": [
      "Used car dealer"
    ],
    "reviewsCount": 603,
    "imagesCount": 1073,
    "openingHours": [
      {
        "day": "Monday",
        "hours": "11‚ÄØAM to 8‚ÄØPM"
      },
      {
        "day": "Tuesday",
        "hours": "11‚ÄØAM to 8‚ÄØPM"
      },
      {
        "day": "Wednesday",
        "hours": "11‚ÄØAM to 8‚ÄØPM"
      },
      {
        "day": "Thursday",
        "hours": "11‚ÄØAM to 8‚ÄØPM"
      },
      {
        "day": "Friday",
        "hours": "11‚ÄØAM to 8‚ÄØPM"
      },
      {
        "day": "Saturday",
        "hours": "11‚ÄØAM to 8‚ÄØPM"
      },
      {
        "day": "Sunday",
        "hours": "11‚ÄØAM to 8‚ÄØPM"
      }
    ],
    "imageUrl": "https://media.indianluxurycars.com/google/fea2df133872eca80275c57b9da94a1268a3420bb0c24768daa9d6d3b76593ba.jpg",
    "url": "https://www.google.com/maps/search/?api=1&query=United%20Cars&query_place_id=ChIJURtyztDjDDkRX7aR7NvMdRg"
  },
  {
    "title": "Vintage Auto",
    "subTitle": "‡§µ‡§ø‡§Ç‡§ü‡•á‡§ú ‡§ë‡§ü‡•ã",
    "categoryName": "Smart Car dealer",
    "address": "Shop No.M-5, Palika Bhawan, Block B, Sector 13, Rama Krishna Puram, New Delhi, Delhi 110066, India",
    "neighborhood": "Block B, Sector 13, Rama Krishna Puram",
    "street": "Shop No.M-5, Palika Bhawan",
    "city": "New Delhi",
    "postalCode": "110066",
    "state": "Delhi",
    "countryCode": "IN",
    "phone": "+919810890222",
    "phoneUnformatted": "+919810890222",
    "location": {
      "lat": 28.5711241,
      "lng": 77.1839397
    },
    "totalScore": 4.2,
    "permanentlyClosed": false,
    "temporarilyClosed": false,
    "placeId": "ChIJm_BkIYMdDTkRgiJDbg5XUFw",
    "categories": [
      "Smart Car dealer"
    ],
    "reviewsCount": 10,
    "imagesCount": 11,
    "openingHours": [
      {
        "day": "Monday",
        "hours": "10‚ÄØAM to 9‚ÄØPM"
      },
      {
        "day": "Tuesday",
        "hours": "10‚ÄØAM to 9‚ÄØPM"
      },
      {
        "day": "Wednesday",
        "hours": "10‚ÄØAM to 9‚ÄØPM"
      },
      {
        "day": "Thursday",
        "hours": "10‚ÄØAM to 9‚ÄØPM"
      },
      {
        "day": "Friday",
        "hours": "10‚ÄØAM to 9‚ÄØPM"
      },
      {
        "day": "Saturday",
        "hours": "10‚ÄØAM to 9‚ÄØPM"
      },
      {
        "day": "Sunday",
        "hours": "10‚ÄØAM to 9‚ÄØPM"
      }
    ],
    "imageUrl": "https://media.indianluxurycars.com/google/8be08dbda7243d1bf4e0fc1427a41434b7f8e00916717ef44118c852b0c6538c.jpg",
    "url": "https://www.google.com/maps/search/?api=1&query=Vintage%20Auto&query_place_id=ChIJm_BkIYMdDTkRgiJDbg5XUFw"
  },
  {
    "title": "You Drive Me Crazy",
    "subTitle": "‡§Ø‡•Ç ‡§°‡•ç‡§∞‡§æ‡§á‡§µ ‡§Æ‡•á‡§Ç ‡§ï‡•ç‡§∞‡•á‡§ú‡§º‡•Ä",
    "categoryName": "Car dealer",
    "address": "Khasra number 30//7, VPO kapashera near rajokri roundabout, Rajokri, New Delhi, Delhi 110097, India",
    "neighborhood": "D Block, Rajokri",
    "street": "Khasra number 30//7, VPO kapashera near rajokri roundabout",
    "city": "New Delhi",
    "postalCode": "110097",
    "state": "Delhi",
    "countryCode": "IN",
    "website": "http://youdrivemecrazy.in/",
    "phone": "+919560003717",
    "phoneUnformatted": "+919560003717",
    "location": {
      "lat": 28.5217026,
      "lng": 77.097958
    },
    "totalScore": 4.9,
    "permanentlyClosed": false,
    "temporarilyClosed": false,
    "placeId": "ChIJvVMmxFMZDTkRVDDwLcjhwnQ",
    "categories": [
      "Car dealer"
    ],
    "reviewsCount": 106,
    "imagesCount": 1109,
    "openingHours": [
      {
        "day": "Monday",
        "hours": "11‚ÄØAM to 8‚ÄØPM"
      },
      {
        "day": "Tuesday",
        "hours": "11‚ÄØAM to 8‚ÄØPM"
      },
      {
        "day": "Wednesday",
        "hours": "11‚ÄØAM to 8‚ÄØPM"
      },
      {
        "day": "Thursday",
        "hours": "11‚ÄØAM to 8‚ÄØPM"
      },
      {
        "day": "Friday",
        "hours": "11‚ÄØAM to 8‚ÄØPM"
      },
      {
        "day": "Saturday",
        "hours": "11‚ÄØAM to 8‚ÄØPM"
      },
      {
        "day": "Sunday",
        "hours": "11‚ÄØAM to 8‚ÄØPM"
      }
    ],
    "imageUrl": "https://media.indianluxurycars.com/google/20adb5aafa47b1362854f6e8d660f79ec09f739ae63e61c67bf699ad13aff571.jpg",
    "url": "https://www.google.com/maps/search/?api=1&query=You%20Drive%20Me%20Crazy&query_place_id=ChIJvVMmxFMZDTkRVDDwLcjhwnQ"
  }
]
