[
  {
    "title": "KK Travels",
    "subTitle": "கே.கே. டிராவல்ஸ்",
    "categoryName": "Car rental agency",
    "address": "2 FLOOR, 96, Chinnasamy Naidu Rd, near AYYAPAN TEMPLE, Siddhapudur, New Siddhapudur, Coimbatore, Tamil Nadu 641044, India",
    "neighborhood": "Siddhapudur",
    "street": "2 FLOOR, 96, Chinnasamy Naidu Rd, near AYYAPAN TEMPLE",
    "city": "New Siddhapudur, Coimbatore",
    "postalCode": "641044",
    "state": "Tamil Nadu",
    "countryCode": "IN",
    "phone": "+919842220999",
    "phoneUnformatted": "+919842220999",
    "location": {
      "lat": 11.0209802,
      "lng": 76.9736045
    },
    "totalScore": 4.7,
    "permanentlyClosed": false,
    "temporarilyClosed": false,
    "placeId": "ChIJS38l2vP3qDsRAp-6S86F4X0",
    "categories": [
      "Car rental agency",
      "Travel agency"
    ],
    "reviewsCount": 24,
    "imagesCount": 3,
    "openingHours": [
      {
        "day": "Monday",
        "hours": "Open 24 hours"
      },
      {
        "day": "Tuesday",
        "hours": "Open 24 hours"
      },
      {
        "day": "Wednesday",
        "hours": "Open 24 hours"
      },
      {
        "day": "Thursday",
        "hours": "Open 24 hours"
      },
      {
        "day": "Friday",
        "hours": "Open 24 hours"
      },
      {
        "day": "Saturday",
        "hours": "Open 24 hours"
      },
      {
        "day": "Sunday",
        "hours": "Open 24 hours"
      }
    ],
    "imageUrl": "https://media.indianluxurycars.com/google/9f6aab4dd469228f0f7994dad283744a257d8788b848200428a213504d91235c.jpg",
    "url": "https://www.google.com/maps/search/?api=1&query=KK%20Travels&query_place_id=ChIJS38l2vP3qDsRAp-6S86F4X0"
  },
  {
    "title": "Super Cars",
    "subTitle": "சூப்பர் கார்ஸ்",
    "categoryName": "Used car dealer",
    "address": "37/59, Avaram Palayam Rd, near Damodar Mansion, Balaji Nagar, New Siddhapudur, Coimbatore, Tamil Nadu 641044, India",
    "neighborhood": "Balaji Nagar",
    "street": "37/59, Avaram Palayam Rd, near Damodar Mansion",
    "city": "New Siddhapudur, Coimbatore",
    "postalCode": "641044",
    "state": "Tamil Nadu",
    "countryCode": "IN",
    "website": "https://www.facebook.com/Super-cars-806912979360357/",
    "phone": "+919092266666",
    "phoneUnformatted": "+919092266666",
    "location": {
      "lat": 11.0232502,
      "lng": 76.9802089
    },
    "totalScore": 4.7,
    "permanentlyClosed": false,
    "temporarilyClosed": false,
    "placeId": "ChIJuxiz0TdYqDsR9PZLH1jzcuc",
    "categories": [
      "Used car dealer"
    ],
    "reviewsCount": 72,
    "imagesCount": 362,
    "openingHours": [
      {
        "day": "Monday",
        "hours": "9 AM to 7 PM"
      },
      {
        "day": "Tuesday",
        "hours": "9 AM to 7 PM"
      },
      {
        "day": "Wednesday",
        "hours": "9 AM to 7 PM"
      },
      {
        "day": "Thursday",
        "hours": "9 AM to 7 PM"
      },
      {
        "day": "Friday",
        "hours": "9 AM to 7 PM"
      },
      {
        "day": "Saturday",
        "hours": "9 AM to 7 PM"
      },
      {
        "day": "Sunday",
        "hours": "10 AM to 6:45 PM"
      }
    ],
    "imageUrl": "https://media.indianluxurycars.com/google/85d36cf15a9987c6fec77b2da13b7aa206b63802ddf25ee9cc914004dd7de996.jpg",
    "url": "https://www.google.com/maps/search/?api=1&query=Super%20Cars&query_place_id=ChIJuxiz0TdYqDsR9PZLH1jzcuc"
  },
  {
    "title": "Velocity transports",
    "categoryName": "Car leasing service",
    "address": "230, Venkatasamy Rd, Siddhapudur, New Siddhapudur, Coimbatore, Tamil Nadu 641044, India",
    "neighborhood": "Siddhapudur",
    "street": "230, Venkatasamy Rd",
    "city": "New Siddhapudur, Coimbatore",
    "postalCode": "641044",
    "state": "Tamil Nadu",
    "countryCode": "IN",
    "website": "http://www.velocitytransports.in/",
    "phone": "+918190070070",
    "phoneUnformatted": "+918190070070",
    "location": {
      "lat": 11.0202849,
      "lng": 76.973442
    },
    "totalScore": 5,
    "permanentlyClosed": false,
    "temporarilyClosed": false,
    "placeId": "ChIJ9z9iagBZqDsR_6p1dAK2iHA",
    "categories": [
      "Car leasing service",
      "Travel agency",
      "Tour operator"
    ],
    "reviewsCount": 22,
    "imagesCount": 47,
    "openingHours": [
      {
        "day": "Monday",
        "hours": "Open 24 hours"
      },
      {
        "day": "Tuesday",
        "hours": "Open 24 hours"
      },
      {
        "day": "Wednesday",
        "hours": "Open 24 hours"
      },
      {
        "day": "Thursday",
        "hours": "Open 24 hours"
      },
      {
        "day": "Friday",
        "hours": "Open 24 hours"
      },
      {
        "day": "Saturday",
        "hours": "Open 24 hours"
      },
      {
        "day": "Sunday",
        "hours": "Open 24 hours"
      }
    ],
    "imageUrl": "https://media.indianluxurycars.com/google/1ab0387df0afad6330c287ec68f991be4c4d6bae53b9ccd3d24e83b49a57b46d.png",
    "url": "https://www.google.com/maps/search/?api=1&query=Velocity%20transports&query_place_id=ChIJ9z9iagBZqDsR_6p1dAK2iHA"
  }
]
