[
  {
    "title": "Happy Journey - Best Taxi Service in Noida | Local Cab Service in Noida",
    "subTitle": "हैप्पी जर्नी - बेस्ट टैक्सी सर्विस इन नोएडा | लोकल कैब सर्विस इन नोएडा",
    "categoryName": "Car leasing service",
    "address": "Entry Gate, Mahadev Apartment, flate no - 52A Block-13, Street Number 1, Sector 73, Noida, Uttar Pradesh 201316, India",
    "neighborhood": "Sector 73",
    "street": "Entry Gate, Mahadev Apartment, flate no - 52A Block-13, Street Number 1",
    "city": "Noida, Basi Bahuddin Nagar",
    "postalCode": "201316",
    "state": "Uttar Pradesh",
    "countryCode": "IN",
    "website": "http://www.happyjourneytaxiservice.com/",
    "phone": "+919999165080",
    "phoneUnformatted": "+919999165080",
    "location": {
      "lat": 28.591723,
      "lng": 77.3862238
    },
    "totalScore": 4.7,
    "permanentlyClosed": false,
    "temporarilyClosed": false,
    "placeId": "ChIJU_ENhOXlDDkRc_xVZMlPAxM",
    "categories": [
      "Car leasing service",
      "Taxi service"
    ],
    "reviewsCount": 242,
    "imagesCount": 791,
    "openingHours": [],
    "imageUrl": "https://media.indianluxurycars.com/google/d3b9a13235d329a76604c87b92f551a691fc5bd67e1a6946c1ca25ab2a1bda12.jpg",
    "url": "https://www.google.com/maps/search/?api=1&query=Happy%20Journey%20-%20Best%20Taxi%20Service%20in%20Noida%20%7C%20Local%20Cab%20Service%20in%20Noida&query_place_id=ChIJU_ENhOXlDDkRc_xVZMlPAxM"
  },
  {
    "title": "Prince car care",
    "subTitle": "प्रिंस कार केयर",
    "categoryName": "Auto repair shop",
    "address": "shop.4, Sadbhawna market, opp. CLEO COUNTY, Sector 121, Noida, Basi Bahuddin Nagar, Uttar Pradesh 201316, India",
    "neighborhood": "Sector 121",
    "street": "shop.4, Sadbhawna market, opp. CLEO COUNTY",
    "city": "Noida, Basi Bahuddin Nagar",
    "postalCode": "201316",
    "state": "Uttar Pradesh",
    "countryCode": "IN",
    "website": "http://princecarcare.in/",
    "phone": "+919105165826",
    "phoneUnformatted": "+919105165826",
    "location": {
      "lat": 28.5994915,
      "lng": 77.391243
    },
    "totalScore": 4.7,
    "permanentlyClosed": false,
    "temporarilyClosed": false,
    "placeId": "ChIJ6bApkhnvDDkRJ7IBfzf3QvQ",
    "categories": [
      "Auto repair shop",
      "Auto body shop",
      "Auto painting",
      "Auto parts store",
      "Auto radiator repair service",
      "Car dealer",
      "Car wash"
    ],
    "reviewsCount": 32,
    "imagesCount": 75,
    "openingHours": [
      {
        "day": "Monday",
        "hours": "Open 24 hours"
      },
      {
        "day": "Tuesday",
        "hours": "Open 24 hours"
      },
      {
        "day": "Wednesday",
        "hours": "Open 24 hours"
      },
      {
        "day": "Thursday",
        "hours": "Open 24 hours"
      },
      {
        "day": "Friday",
        "hours": "Open 24 hours"
      },
      {
        "day": "Saturday",
        "hours": "Open 24 hours"
      },
      {
        "day": "Sunday",
        "hours": "Open 24 hours"
      }
    ],
    "imageUrl": "https://media.indianluxurycars.com/google/bd6b3aa3f507640c43d6651811e4e23c2a598c623e179e5da186958a77604282.jpg",
    "url": "https://www.google.com/maps/search/?api=1&query=Prince%20car%20care&query_place_id=ChIJ6bApkhnvDDkRJ7IBfzf3QvQ"
  },
  {
    "title": "YATRA Tour & Travels",
    "subTitle": "यात्रा टूर & ट्रैवल्स",
    "categoryName": "Car rental agency",
    "address": "Chaukhandi, Noida, Basi Bahuddin Nagar, Uttar Pradesh 201316, India",
    "neighborhood": "Chaukhandi",
    "city": "Noida, Basi Bahuddin Nagar",
    "postalCode": "201316",
    "state": "Uttar Pradesh",
    "countryCode": "IN",
    "phone": "+919811129942",
    "phoneUnformatted": "+919811129942",
    "location": {
      "lat": 28.6013124,
      "lng": 77.3936473
    },
    "permanentlyClosed": false,
    "temporarilyClosed": false,
    "placeId": "ChIJBTaa8Z7vDDkR27fjjDVPx8k",
    "categories": [
      "Car rental agency",
      "Car leasing service",
      "Taxi service",
      "Train ticket office",
      "Transportation service",
      "Travel agency"
    ],
    "imagesCount": 13,
    "openingHours": [],
    "imageUrl": "https://media.indianluxurycars.com/google/0da10e6233407533d4137844242606a7a02ede04a2856537e0cd89ede575f94c.jpg",
    "url": "https://www.google.com/maps/search/?api=1&query=YATRA%20Tour%20%26%20Travels&query_place_id=ChIJBTaa8Z7vDDkR27fjjDVPx8k"
  }
]
