[
  {
    "title": "A to z motor",
    "subTitle": "‡§è ‡§§‡•ã ‡§ú‡§º‡•Ä ‡§Æ‡•ã‡§ü‡§∞",
    "categoryName": "Car accessories store",
    "address": "near pizza relations, Gejha, Sector 93, Noida, Uttar Pradesh 201304, India",
    "neighborhood": "Gejha, Sector 93",
    "street": "near pizza relations",
    "city": "Noida",
    "postalCode": "201304",
    "state": "Uttar Pradesh",
    "countryCode": "IN",
    "website": "http://atozmotor.com.in/",
    "phone": "+918585939355",
    "phoneUnformatted": "+918585939355",
    "location": {
      "lat": 28.5262766,
      "lng": 77.3878931
    },
    "totalScore": 4.8,
    "permanentlyClosed": false,
    "temporarilyClosed": false,
    "placeId": "ChIJ7WtBaLHpDDkR6UHYcBT0l3E",
    "categories": [
      "Car accessories store",
      "Auto air conditioning service",
      "Auto dent removal service",
      "Auto electrical service",
      "Auto painting",
      "Auto repair shop",
      "Auto window tinting service",
      "Car repair and maintenance service",
      "Car wash",
      "Mechanic",
      "Oil change service"
    ],
    "reviewsCount": 305,
    "imagesCount": 244,
    "openingHours": [
      {
        "day": "Monday",
        "hours": "8:30‚ÄØAM to 10‚ÄØPM"
      },
      {
        "day": "Tuesday",
        "hours": "8:30‚ÄØAM to 10‚ÄØPM"
      },
      {
        "day": "Wednesday",
        "hours": "8:30‚ÄØAM to 10‚ÄØPM"
      },
      {
        "day": "Thursday",
        "hours": "8:30‚ÄØAM to 10‚ÄØPM"
      },
      {
        "day": "Friday",
        "hours": "8:30‚ÄØAM to 10‚ÄØPM"
      },
      {
        "day": "Saturday",
        "hours": "8:30‚ÄØAM to 10‚ÄØPM"
      },
      {
        "day": "Sunday",
        "hours": "8:30‚ÄØAM to 10‚ÄØPM"
      }
    ],
    "imageUrl": "https://lh3.googleusercontent.com/p/AF1QipNedWfxuhdTywRvaJqd4cAmNulLdy7V40_mnSIZ=w408-h725-k-no",
    "url": "https://www.google.com/maps/search/?api=1&query=A%20to%20z%20motor&query_place_id=ChIJ7WtBaLHpDDkR6UHYcBT0l3E"
  },
  {
    "title": "Aksh Cars & Properties",
    "subTitle": "‡§Ö‡§ï‡•ç‡§∑ ‡§ï‡§æ‡§∞‡•ç‡§∏ & ‡§™‡•ç‡§∞‡•ã‡§™‡§∞‡•ç‡§ü‡•Ä‡§ú",
    "categoryName": "Car dealer",
    "address": "Khora Colony, Sector 62A, Noida, Uttar Pradesh 201020, India",
    "neighborhood": "Khora Colony, Sector 62A",
    "city": "Noida",
    "state": "Uttar Pradesh",
    "countryCode": "IN",
    "phone": "+919999802345",
    "phoneUnformatted": "+919999802345",
    "location": {
      "lat": 28.6255096,
      "lng": 77.3528357
    },
    "totalScore": 3,
    "permanentlyClosed": false,
    "temporarilyClosed": false,
    "placeId": "ChIJWwa6nDflDDkR9Z4e774vNc0",
    "categories": [
      "Car dealer"
    ],
    "reviewsCount": 2,
    "imagesCount": 1,
    "openingHours": [],
    "imageUrl": "https://streetviewpixels-pa.googleapis.com/v1/thumbnail?panoid=jqOAZE-cLmGoRSR8VWP3Ag&cb_client=search.gws-prod.gps&w=408&h=240&yaw=321.9972&pitch=0&thumbfov=100",
    "url": "https://www.google.com/maps/search/?api=1&query=Aksh%20Cars%20%26%20Properties&query_place_id=ChIJWwa6nDflDDkR9Z4e774vNc0"
  },
  {
    "title": "Allied Kia - Noida Showroom",
    "subTitle": "‡§ï‡§ø‡§Ü - ‡§Ö‡§≤‡§æ‡§á‡§° ‡§Æ‡•ã‡§ü‡§∞‡•ç‡§∏",
    "categoryName": "Car dealer",
    "address": "No A, 10, near Taksal Road, A Block, Sector 6, Noida, Uttar Pradesh 201301, India",
    "neighborhood": "A Block, Sector 6",
    "street": "No A, 10, near Taksal Road",
    "city": "Noida",
    "postalCode": "201301",
    "state": "Uttar Pradesh",
    "countryCode": "IN",
    "website": "https://kiaindia-dealers.com/kia-car-showroom-allied-kia-sector-6-allied-kia-car-dealer-sector-6-noida-344949/Home?utm_source=locator&utm_medium=googleplaces",
    "phone": "+919899476666",
    "phoneUnformatted": "+919899476666",
    "location": {
      "lat": 28.5910195,
      "lng": 77.3149365
    },
    "totalScore": 4.1,
    "permanentlyClosed": false,
    "temporarilyClosed": false,
    "placeId": "ChIJF_Zd5fPlDDkRJx4ZEMV72sY",
    "categories": [
      "Car dealer",
      "Auto parts store",
      "Car accessories store",
      "Electric vehicle charging station",
      "Kia dealer"
    ],
    "reviewsCount": 2198,
    "imagesCount": 571,
    "openingHours": [
      {
        "day": "Monday",
        "hours": "9:30‚ÄØAM to 6:30‚ÄØPM"
      },
      {
        "day": "Tuesday",
        "hours": "9:30‚ÄØAM to 6:30‚ÄØPM"
      },
      {
        "day": "Wednesday",
        "hours": "9:30‚ÄØAM to 6:30‚ÄØPM"
      },
      {
        "day": "Thursday",
        "hours": "9:30‚ÄØAM to 6:30‚ÄØPM"
      },
      {
        "day": "Friday",
        "hours": "9:30‚ÄØAM to 6:30‚ÄØPM"
      },
      {
        "day": "Saturday",
        "hours": "9:30‚ÄØAM to 6:30‚ÄØPM"
      },
      {
        "day": "Sunday",
        "hours": "9:30‚ÄØAM to 6:30‚ÄØPM"
      }
    ],
    "imageUrl": "https://lh3.googleusercontent.com/gps-cs-s/AG0ilSxDtL7IDl9mzQS2wt1lFFk_95mzMar8eL0ie78aEWv7HrpJnilwCOMyU52uMCFiLlH2LZXmx9cMQZfeLuLL2jveERph7CV7IwxRJSW3TWDJ3YY4tN1kUcDA_pfDFKAN8sjuTPM=w408-h306-k-no",
    "url": "https://www.google.com/maps/search/?api=1&query=Allied%20Kia%20-%20Noida%20Showroom&query_place_id=ChIJF_Zd5fPlDDkRJx4ZEMV72sY"
  },
  {
    "title": "Autoform Brand store Car Plus, Noida",
    "subTitle": "‡§ë‡§ü‡•ã‡§´‡•ã‡§∞‡•ç‡§Æ ‡§¨‡•ç‡§∞‡§æ‡§Ç‡§° ‡§∏‡•ç‡§ü‡•ã‡§∞ ‡§ï‡§æ‡§∞ ‡§™‡•ç‡§≤‡§∏, ‡§®‡•ã‡§è‡§°‡§æ",
    "categoryName": "Car accessories store",
    "address": "B-219, Central Auto Market, Block B, Sector 16, Noida, Uttar Pradesh 201301, India",
    "neighborhood": "Central Auto Market, Block B, Sector 16",
    "street": "B-219",
    "city": "Noida",
    "postalCode": "201301",
    "state": "Uttar Pradesh",
    "countryCode": "IN",
    "phone": "+919810046085",
    "phoneUnformatted": "+919810046085",
    "location": {
      "lat": 28.5777062,
      "lng": 77.3172957
    },
    "totalScore": 4.9,
    "permanentlyClosed": false,
    "temporarilyClosed": false,
    "placeId": "ChIJGZcpUlHlDDkRzU12g7rORDY",
    "categories": [
      "Car accessories store"
    ],
    "reviewsCount": 2186,
    "imagesCount": 1539,
    "openingHours": [
      {
        "day": "Monday",
        "hours": "Closed"
      },
      {
        "day": "Tuesday",
        "hours": "10:30‚ÄØAM to 8:30‚ÄØPM"
      },
      {
        "day": "Wednesday",
        "hours": "10:30‚ÄØAM to 8:30‚ÄØPM"
      },
      {
        "day": "Thursday",
        "hours": "10:30‚ÄØAM to 8:30‚ÄØPM"
      },
      {
        "day": "Friday",
        "hours": "10:30‚ÄØAM to 8:30‚ÄØPM"
      },
      {
        "day": "Saturday",
        "hours": "10:30‚ÄØAM to 8:30‚ÄØPM"
      },
      {
        "day": "Sunday",
        "hours": "10:30‚ÄØAM to 8:30‚ÄØPM"
      }
    ],
    "imageUrl": "https://lh3.googleusercontent.com/gps-cs-s/AG0ilSwIsy0ED2RKH4sk8qSYWWowSu9O7HfpfHBUQwUIX38UuSX9NL0sv2jyNG496zK9rzakZ9dEB7O7y4IM52f_jlNfCAwAJSqAs4Wk7u8-7cN3-vIyMO4d0gxeCDTtC5QZcsdXp_I9=w408-h544-k-no",
    "url": "https://www.google.com/maps/search/?api=1&query=Autoform%20Brand%20store%20Car%20Plus%2C%20Noida&query_place_id=ChIJGZcpUlHlDDkRzU12g7rORDY"
  },
  {
    "title": "Bizupon India- Luxury Used Car Exporter",
    "subTitle": "‡§¨‡§ø‡§ú‡§º‡•Ç‡§™‡•ã‡§Ç ‡§á‡§Ç‡§°‡§ø‡§Ø‡§æ- ‡§≤‡§ï‡•ç‡§ú‡§∞‡•Ä ‡§Ø‡•Ç‡§ú‡•ç‡§° ‡§ï‡§æ‡§∞ ‡§è‡§ï‡•ç‡§∏‡§™‡•ã‡§∞‡•ç‡§ü‡§∞",
    "categoryName": "Used car dealer",
    "address": "125A, 2nd Floor, C Block, Sector 2, Noida, Uttar Pradesh 201301, India",
    "neighborhood": "C Block, Sector 2",
    "street": "125A, 2nd Floor",
    "city": "Noida",
    "postalCode": "201301",
    "state": "Uttar Pradesh",
    "countryCode": "IN",
    "website": "https://www.bizupon.com/",
    "location": {
      "lat": 28.584289,
      "lng": 77.316541
    },
    "totalScore": 5,
    "permanentlyClosed": false,
    "temporarilyClosed": false,
    "placeId": "ChIJhacCYRHrDmERBCBgUI_RPkI",
    "categories": [
      "Used car dealer"
    ],
    "reviewsCount": 2,
    "imagesCount": 6,
    "openingHours": [
      {
        "day": "Monday",
        "hours": "4‚ÄØAM to 10‚ÄØPM"
      },
      {
        "day": "Tuesday",
        "hours": "4‚ÄØAM to 10‚ÄØPM"
      },
      {
        "day": "Wednesday",
        "hours": "4‚ÄØAM to 10‚ÄØPM"
      },
      {
        "day": "Thursday",
        "hours": "4‚ÄØAM to 10‚ÄØPM"
      },
      {
        "day": "Friday",
        "hours": "4‚ÄØAM to 10‚ÄØPM"
      },
      {
        "day": "Saturday",
        "hours": "4‚ÄØAM to 10‚ÄØPM"
      },
      {
        "day": "Sunday",
        "hours": "Closed"
      }
    ],
    "imageUrl": "https://streetviewpixels-pa.googleapis.com/v1/thumbnail?panoid=ezrOJV_DsI1iHnMElcYwvA&cb_client=search.gws-prod.gps&w=408&h=240&yaw=240.08955&pitch=0&thumbfov=100",
    "url": "https://www.google.com/maps/search/?api=1&query=Bizupon%20India-%20Luxury%20Used%20Car%20Exporter&query_place_id=ChIJhacCYRHrDmERBCBgUI_RPkI"
  },
  {
    "title": "BMW Deutsche Motoren | Noida",
    "subTitle": "‡§¨‡•Ä‡§è‡§Æ‡§°‡§¨‡•ç‡§≤‡•Ç ‡§°‡•ç‡§Ø‡•Ç‡§∂ ‡§Æ‡•ã‡§ü‡§∞‡•ã‡§Ç | ‡§®‡•ã‡§è‡§°‡§æ",
    "categoryName": "BMW dealer",
    "address": "H Block, Sector 63, Noida, Uttar Pradesh 201309, India",
    "neighborhood": "H Block, Sector 63",
    "city": "Noida",
    "postalCode": "201309",
    "state": "Uttar Pradesh",
    "countryCode": "IN",
    "website": "https://www.bmw-deutschemotoren.in/",
    "phone": "+918377006677",
    "phoneUnformatted": "+918377006677",
    "location": {
      "lat": 28.6310904,
      "lng": 77.3802773
    },
    "totalScore": 4.2,
    "permanentlyClosed": false,
    "temporarilyClosed": false,
    "placeId": "ChIJW9877_jvDDkRb7nIlqwCex4",
    "categories": [
      "BMW dealer",
      "Car dealer",
      "Car repair and maintenance service",
      "Used car dealer"
    ],
    "reviewsCount": 624,
    "imagesCount": 267,
    "openingHours": [
      {
        "day": "Monday",
        "hours": "9:30‚ÄØAM to 8‚ÄØPM"
      },
      {
        "day": "Tuesday",
        "hours": "9:30‚ÄØAM to 8‚ÄØPM"
      },
      {
        "day": "Wednesday",
        "hours": "9:30‚ÄØAM to 8‚ÄØPM"
      },
      {
        "day": "Thursday",
        "hours": "9:30‚ÄØAM to 8‚ÄØPM"
      },
      {
        "day": "Friday",
        "hours": "9:30‚ÄØAM to 8‚ÄØPM"
      },
      {
        "day": "Saturday",
        "hours": "9:30‚ÄØAM to 8‚ÄØPM"
      },
      {
        "day": "Sunday",
        "hours": "10:30‚ÄØAM to 8‚ÄØPM"
      }
    ],
    "imageUrl": "https://lh3.googleusercontent.com/gps-cs-s/AG0ilSzUsw1pBAaRQfmTVh2bVIui4yQWuNhkynOgcnWPPLURJSABQHkT051M9aVQw9fkTWm8EakP2oM3S8NdDnBmbHGFZjPHFmQX3F5XaJVWC0FDBiY1EsrN7e3e3cWMdUWLf7pvkikI_w=w408-h272-k-no",
    "url": "https://www.google.com/maps/search/?api=1&query=BMW%20Deutsche%20Motoren%20%7C%20Noida&query_place_id=ChIJW9877_jvDDkRb7nIlqwCex4"
  },
  {
    "title": "Car club",
    "subTitle": "‡§ï‡§æ‡§∞ ‡§ï‡•ç‡§≤‡§¨",
    "categoryName": "Used car dealer",
    "address": "E 23, E Block, Sector 8, Noida, Uttar Pradesh 201301, India",
    "neighborhood": "E Block, Sector 8",
    "street": "E 23",
    "city": "Noida",
    "postalCode": "201301",
    "state": "Uttar Pradesh",
    "countryCode": "IN",
    "phone": "+919818847505",
    "phoneUnformatted": "+919818847505",
    "location": {
      "lat": 28.5973152,
      "lng": 77.3280194
    },
    "totalScore": 4.4,
    "permanentlyClosed": false,
    "temporarilyClosed": false,
    "placeId": "ChIJNcCdM-zlDDkRexxl4lOn7SU",
    "categories": [
      "Used car dealer"
    ],
    "reviewsCount": 12,
    "imagesCount": 3,
    "openingHours": [
      {
        "day": "Monday",
        "hours": "10‚ÄØAM to 7‚ÄØPM"
      },
      {
        "day": "Tuesday",
        "hours": "10‚ÄØAM to 7‚ÄØPM"
      },
      {
        "day": "Wednesday",
        "hours": "10‚ÄØAM to 7‚ÄØPM"
      },
      {
        "day": "Thursday",
        "hours": "10‚ÄØAM to 7‚ÄØPM"
      },
      {
        "day": "Friday",
        "hours": "10‚ÄØAM to 7‚ÄØPM"
      },
      {
        "day": "Saturday",
        "hours": "10‚ÄØAM to 7‚ÄØPM"
      },
      {
        "day": "Sunday",
        "hours": "10‚ÄØAM to 7‚ÄØPM"
      }
    ],
    "imageUrl": "https://lh3.googleusercontent.com/gps-cs-s/AG0ilSz_xPLz5kUkAPeVTFMLgDECqq48l895ZZ9UbL6r0U3trFcoS1uBSayTLiXouSGUneiu1lZXUzGCxQ9oXgEy8vEzOPU-OnITVEfvHIGem_KnHLPE2DxXvQwAICOwxboI6DJnV805=w408-h544-k-no",
    "url": "https://www.google.com/maps/search/?api=1&query=Car%20club&query_place_id=ChIJNcCdM-zlDDkRexxl4lOn7SU"
  },
  {
    "title": "Car ReHub (Noida‚Äôs No.1 Brand For Multibrand Premium Car Service)",
    "subTitle": "‡§ï‡§æ‡§∞ ‡§∞‡§π‡§¨ (‡§®‡•ã‡§è‡§°‡§æ'‡§∏ ‡§®‡•ã.1 ‡§¨‡•ç‡§∞‡§æ‡§Ç‡§° ‡§´‡•â‡§∞ ‡§Æ‡§≤‡•ç‡§ü‡•Ä‡§¨‡•ç‡§∞‡§æ‡§Ç‡§° ‡§™‡•ç‡§∞‡•Ä‡§Æ‡§ø‡§Ø‡§Æ ‡§ï‡§æ‡§∞ ‡§∏‡§∞‡•ç‡§µ‡§ø‡§∏)",
    "categoryName": "Auto repair shop",
    "address": "D-296, Sector 63 Rd, Chhajarsi Colony, Sector 63, Noida, Uttar Pradesh 201309, India",
    "neighborhood": "Chhajarsi Colony, Sector 63",
    "street": "D-296, Sector 63 Rd",
    "city": "Noida",
    "postalCode": "201309",
    "state": "Uttar Pradesh",
    "countryCode": "IN",
    "website": "http://www.carrehub.com/",
    "phone": "+919315965400",
    "phoneUnformatted": "+919315965400",
    "location": {
      "lat": 28.6280652,
      "lng": 77.3860445
    },
    "totalScore": 4.6,
    "permanentlyClosed": false,
    "temporarilyClosed": false,
    "placeId": "ChIJF1B-rw_lDDkRL9Ge3EKbTBc",
    "categories": [
      "Auto repair shop",
      "Auto painting",
      "Auto restoration service",
      "Car battery store",
      "Car wash",
      "Mechanic",
      "Tire shop",
      "Used car dealer",
      "Wheel alignment service"
    ],
    "reviewsCount": 725,
    "imagesCount": 105,
    "openingHours": [
      {
        "day": "Monday",
        "hours": "9‚ÄØAM to 6‚ÄØPM"
      },
      {
        "day": "Tuesday",
        "hours": "9‚ÄØAM to 6‚ÄØPM"
      },
      {
        "day": "Wednesday",
        "hours": "9‚ÄØAM to 6‚ÄØPM"
      },
      {
        "day": "Thursday",
        "hours": "9‚ÄØAM to 6‚ÄØPM"
      },
      {
        "day": "Friday",
        "hours": "9‚ÄØAM to 6‚ÄØPM"
      },
      {
        "day": "Saturday",
        "hours": "9‚ÄØAM to 6‚ÄØPM"
      },
      {
        "day": "Sunday",
        "hours": "9‚ÄØAM to 6‚ÄØPM"
      }
    ],
    "imageUrl": "https://lh3.googleusercontent.com/p/AF1QipPUvvB6-uyo-pI3yN8BN8F1IisoAuE2FBvai1qQ=w408-h538-k-no",
    "url": "https://www.google.com/maps/search/?api=1&query=Car%20ReHub%20(Noida%E2%80%99s%20No.1%20Brand%20For%20Multibrand%20Premium%20Car%20Service)&query_place_id=ChIJF1B-rw_lDDkRL9Ge3EKbTBc"
  },
  {
    "title": "Car Stylein Noida",
    "subTitle": "‡§ï‡§æ‡§∞ ‡§∏‡•ç‡§ü‡§æ‡§á‡§≤‡•á‡§Ç ‡§®‡•ã‡§è‡§°‡§æ",
    "categoryName": "Car accessories store",
    "address": "B-16, Block B, Sector 1, Noida, Uttar Pradesh 201301, India",
    "neighborhood": "Block B, Sector 1",
    "street": "B-16",
    "city": "Noida",
    "postalCode": "201301",
    "state": "Uttar Pradesh",
    "countryCode": "IN",
    "website": "https://www.carstylein.com/",
    "phone": "+917271838383",
    "phoneUnformatted": "+917271838383",
    "location": {
      "lat": 28.5885373,
      "lng": 77.3144389
    },
    "totalScore": 4.2,
    "permanentlyClosed": false,
    "temporarilyClosed": false,
    "placeId": "ChIJCYWcdW_lDDkRuZxgmSXW1XU",
    "categories": [
      "Car accessories store"
    ],
    "reviewsCount": 100,
    "imagesCount": 22,
    "openingHours": [
      {
        "day": "Monday",
        "hours": "Closed"
      },
      {
        "day": "Tuesday",
        "hours": "10‚ÄØAM to 7‚ÄØPM"
      },
      {
        "day": "Wednesday",
        "hours": "10‚ÄØAM to 7‚ÄØPM"
      },
      {
        "day": "Thursday",
        "hours": "10‚ÄØAM to 7‚ÄØPM"
      },
      {
        "day": "Friday",
        "hours": "10‚ÄØAM to 7‚ÄØPM"
      },
      {
        "day": "Saturday",
        "hours": "10‚ÄØAM to 7‚ÄØPM"
      },
      {
        "day": "Sunday",
        "hours": "10‚ÄØAM to 7‚ÄØPM"
      }
    ],
    "imageUrl": "https://lh3.googleusercontent.com/gps-cs-s/AG0ilSwFSrcttTgOBkjOU21gEaRgl6K_R8LQS4SdsfMKkxS8gpgRTCgR8XJY4yXZ-lVOb8cE4c8vkBR46TyQ7dnGns0QdbaWdbGbn9-cVYxtNuaJ7Sj2_P3IfSrDzup5aVjZoeVh0bNUvME26hz4=w408-h306-k-no",
    "url": "https://www.google.com/maps/search/?api=1&query=Car%20Stylein%20Noida&query_place_id=ChIJCYWcdW_lDDkRuZxgmSXW1XU"
  },
  {
    "title": "Car Way Service | Outstation Cab Booking | Car on Rent in Noida | Cab Booking Service",
    "subTitle": "‡§ï‡§æ‡§∞ ‡§µ‡•á ‡§∏‡§∞‡•ç‡§µ‡§ø‡§∏ | ‡§Ü‡§â‡§ü‡§∏‡•ç‡§ü‡•á‡§∂‡§® ‡§ï‡•à‡§¨ ‡§¨‡•Å‡§ï‡§ø‡§Ç‡§ó | ‡§ï‡§æ‡§∞ ‡§ë‡§® ‡§∞‡•á‡§Ç‡§ü ‡§á‡§® ‡§®‡•ã‡§è‡§°‡§æ | ‡§ï‡•à‡§¨ ‡§¨‡•Å‡§ï‡§ø‡§Ç‡§ó ‡§∏‡§∞‡•ç‡§µ‡§ø‡§∏",
    "categoryName": "Car rental agency",
    "address": "Office No 21 Second Floor, A Square Mall, Sector 73, Noida, Uttar Pradesh 201316, India",
    "neighborhood": "Sector 73",
    "street": "Office No 21 Second Floor, A Square Mall",
    "city": "Noida",
    "postalCode": "201316",
    "state": "Uttar Pradesh",
    "countryCode": "IN",
    "website": "http://carwayservice.in/",
    "phone": "+919821799189",
    "phoneUnformatted": "+919821799189",
    "location": {
      "lat": 28.5919316,
      "lng": 77.3816866
    },
    "totalScore": 5,
    "permanentlyClosed": false,
    "temporarilyClosed": false,
    "placeId": "ChIJXxxcfnnvDDkRngCGPBttcPo",
    "categories": [
      "Car rental agency",
      "Car leasing service",
      "Minibus taxi service",
      "Taxi service",
      "Tour agency",
      "Tourist information center"
    ],
    "reviewsCount": 18,
    "imagesCount": 6,
    "openingHours": [
      {
        "day": "Monday",
        "hours": "Open 24 hours"
      },
      {
        "day": "Tuesday",
        "hours": "Open 24 hours"
      },
      {
        "day": "Wednesday",
        "hours": "Open 24 hours"
      },
      {
        "day": "Thursday",
        "hours": "Open 24 hours"
      },
      {
        "day": "Friday",
        "hours": "Open 24 hours"
      },
      {
        "day": "Saturday",
        "hours": "Open 24 hours"
      },
      {
        "day": "Sunday",
        "hours": "Open 24 hours"
      }
    ],
    "imageUrl": "https://lh3.googleusercontent.com/p/AF1QipOGRWkRdb6I8LKMahl4lSCCcz57hQqqnkAXJpI2=w408-h310-k-no",
    "url": "https://www.google.com/maps/search/?api=1&query=Car%20Way%20Service%20%7C%20Outstation%20Cab%20Booking%20%7C%20Car%20on%20Rent%20in%20Noida%20%7C%20Cab%20Booking%20Service&query_place_id=ChIJXxxcfnnvDDkRngCGPBttcPo"
  },
  {
    "title": "CARACE¬ÆÔ∏è Bespoke Detailing & Servicing",
    "subTitle": "‡§ï‡•à‡§∞‡•á‡§∏(‡§Ü‡§∞)Ô∏è ‡§¨‡§ø‡§∏‡§™‡•ã‡§ï ‡§°‡§ø‡§ü‡•á‡§≤‡§ø‡§Ç‡§ó & ‡§∏‡§∞‡•ç‡§µ‡§ø‡§∏‡§ø‡§Ç‡§ó",
    "categoryName": "Car wash",
    "address": "C-14, Block C, Noida Sector 3, Noida, Uttar Pradesh 201301, India",
    "neighborhood": "Block C, Noida Sector 3",
    "street": "C-14",
    "city": "Noida",
    "postalCode": "201301",
    "state": "Uttar Pradesh",
    "countryCode": "IN",
    "website": "https://carace-bespoke-detailing.grexa.site/",
    "location": {
      "lat": 28.5817724,
      "lng": 77.319525
    },
    "totalScore": 4.2,
    "permanentlyClosed": false,
    "temporarilyClosed": false,
    "placeId": "ChIJtR-ncU_kDDkRoZ8Mx0zENLg",
    "categories": [
      "Car wash",
      "Auto painting",
      "Auto repair shop",
      "Auto restoration service"
    ],
    "reviewsCount": 422,
    "imagesCount": 1891,
    "openingHours": [
      {
        "day": "Monday",
        "hours": "10‚ÄØAM to 7‚ÄØPM"
      },
      {
        "day": "Tuesday",
        "hours": "10‚ÄØAM to 7‚ÄØPM"
      },
      {
        "day": "Wednesday",
        "hours": "10‚ÄØAM to 7‚ÄØPM"
      },
      {
        "day": "Thursday",
        "hours": "10‚ÄØAM to 7‚ÄØPM"
      },
      {
        "day": "Friday",
        "hours": "10‚ÄØAM to 7‚ÄØPM"
      },
      {
        "day": "Saturday",
        "hours": "10‚ÄØAM to 7‚ÄØPM"
      },
      {
        "day": "Sunday",
        "hours": "Closed"
      }
    ],
    "imageUrl": "https://lh3.googleusercontent.com/p/AF1QipPvfgmnnDSdPrT0N1H_4zihMHg_ejILpPZJbYOS=w408-h306-k-no",
    "url": "https://www.google.com/maps/search/?api=1&query=CARACE%C2%AE%EF%B8%8F%20Bespoke%20Detailing%20%26%20Servicing&query_place_id=ChIJtR-ncU_kDDkRoZ8Mx0zENLg"
  },
  {
    "title": "CarRent Pe",
    "subTitle": "‡§ï‡§∞‡•á‡§Ç‡§ü ‡§™‡•á",
    "categoryName": "Car leasing service",
    "address": "Gali No. 3, Hanuman Vihar, Natthu Colony, Baraula, Sector 49, Noida, Uttar Pradesh 201304, India",
    "neighborhood": "Hanuman Vihar, Natthu Colony, Baraula, Sector 49",
    "street": "Gali No. 3",
    "city": "Noida",
    "postalCode": "201304",
    "state": "Uttar Pradesh",
    "countryCode": "IN",
    "website": "http://holidaytravelss.com/",
    "phone": "+918512849775",
    "phoneUnformatted": "+918512849775",
    "location": {
      "lat": 28.5608865,
      "lng": 77.3784877
    },
    "totalScore": 4.5,
    "permanentlyClosed": false,
    "temporarilyClosed": false,
    "placeId": "ChIJlUPzin3vDDkRWZcziLFJesw",
    "categories": [
      "Car leasing service",
      "Taxi service"
    ],
    "reviewsCount": 2,
    "imagesCount": 1,
    "openingHours": [],
    "imageUrl": "https://streetviewpixels-pa.googleapis.com/v1/thumbnail?panoid=E2rGjjoxR6h9ejbfYc4F5w&cb_client=search.gws-prod.gps&w=408&h=240&yaw=150.7703&pitch=0&thumbfov=100",
    "url": "https://www.google.com/maps/search/?api=1&query=CarRent%20Pe&query_place_id=ChIJlUPzin3vDDkRWZcziLFJesw"
  },
  {
    "title": "Carrobar India",
    "subTitle": "‡§ï‡•à‡§∞‡•ã‡§¨‡§æ‡§∞ ‡§á‡§Ç‡§°‡§ø‡§Ø‡§æ",
    "categoryName": "Auto broker",
    "address": "Noida One, MK360 Aeroshift Pvt Ltd, B-603, Sector 62, Noida, Uttar Pradesh 201309, India",
    "neighborhood": "Rasoolpur Nawada, Industrial Area, Sector 62",
    "street": "Noida One, MK360 Aeroshift Pvt Ltd, B-603",
    "city": "Noida",
    "postalCode": "201309",
    "state": "Uttar Pradesh",
    "countryCode": "IN",
    "website": "https://www.carrobarindia.com/",
    "phone": "+919953575959",
    "phoneUnformatted": "+919953575959",
    "location": {
      "lat": 28.6229745,
      "lng": 77.3663583
    },
    "totalScore": 5,
    "permanentlyClosed": false,
    "temporarilyClosed": true,
    "placeId": "ChIJa05mdM3vDDkR28Yk8Sm6ANg",
    "categories": [
      "Auto broker",
      "BMW dealer",
      "Car dealer",
      "Car factory",
      "Electric motor vehicle dealer",
      "Jaguar dealer",
      "Land Rover dealer",
      "Mercedes-Benz dealer",
      "Motor vehicle dealer",
      "Porsche dealer"
    ],
    "reviewsCount": 8,
    "imagesCount": 2,
    "openingHours": [],
    "imageUrl": "https://lh3.googleusercontent.com/gps-cs-s/AG0ilSyauFJBWe2DK84zJRACQEKhedcPht9c9jdUiLyXmHODHy-QK7-MFNDn3BV0xKs6lrcoJQKABp6Ib7dy1DbPuCx_BkmwfTeawZVzaLlDZXiod7_BlilzxhESq5fzdjwo3fIpp3VR8Vep59uD=w426-h240-k-no",
    "url": "https://www.google.com/maps/search/?api=1&query=Carrobar%20India&query_place_id=ChIJa05mdM3vDDkR28Yk8Sm6ANg"
  },
  {
    "title": "CARS CLUB NOIDA",
    "subTitle": "‡§ï‡§æ‡§∞‡•ç‡§∏ ‡§ï‡•ç‡§≤‡§¨ ‡§®‡•ã‡§è‡§°‡§æ",
    "categoryName": "Used car dealer",
    "address": "128, Central Auto Market, Block B, Sector 16, Noida, Uttar Pradesh 201301, India",
    "neighborhood": "Central Auto Market, Block B, Sector 16",
    "street": "128",
    "city": "Noida",
    "postalCode": "201301",
    "state": "Uttar Pradesh",
    "countryCode": "IN",
    "phone": "+919310789664",
    "phoneUnformatted": "+919310789664",
    "location": {
      "lat": 28.5779761,
      "lng": 77.3170066
    },
    "totalScore": 4.2,
    "permanentlyClosed": false,
    "temporarilyClosed": false,
    "placeId": "ChIJh8JXIDDlDDkR7Ezv12JfcRk",
    "categories": [
      "Used car dealer"
    ],
    "reviewsCount": 17,
    "imagesCount": 23,
    "openingHours": [
      {
        "day": "Monday",
        "hours": "10:30‚ÄØAM to 7:30‚ÄØPM"
      },
      {
        "day": "Tuesday",
        "hours": "10‚ÄØAM to 7:30‚ÄØPM"
      },
      {
        "day": "Wednesday",
        "hours": "10‚ÄØAM to 7:30‚ÄØPM"
      },
      {
        "day": "Thursday",
        "hours": "10‚ÄØAM to 7:30‚ÄØPM"
      },
      {
        "day": "Friday",
        "hours": "10‚ÄØAM to 7:30‚ÄØPM"
      },
      {
        "day": "Saturday",
        "hours": "10‚ÄØAM to 7:30‚ÄØPM"
      },
      {
        "day": "Sunday",
        "hours": "10‚ÄØAM to 7:30‚ÄØPM"
      }
    ],
    "imageUrl": "https://lh3.googleusercontent.com/p/AF1QipNFNaLR3rEORFLELmIP_LLrKzN_aODZ8JQaBHk5=w408-h907-k-no",
    "url": "https://www.google.com/maps/search/?api=1&query=CARS%20CLUB%20NOIDA&query_place_id=ChIJh8JXIDDlDDkR7Ezv12JfcRk"
  },
  {
    "title": "Cars No.1",
    "subTitle": "‡§ï‡§æ‡§∞‡•ç‡§∏ ‡§®‡•ã.1",
    "categoryName": "Used car dealer",
    "address": "A-77, Block A, Sector 72, Noida, Uttar Pradesh 201316, India",
    "neighborhood": "Block A, Sector 72",
    "street": "A-77",
    "city": "Noida",
    "postalCode": "201316",
    "state": "Uttar Pradesh",
    "countryCode": "IN",
    "phone": "+919810016525",
    "phoneUnformatted": "+919810016525",
    "location": {
      "lat": 28.5858423,
      "lng": 77.377388
    },
    "totalScore": 3.9,
    "permanentlyClosed": false,
    "temporarilyClosed": false,
    "placeId": "ChIJCbDepyj7DDkRoUyq4moS2Fs",
    "categories": [
      "Used car dealer"
    ],
    "reviewsCount": 11,
    "imagesCount": 23,
    "openingHours": [
      {
        "day": "Monday",
        "hours": "10‚ÄØAM to 8‚ÄØPM"
      },
      {
        "day": "Tuesday",
        "hours": "10‚ÄØAM to 8‚ÄØPM"
      },
      {
        "day": "Wednesday",
        "hours": "10‚ÄØAM to 7:30‚ÄØPM"
      },
      {
        "day": "Thursday",
        "hours": "10‚ÄØAM to 7:30‚ÄØPM"
      },
      {
        "day": "Friday",
        "hours": "10‚ÄØAM to 7:30‚ÄØPM"
      },
      {
        "day": "Saturday",
        "hours": "10‚ÄØAM to 7:30‚ÄØPM"
      },
      {
        "day": "Sunday",
        "hours": "10‚ÄØAM to 7:30‚ÄØPM"
      }
    ],
    "imageUrl": "https://lh3.googleusercontent.com/gps-cs-s/AG0ilSyYVIjQGdcYVQ2zdIlkpzU0JvQinh7dSQk9aHdaAZm1QWg9O06Mli0QOWI3L9zaynJIIhjP2vJJGlhk65h_W1wAwEtWbaH7w_zvZWpSldu1FkWyOOfWCiRq9nCOGK_0Idibpjp0=w408-h306-k-no",
    "url": "https://www.google.com/maps/search/?api=1&query=Cars%20No.1&query_place_id=ChIJCbDepyj7DDkRoUyq4moS2Fs"
  },
  {
    "title": "CarWale Franchise Noida sector 16",
    "subTitle": "‡§ï‡§∞‡§µ‡§æ‡§≤‡•á ‡§´‡•ç‡§∞‡•à‡§Ç‡§ö‡§æ‡§á‡§ú ‡§®‡•ã‡§è‡§°‡§æ ‡§∏‡•á‡§ï‡•ç‡§ü‡§∞ 16",
    "categoryName": "Car dealer",
    "address": "B-88, Central Auto Market, Block B, Sector 16, Noida, Uttar Pradesh 201301, India",
    "neighborhood": "Central Auto Market, Block B, Sector 16",
    "street": "B-88",
    "city": "Noida",
    "postalCode": "201301",
    "state": "Uttar Pradesh",
    "countryCode": "IN",
    "website": "https://www.cargharindia.com/",
    "phone": "+919716825059",
    "phoneUnformatted": "+919716825059",
    "location": {
      "lat": 28.5773578,
      "lng": 77.3155808
    },
    "totalScore": 3.8,
    "permanentlyClosed": false,
    "temporarilyClosed": false,
    "placeId": "ChIJ-WWvfFvkDDkRNp7hjqG75i4",
    "categories": [
      "Car dealer",
      "Smart Car dealer",
      "Used car dealer"
    ],
    "reviewsCount": 560,
    "imagesCount": 147,
    "openingHours": [
      {
        "day": "Monday",
        "hours": "Closed"
      },
      {
        "day": "Tuesday",
        "hours": "10‚ÄØAM to 8‚ÄØPM"
      },
      {
        "day": "Wednesday",
        "hours": "10‚ÄØAM to 8‚ÄØPM"
      },
      {
        "day": "Thursday",
        "hours": "10‚ÄØAM to 8‚ÄØPM"
      },
      {
        "day": "Friday",
        "hours": "10‚ÄØAM to 8‚ÄØPM"
      },
      {
        "day": "Saturday",
        "hours": "10‚ÄØAM to 8‚ÄØPM"
      },
      {
        "day": "Sunday",
        "hours": "10‚ÄØAM to 8‚ÄØPM"
      }
    ],
    "imageUrl": "https://lh3.googleusercontent.com/p/AF1QipN9TdVLVTFZuFTowvGf5wF0LUBy8-I74Uslej6m=w408-h306-k-no",
    "url": "https://www.google.com/maps/search/?api=1&query=CarWale%20Franchise%20Noida%20sector%2016&query_place_id=ChIJ-WWvfFvkDDkRNp7hjqG75i4"
  },
  {
    "title": "Competent Tour and Travels- Tempo Traveller in Noida on Rent | Car Rental | Cab | innova crysta rent | Corporate | Wedding",
    "subTitle": "‡§ï‡•â‡§Æ‡•ç‡§™‡•Ä‡§ü‡•á‡§Ç‡§ü ‡§ü‡•Ç‡§∞ ‡§è‡§Ç‡§° ‡§ü‡•ç‡§∞‡•à‡§µ‡§≤‡•ç‡§∏",
    "categoryName": "Car leasing service",
    "address": "2nd Floor, A-110, Transport Nagar, Sector 69, Noida, Uttar Pradesh 201309, India",
    "neighborhood": "Transport Nagar, Sector 69",
    "street": "2nd Floor, A-110",
    "city": "Noida",
    "postalCode": "201309",
    "state": "Uttar Pradesh",
    "countryCode": "IN",
    "website": "https://competenttourandtravels.com/",
    "phone": "+919310298191",
    "phoneUnformatted": "+919310298191",
    "location": {
      "lat": 28.6109685,
      "lng": 77.3926288
    },
    "totalScore": 4.9,
    "permanentlyClosed": false,
    "temporarilyClosed": false,
    "placeId": "ChIJ6YtNjVvn264RKkG1q8raxkI",
    "categories": [
      "Car leasing service",
      "Airport shuttle service",
      "Taxi service",
      "Transportation service",
      "Travel agency"
    ],
    "reviewsCount": 194,
    "imagesCount": 488,
    "openingHours": [],
    "imageUrl": "https://lh3.googleusercontent.com/p/AF1QipOmXVrhANJcvn8UybWKuCZYM8CpC6KyXqi4pD3_=w408-h342-k-no",
    "url": "https://www.google.com/maps/search/?api=1&query=Competent%20Tour%20and%20Travels-%20Tempo%20Traveller%20in%20Noida%20on%20Rent%20%7C%20Car%20Rental%20%7C%20Cab%20%7C%20innova%20crysta%20rent%20%7C%20Corporate%20%7C%20Wedding&query_place_id=ChIJ6YtNjVvn264RKkG1q8raxkI"
  },
  {
    "title": "Crown Honda",
    "subTitle": "‡§ï‡•ç‡§∞‡§æ‡§â‡§® ‡§π‡•ã‡§Ç‡§°‡§æ",
    "categoryName": "Car dealer",
    "address": "H 5, H Block, Sector 63, Noida, Uttar Pradesh 201309, India",
    "neighborhood": "H Block, Sector 63",
    "street": "H 5",
    "city": "Noida",
    "postalCode": "201309",
    "state": "Uttar Pradesh",
    "countryCode": "IN",
    "website": "https://dealer.hondacarindia.com/crown-honda-action-automotives-pvt-ltd-car-dealer-sector-63-noida-67147/Home",
    "phone": "+918657588491",
    "phoneUnformatted": "+918657588491",
    "location": {
      "lat": 28.6309979,
      "lng": 77.378856
    },
    "totalScore": 4.3,
    "permanentlyClosed": false,
    "temporarilyClosed": false,
    "placeId": "ChIJh7SfyvXvDDkR4AZsoRTmvI4",
    "categories": [
      "Car dealer",
      "Auto dent removal service",
      "Auto repair shop",
      "Car accessories store",
      "Car repair and maintenance service",
      "Honda dealer",
      "Motor vehicle dealer"
    ],
    "reviewsCount": 4624,
    "imagesCount": 748,
    "openingHours": [
      {
        "day": "Monday",
        "hours": "9‚ÄØAM to 7‚ÄØPM"
      },
      {
        "day": "Tuesday",
        "hours": "9‚ÄØAM to 7‚ÄØPM"
      },
      {
        "day": "Wednesday",
        "hours": "9‚ÄØAM to 7‚ÄØPM"
      },
      {
        "day": "Thursday",
        "hours": "9‚ÄØAM to 7‚ÄØPM"
      },
      {
        "day": "Friday",
        "hours": "9‚ÄØAM to 7‚ÄØPM"
      },
      {
        "day": "Saturday",
        "hours": "9‚ÄØAM to 7‚ÄØPM"
      },
      {
        "day": "Sunday",
        "hours": "9‚ÄØAM to 7‚ÄØPM"
      }
    ],
    "imageUrl": "https://lh3.googleusercontent.com/gps-cs-s/AG0ilSz1423P7_BRh1fUwXhM3_LoA9L2p4RuwwzXx5ws0DjlaCqgoV_cLnmXCPpX-ooYByG3JzcWDFzIW5NTJV6dMjAP7Oww6sj5fJc8IWDW5cTNcpjGZBGm0LBUUzHJzrQFnqadkAwl=w408-h272-k-no",
    "url": "https://www.google.com/maps/search/?api=1&query=Crown%20Honda&query_place_id=ChIJh7SfyvXvDDkR4AZsoRTmvI4"
  },
  {
    "title": "Dream Car Rental",
    "subTitle": "‡§°‡•ç‡§∞‡•Ä‡§Æ ‡§ï‡§æ‡§∞ ‡§∞‡•á‡§Ç‡§ü‡§≤",
    "categoryName": "Car rental agency",
    "address": "J9HM+3X7 Pradhan Dhabba, Gali No. 2, near Evergrren Sweets, Mamura, Sector 63, Noida, Uttar Pradesh 201309, India",
    "neighborhood": "Mamura, Sector 63",
    "street": "J9HM+3X7 Pradhan Dhabba, Gali No. 2, near Evergrren Sweets",
    "city": "Noida",
    "postalCode": "201309",
    "state": "Uttar Pradesh",
    "countryCode": "IN",
    "location": {
      "lat": 28.627658,
      "lng": 77.384928
    },
    "permanentlyClosed": false,
    "temporarilyClosed": false,
    "placeId": "ChIJwau4p_DvDDkRPSX0mNkzwD0",
    "categories": [
      "Car rental agency"
    ],
    "openingHours": [],
    "url": "https://www.google.com/maps/search/?api=1&query=Dream%20Car%20Rental&query_place_id=ChIJwau4p_DvDDkRPSX0mNkzwD0"
  },
  {
    "title": "Eco Mobility",
    "subTitle": "‡§á‡§ï‡•ã ‡§Æ‡•ã‡§¨‡§ø‡§≤‡§ø‡§ü‡•Ä",
    "categoryName": "Car rental agency",
    "address": "& Near G, Noida-Greater Noida Expy, behind Sec 104, Hazipur, Sector 104, Noida, Uttar Pradesh 201304, India",
    "neighborhood": "Hazipur, Sector 104",
    "street": "& Near G, Noida-Greater Noida Expy, behind Sec 104",
    "city": "Noida",
    "postalCode": "201304",
    "state": "Uttar Pradesh",
    "countryCode": "IN",
    "website": "https://www.ecosmobility.com/",
    "phone": "+919654999666",
    "phoneUnformatted": "+919654999666",
    "location": {
      "lat": 28.5392717,
      "lng": 77.367505
    },
    "totalScore": 4.9,
    "permanentlyClosed": false,
    "temporarilyClosed": false,
    "placeId": "ChIJGwxs8AXmDDkR-23LNNwrqiU",
    "categories": [
      "Car rental agency",
      "Car leasing service"
    ],
    "reviewsCount": 379,
    "imagesCount": 264,
    "openingHours": [
      {
        "day": "Monday",
        "hours": "Open 24 hours"
      },
      {
        "day": "Tuesday",
        "hours": "Open 24 hours"
      },
      {
        "day": "Wednesday",
        "hours": "Open 24 hours"
      },
      {
        "day": "Thursday",
        "hours": "Open 24 hours"
      },
      {
        "day": "Friday",
        "hours": "Open 24 hours"
      },
      {
        "day": "Saturday",
        "hours": "Open 24 hours"
      },
      {
        "day": "Sunday",
        "hours": "Open 24 hours"
      }
    ],
    "imageUrl": "https://lh3.googleusercontent.com/p/AF1QipPERWpdNl9tvXIiAT_xY5FXkDcz7F58TLQNQBrR=w408-h408-k-no",
    "url": "https://www.google.com/maps/search/?api=1&query=Eco%20Mobility&query_place_id=ChIJGwxs8AXmDDkR-23LNNwrqiU"
  },
  {
    "title": "Global Luxury Car Service",
    "subTitle": "‡§ó‡•ç‡§≤‡•ã‡§¨‡§≤ ‡§≤‡§ï‡•ç‡§ú‡§∞‡•Ä ‡§ï‡§æ‡§∞ ‡§∏‡§∞‡•ç‡§µ‡§ø‡§∏",
    "categoryName": "Car rental agency",
    "address": "H8QJ+RJF, C Block, Sector 18, Noida, Uttar Pradesh 201301, India",
    "neighborhood": "C Block, Sector 18",
    "street": "H8QJ+RJF",
    "city": "Noida",
    "postalCode": "201301",
    "state": "Uttar Pradesh",
    "countryCode": "IN",
    "location": {
      "lat": 28.5895691,
      "lng": 77.3315429
    },
    "permanentlyClosed": false,
    "temporarilyClosed": false,
    "placeId": "ChIJrwcA6f_kDDkRPbhn0pMEWeo",
    "categories": [
      "Car rental agency"
    ],
    "openingHours": [],
    "url": "https://www.google.com/maps/search/?api=1&query=Global%20Luxury%20Car%20Service&query_place_id=ChIJrwcA6f_kDDkRPbhn0pMEWeo"
  },
  {
    "title": "Gocarzy",
    "subTitle": "‡§ó‡•ã‡§ï‡§∞‡•ç‡§ú‡§º‡•Ä",
    "categoryName": "Car dealer",
    "address": "B-6, Block B, Sector 4, Noida, Uttar Pradesh 201301, India",
    "neighborhood": "Block B, Sector 4",
    "street": "B-6",
    "city": "Noida",
    "postalCode": "201301",
    "state": "Uttar Pradesh",
    "countryCode": "IN",
    "website": "http://gocarzy.com/",
    "phone": "+917290904489",
    "phoneUnformatted": "+917290904489",
    "location": {
      "lat": 28.582656,
      "lng": 77.325243
    },
    "totalScore": 5,
    "permanentlyClosed": false,
    "temporarilyClosed": false,
    "placeId": "ChIJn1EDyFbkDDkRHjMSwRFBHAk",
    "categories": [
      "Car dealer"
    ],
    "reviewsCount": 1,
    "imagesCount": 2,
    "openingHours": [
      {
        "day": "Monday",
        "hours": "10‚ÄØAM to 6‚ÄØPM"
      },
      {
        "day": "Tuesday",
        "hours": "10‚ÄØAM to 6‚ÄØPM"
      },
      {
        "day": "Wednesday",
        "hours": "10‚ÄØAM to 6‚ÄØPM"
      },
      {
        "day": "Thursday",
        "hours": "10‚ÄØAM to 6‚ÄØPM"
      },
      {
        "day": "Friday",
        "hours": "10‚ÄØAM to 6‚ÄØPM"
      },
      {
        "day": "Saturday",
        "hours": "10‚ÄØAM to 6‚ÄØPM"
      },
      {
        "day": "Sunday",
        "hours": "Closed"
      }
    ],
    "imageUrl": "https://streetviewpixels-pa.googleapis.com/v1/thumbnail?panoid=C40-XEimKzg7WwAZyNAzDA&cb_client=search.gws-prod.gps&w=408&h=240&yaw=322.3339&pitch=0&thumbfov=100",
    "url": "https://www.google.com/maps/search/?api=1&query=Gocarzy&query_place_id=ChIJn1EDyFbkDDkRHjMSwRFBHAk"
  },
  {
    "title": "Gurudev Car Accessories",
    "subTitle": "Gurudev car accessories",
    "categoryName": "Car accessories store",
    "address": "car market, Near, main road, opposite Kailash Hospital, Mamura, Sector 66, Noida, Uttar Pradesh 201309, India",
    "neighborhood": "Mamura, Sector 66",
    "street": "car market, Near, main road, opposite Kailash Hospital",
    "city": "Noida",
    "postalCode": "201309",
    "state": "Uttar Pradesh",
    "countryCode": "IN",
    "website": "https://www.gurudevcaraccessories.in/",
    "phone": "+919811624582",
    "phoneUnformatted": "+919811624582",
    "location": {
      "lat": 28.6013007,
      "lng": 77.3759832
    },
    "totalScore": 4.7,
    "permanentlyClosed": false,
    "temporarilyClosed": false,
    "placeId": "ChIJzzT8AH3lDDkRtnba4mwXNYc",
    "categories": [
      "Car accessories store",
      "Auto repair shop",
      "Motoring club"
    ],
    "reviewsCount": 228,
    "imagesCount": 221,
    "openingHours": [
      {
        "day": "Monday",
        "hours": "9‚ÄØAM to 9‚ÄØPM"
      },
      {
        "day": "Tuesday",
        "hours": "9‚ÄØAM to 9‚ÄØPM"
      },
      {
        "day": "Wednesday",
        "hours": "9‚ÄØAM to 9‚ÄØPM"
      },
      {
        "day": "Thursday",
        "hours": "Closed"
      },
      {
        "day": "Friday",
        "hours": "9‚ÄØAM to 9‚ÄØPM"
      },
      {
        "day": "Saturday",
        "hours": "9‚ÄØAM to 9‚ÄØPM"
      },
      {
        "day": "Sunday",
        "hours": "9‚ÄØAM to 9‚ÄØPM"
      }
    ],
    "imageUrl": "https://lh3.googleusercontent.com/p/AF1QipP90mfsXijTtTQknxKvkzgGqoprZOeJKL2CcuwL=w408-h369-k-no",
    "url": "https://www.google.com/maps/search/?api=1&query=Gurudev%20Car%20Accessories&query_place_id=ChIJzzT8AH3lDDkRtnba4mwXNYc"
  },
  {
    "title": "Happy Car rental service Noida",
    "subTitle": "‡§π‡•à‡§™‡•ç‡§™‡•Ä ‡§ï‡§æ‡§∞ ‡§∞‡•á‡§Ç‡§ü‡§≤ ‡§∏‡§∞‡•ç‡§µ‡§ø‡§∏ ‡§®‡•ã‡§è‡§°‡§æ",
    "categoryName": "Car rental agency",
    "address": "mithali marg, E-55, Block E, Sector 55, Noida, Uttar Pradesh 201307, India",
    "neighborhood": "Block E, Sector 55",
    "street": "mithali marg, E-55",
    "city": "Noida",
    "postalCode": "201307",
    "state": "Uttar Pradesh",
    "countryCode": "IN",
    "phone": "+917752929786",
    "phoneUnformatted": "+917752929786",
    "location": {
      "lat": 28.6009397,
      "lng": 77.3462108
    },
    "totalScore": 4.8,
    "permanentlyClosed": false,
    "temporarilyClosed": false,
    "placeId": "ChIJv-ub4LjlDDkRBVPGfrbI-CQ",
    "categories": [
      "Car rental agency"
    ],
    "reviewsCount": 85,
    "imagesCount": 14,
    "openingHours": [
      {
        "day": "Monday",
        "hours": "Open 24 hours"
      },
      {
        "day": "Tuesday",
        "hours": "Open 24 hours"
      },
      {
        "day": "Wednesday",
        "hours": "Open 24 hours"
      },
      {
        "day": "Thursday",
        "hours": "Open 24 hours"
      },
      {
        "day": "Friday",
        "hours": "Open 24 hours"
      },
      {
        "day": "Saturday",
        "hours": "Open 24 hours"
      },
      {
        "day": "Sunday",
        "hours": "Open 24 hours"
      }
    ],
    "imageUrl": "https://lh3.googleusercontent.com/p/AF1QipMaQBRnfLTDln-cepU5-c6vRADbbCC70EUZGm2K=w408-h544-k-no",
    "url": "https://www.google.com/maps/search/?api=1&query=Happy%20Car%20rental%20service%20Noida&query_place_id=ChIJv-ub4LjlDDkRBVPGfrbI-CQ"
  },
  {
    "title": "HireMeCar",
    "subTitle": "‡§π‡•Ä‡§∞‡•á‡§Æ‡§ï‡§æ‡§∞",
    "categoryName": "Car rental agency",
    "address": "Office 11, Ground Floor, H-187, Lohia Rd, H Block, Sector 63, Noida, Uttar Pradesh 201309, India",
    "neighborhood": "H Block, Sector 63",
    "street": "Office 11, Ground Floor, H-187, Lohia Rd",
    "city": "Noida",
    "postalCode": "201309",
    "state": "Uttar Pradesh",
    "countryCode": "IN",
    "website": "https://hiremecar.com/",
    "phone": "+917065780780",
    "phoneUnformatted": "+917065780780",
    "location": {
      "lat": 28.6291175,
      "lng": 77.3803381
    },
    "totalScore": 3.7,
    "permanentlyClosed": false,
    "temporarilyClosed": false,
    "placeId": "ChIJAQBQsrxmDDkR9a1dPCW1Zy0",
    "categories": [
      "Car rental agency",
      "Taxi service",
      "Tour operator"
    ],
    "reviewsCount": 135,
    "imagesCount": 5,
    "openingHours": [
      {
        "day": "Monday",
        "hours": "Open 24 hours"
      },
      {
        "day": "Tuesday",
        "hours": "Open 24 hours"
      },
      {
        "day": "Wednesday",
        "hours": "Open 24 hours"
      },
      {
        "day": "Thursday",
        "hours": "Open 24 hours"
      },
      {
        "day": "Friday",
        "hours": "Open 24 hours"
      },
      {
        "day": "Saturday",
        "hours": "Open 24 hours"
      },
      {
        "day": "Sunday",
        "hours": "Open 24 hours"
      }
    ],
    "imageUrl": "https://lh3.googleusercontent.com/p/AF1QipNT5cjs8rE7puWjaioCi6gdsBqED8fPfsanKu3L=w460-h240-k-no",
    "url": "https://www.google.com/maps/search/?api=1&query=HireMeCar&query_place_id=ChIJAQBQsrxmDDkR9a1dPCW1Zy0"
  },
  {
    "title": "Holiday travels - Taxi Service Noida",
    "subTitle": "‡§π‡•â‡§≤‡§ø‡§°‡•á ‡§ü‡•ç‡§∞‡•à‡§µ‡§≤‡•ç‡§∏ - ‡§ü‡•à‡§ï‡•ç‡§∏‡•Ä ‡§∏‡§∞‡•ç‡§µ‡§ø‡§∏ ‡§®‡•ã‡§è‡§°‡§æ",
    "categoryName": "Car leasing service",
    "address": "Gali Num. 3,Vill, Baraula, Sector 49, Noida, Uttar Pradesh 201304, India",
    "neighborhood": "Natthu Colony, Baraula, Sector 49",
    "street": "Gali Num. 3,Vill",
    "city": "Noida",
    "postalCode": "201304",
    "state": "Uttar Pradesh",
    "countryCode": "IN",
    "website": "https://holidaytravels.org/",
    "phone": "+918700304424",
    "phoneUnformatted": "+918700304424",
    "location": {
      "lat": 28.5609132,
      "lng": 77.3785084
    },
    "totalScore": 4.8,
    "permanentlyClosed": false,
    "temporarilyClosed": false,
    "placeId": "ChIJO-auL4vH_o0Ruzuruh-kgGA",
    "categories": [
      "Car leasing service",
      "Taxi service"
    ],
    "reviewsCount": 60,
    "imagesCount": 115,
    "openingHours": [],
    "imageUrl": "https://lh3.googleusercontent.com/p/AF1QipMLeu7LjkaP_qLUjU1yUtC7mRZYHWncwMCFel0X=w408-h274-k-no",
    "url": "https://www.google.com/maps/search/?api=1&query=Holiday%20travels%20-%20Taxi%20Service%20Noida&query_place_id=ChIJO-auL4vH_o0Ruzuruh-kgGA"
  },
  {
    "title": "Jaguar Shiva Motocorp",
    "subTitle": "‡§ú‡§ó‡•Å‡§Ü‡§∞ ‡§∂‡§ø‡§µ‡§æ ‡§Æ‡•ã‡§ü‡•ã‡§ï‡•â‡§∞‡•ç‡§™",
    "categoryName": "Land Rover dealer",
    "address": "A - 108, Block A, Sector 5, Noida, Uttar Pradesh 201301, India",
    "neighborhood": "Block A, Sector 5",
    "street": "A - 108",
    "city": "Noida",
    "postalCode": "201301",
    "state": "Uttar Pradesh",
    "countryCode": "IN",
    "website": "https://retailers.jaguar.in/shiva-motocorp",
    "phone": "+919311590310",
    "phoneUnformatted": "+919311590310",
    "location": {
      "lat": 28.5923704,
      "lng": 77.3223001
    },
    "totalScore": 4.1,
    "permanentlyClosed": false,
    "temporarilyClosed": false,
    "placeId": "ChIJlY697fnkDDkRxOvf3Ae-oqk",
    "categories": [
      "Land Rover dealer",
      "Auto body shop",
      "Jaguar dealer",
      "Race car dealer",
      "Used car dealer"
    ],
    "reviewsCount": 760,
    "imagesCount": 213,
    "openingHours": [
      {
        "day": "Monday",
        "hours": "9‚ÄØAM to 6‚ÄØPM"
      },
      {
        "day": "Tuesday",
        "hours": "9‚ÄØAM to 6‚ÄØPM"
      },
      {
        "day": "Wednesday",
        "hours": "9‚ÄØAM to 6‚ÄØPM"
      },
      {
        "day": "Thursday",
        "hours": "9‚ÄØAM to 6‚ÄØPM"
      },
      {
        "day": "Friday",
        "hours": "9‚ÄØAM to 6‚ÄØPM"
      },
      {
        "day": "Saturday",
        "hours": "9‚ÄØAM to 6‚ÄØPM"
      },
      {
        "day": "Sunday",
        "hours": "Closed"
      }
    ],
    "imageUrl": "https://lh3.googleusercontent.com/gps-cs-s/AG0ilSwLflr4AM1qzBiXgqrOnNvBK80YzKRIROzHrPTo6njW1RjoirQE8EIyeDkSkVs1DoUVL28E7ikG5yPsbYXyT_l_RPbhZaNDIXO9mdmI8Bq0UvnmIztxZCXETHHgRwzLrvd7ZtDI=w408-h725-k-no",
    "url": "https://www.google.com/maps/search/?api=1&query=Jaguar%20Shiva%20Motocorp&query_place_id=ChIJlY697fnkDDkRxOvf3Ae-oqk"
  },
  {
    "title": "ùóûùóÆùòÄùóµùó∂ ùóßùóøùóÆùòÉùó≤ùóπùòÄ - ùóßùóÆùòÖùó∂ ùó¶ùó≤ùóøùòÉùó∂ùó∞ùó≤ ùó∂ùóª ùó°ùóºùó∂ùó±ùóÆ | ùó¢ùòÇùòÅùòÄùòÅùóÆùòÅùó∂ùóºùóª ùóßùóÆùòÖùó∂ & ùóñùóÆùóØ ùó¶ùó≤ùóøùòÉùó∂ùó∞ùó≤ | ùóßùó≤ùó∫ùóΩùóº ùóßùóøùóÆùòÉùó≤ùóπùóπùó≤ùóø ùó¢ùóª ùó•ùó≤ùóªùòÅ",
    "subTitle": "‡§ï‡§æ‡§∂‡•Ä ‡§Ø‡§æ‡§§‡•ç‡§∞‡§æ",
    "categoryName": "Car rental agency",
    "address": "SK - 396 A, Shramik Kunj, Sector 122, Noida, Uttar Pradesh 201316, India",
    "neighborhood": "Shramik Kunj, Sector 122",
    "street": "SK - 396 A",
    "city": "Noida",
    "postalCode": "201316",
    "state": "Uttar Pradesh",
    "countryCode": "IN",
    "website": "https://www.kashitravels.com/",
    "phone": "+919999662137",
    "phoneUnformatted": "+919999662137",
    "location": {
      "lat": 28.5931056,
      "lng": 77.4049069
    },
    "totalScore": 4.2,
    "permanentlyClosed": false,
    "temporarilyClosed": false,
    "placeId": "ChIJb3cnTArvDDkREvvodPWsYL4",
    "categories": [
      "Car rental agency",
      "Car leasing service",
      "Taxi service",
      "Minibus taxi service"
    ],
    "reviewsCount": 203,
    "imagesCount": 53,
    "openingHours": [],
    "imageUrl": "https://lh3.googleusercontent.com/p/AF1QipO7Slw5t52QCBaVPAtm-DKpJgnK3qWWuHYJVBG4=w408-h544-k-no",
    "url": "https://www.google.com/maps/search/?api=1&query=%F0%9D%97%9E%F0%9D%97%AE%F0%9D%98%80%F0%9D%97%B5%F0%9D%97%B6%20%F0%9D%97%A7%F0%9D%97%BF%F0%9D%97%AE%F0%9D%98%83%F0%9D%97%B2%F0%9D%97%B9%F0%9D%98%80%20-%20%F0%9D%97%A7%F0%9D%97%AE%F0%9D%98%85%F0%9D%97%B6%20%F0%9D%97%A6%F0%9D%97%B2%F0%9D%97%BF%F0%9D%98%83%F0%9D%97%B6%F0%9D%97%B0%F0%9D%97%B2%20%F0%9D%97%B6%F0%9D%97%BB%20%F0%9D%97%A1%F0%9D%97%BC%F0%9D%97%B6%F0%9D%97%B1%F0%9D%97%AE%20%7C%20%F0%9D%97%A2%F0%9D%98%82%F0%9D%98%81%F0%9D%98%80%F0%9D%98%81%F0%9D%97%AE%F0%9D%98%81%F0%9D%97%B6%F0%9D%97%BC%F0%9D%97%BB%20%F0%9D%97%A7%F0%9D%97%AE%F0%9D%98%85%F0%9D%97%B6%20%26%20%F0%9D%97%96%F0%9D%97%AE%F0%9D%97%AF%20%F0%9D%97%A6%F0%9D%97%B2%F0%9D%97%BF%F0%9D%98%83%F0%9D%97%B6%F0%9D%97%B0%F0%9D%97%B2%20%7C%20%F0%9D%97%A7%F0%9D%97%B2%F0%9D%97%BA%F0%9D%97%BD%F0%9D%97%BC%20%F0%9D%97%A7%F0%9D%97%BF%F0%9D%97%AE%F0%9D%98%83%F0%9D%97%B2%F0%9D%97%B9%F0%9D%97%B9%F0%9D%97%B2%F0%9D%97%BF%20%F0%9D%97%A2%F0%9D%97%BB%20%F0%9D%97%A5%F0%9D%97%B2%F0%9D%97%BB%F0%9D%98%81&query_place_id=ChIJb3cnTArvDDkREvvodPWsYL4"
  },
  {
    "title": "Krishna Alliance Tours And Travels ‚Äì Tempo Traveller on Rent in Noida",
    "subTitle": "‡§ï‡•É‡§∑‡•ç‡§£‡§æ ‡§Ö‡§≤‡§æ‡§Ø‡§Ç‡§∏ ‡§ü‡•Ç‡§∞‡•ç‡§∏ ‡§è‡§Ç‡§° ‡§ü‡•ç‡§∞‡•à‡§µ‡§≤‡•ç‡§∏ - ‡§ü‡•á‡§Æ‡•ç‡§™‡•ã ‡§ü‡•ç‡§∞‡•à‡§µ‡§≤‡§∞ ‡§ë‡§® ‡§∞‡•á‡§Ç‡§ü ‡§á‡§® ‡§®‡•ã‡§è‡§°‡§æ",
    "categoryName": "Car rental agency",
    "address": "First Floor, H. No. 02, Chaura Raghunathpur, Raghunathpur, Sector 22, Noida, Uttar Pradesh 201301, India",
    "neighborhood": "Chaura Raghunathpur, Raghunathpur, Sector 22",
    "street": "First Floor, H. No. 02",
    "city": "Noida",
    "postalCode": "201301",
    "state": "Uttar Pradesh",
    "countryCode": "IN",
    "website": "https://www.krishnaalliancetourandtravels.com/",
    "phone": "+917042306843",
    "phoneUnformatted": "+917042306843",
    "location": {
      "lat": 28.5945435,
      "lng": 77.3423103
    },
    "totalScore": 4.9,
    "permanentlyClosed": false,
    "temporarilyClosed": false,
    "placeId": "ChIJAQAAHAblDDkRqORi8gle7UI",
    "categories": [
      "Car rental agency",
      "Bus tour agency",
      "Car leasing service",
      "Minibus taxi service",
      "Taxi service",
      "Tour operator",
      "Travel agency"
    ],
    "reviewsCount": 267,
    "imagesCount": 121,
    "openingHours": [],
    "imageUrl": "https://lh3.googleusercontent.com/p/AF1QipPySE6yH6Z-cvxI0lZUnLRi5p5lGMysSm9lNrPd=w408-h544-k-no",
    "url": "https://www.google.com/maps/search/?api=1&query=Krishna%20Alliance%20Tours%20And%20Travels%20%E2%80%93%20Tempo%20Traveller%20on%20Rent%20in%20Noida&query_place_id=ChIJAQAAHAblDDkRqORi8gle7UI"
  },
  {
    "title": "KTC India - Luxury Car Rental Noida",
    "subTitle": "‡§ï‡•á ‡§ü‡•Ä ‡§∏‡•Ä ‡§á‡§Ç‡§°‡§ø‡§Ø‡§æ - ‡§≤‡§ï‡•ç‡§ú‡§∞‡•Ä ‡§ï‡§æ‡§∞ ‡§∞‡•á‡§Ç‡§ü‡§≤ ‡§®‡•ã‡§è‡§°‡§æ",
    "categoryName": "Car leasing service",
    "address": "F - 41, Block F, Sector 51, Noida, Uttar Pradesh 201301, India",
    "neighborhood": "Block F, Sector 51",
    "street": "F - 41",
    "city": "Noida",
    "postalCode": "201301",
    "state": "Uttar Pradesh",
    "countryCode": "IN",
    "website": "https://www.ktcindia.com/luxury-car-rental-noida.php",
    "phone": "+911142588888",
    "phoneUnformatted": "+911142588888",
    "location": {
      "lat": 28.5834977,
      "lng": 77.3729294
    },
    "totalScore": 4.6,
    "permanentlyClosed": false,
    "temporarilyClosed": false,
    "placeId": "ChIJlY7szrHnDDkRnLyne3hvhk4",
    "categories": [
      "Car leasing service"
    ],
    "reviewsCount": 14,
    "imagesCount": 29,
    "openingHours": [
      {
        "day": "Monday",
        "hours": "Open 24 hours"
      },
      {
        "day": "Tuesday",
        "hours": "Open 24 hours"
      },
      {
        "day": "Wednesday",
        "hours": "Open 24 hours"
      },
      {
        "day": "Thursday",
        "hours": "Open 24 hours"
      },
      {
        "day": "Friday",
        "hours": "Open 24 hours"
      },
      {
        "day": "Saturday",
        "hours": "Open 24 hours"
      },
      {
        "day": "Sunday",
        "hours": "Open 24 hours"
      }
    ],
    "imageUrl": "https://lh3.googleusercontent.com/gps-cs-s/AG0ilSzbx49OeVRiBQm-1MDM1vqJTWQIlb3NloFXCxF343EgMJljmDuiGAnlZtkCBPpe6LpTbR-DtsRuJtx4hvjO1k9P2fVQlAHnJv4peULPaamMPAEmbbAds2SnvcOT3ZfVaq3AsVne=w408-h544-k-no",
    "url": "https://www.google.com/maps/search/?api=1&query=KTC%20India%20-%20Luxury%20Car%20Rental%20Noida&query_place_id=ChIJlY7szrHnDDkRnLyne3hvhk4"
  },
  {
    "title": "Lavish luxury car rental",
    "subTitle": "‡§≤‡•à‡§µ‡§ø‡§∂ ‡§≤‡§ï‡•ç‡§ú‡§∞‡•Ä ‡§ï‡§æ‡§∞ ‡§∞‡•á‡§Ç‡§ü‡§≤",
    "categoryName": "Car leasing service",
    "address": "A 16, A Block, Sector 16, Noida, Uttar Pradesh 201301, India",
    "neighborhood": "A Block, Sector 16",
    "street": "A 16",
    "city": "Noida",
    "postalCode": "201301",
    "state": "Uttar Pradesh",
    "countryCode": "IN",
    "location": {
      "lat": 28.5779992,
      "lng": 77.3143845
    },
    "totalScore": 5,
    "permanentlyClosed": false,
    "temporarilyClosed": false,
    "placeId": "ChIJl4FddgDlDDkRIe8kt1B--6E",
    "categories": [
      "Car leasing service"
    ],
    "reviewsCount": 4,
    "imagesCount": 1,
    "openingHours": [
      {
        "day": "Monday",
        "hours": "9‚ÄØAM to 10‚ÄØPM"
      },
      {
        "day": "Tuesday",
        "hours": "9‚ÄØAM to 10‚ÄØPM"
      },
      {
        "day": "Wednesday",
        "hours": "9‚ÄØAM to 10‚ÄØPM"
      },
      {
        "day": "Thursday",
        "hours": "9‚ÄØAM to 10‚ÄØPM"
      },
      {
        "day": "Friday",
        "hours": "9‚ÄØAM to 10‚ÄØPM"
      },
      {
        "day": "Saturday",
        "hours": "9‚ÄØAM to 10‚ÄØPM"
      },
      {
        "day": "Sunday",
        "hours": "9‚ÄØAM to 10‚ÄØPM"
      }
    ],
    "imageUrl": "https://streetviewpixels-pa.googleapis.com/v1/thumbnail?panoid=U3kMWHwP4sxgeCzyLbwJyg&cb_client=search.gws-prod.gps&w=408&h=240&yaw=219.5905&pitch=0&thumbfov=100",
    "url": "https://www.google.com/maps/search/?api=1&query=Lavish%20luxury%20car%20rental&query_place_id=ChIJl4FddgDlDDkRIe8kt1B--6E"
  },
  {
    "title": "Laxmi Tour & travels(Noida)",
    "subTitle": "‡§≤‡§ï‡•ç‡§∑‡•ç‡§Æ‡•Ä ‡§ü‡•Ç‡§∞ & ‡§ü‡•ç‡§∞‡•á‡§µ‡§≤‡•ç‡§∏",
    "categoryName": "Car leasing service",
    "address": "Near Shramik Kunj SK 1 Shop no. 01 Ground floor, Village, Gejha, Sector 93, Noida, Uttar Pradesh 201304, India",
    "neighborhood": "Gejha, Sector 93",
    "street": "Near Shramik Kunj SK 1 Shop no. 01 Ground floor, Village",
    "city": "Noida",
    "postalCode": "201304",
    "state": "Uttar Pradesh",
    "countryCode": "IN",
    "website": "http://laxmitravelsnoida.com/",
    "phone": "+918800978771",
    "phoneUnformatted": "+918800978771",
    "location": {
      "lat": 28.5231918,
      "lng": 77.3867168
    },
    "totalScore": 4.7,
    "permanentlyClosed": false,
    "temporarilyClosed": false,
    "placeId": "ChIJ7-drlRLpDDkRYV2OmymFKkE",
    "categories": [
      "Car leasing service",
      "Airport shuttle service",
      "Taxi service",
      "Tour agency",
      "Tour operator"
    ],
    "reviewsCount": 74,
    "imagesCount": 234,
    "openingHours": [],
    "imageUrl": "https://lh3.googleusercontent.com/p/AF1QipMWoYkf811LAqT9HscZR5VTrjibABT1Taw7nJ6k=w408-h544-k-no",
    "url": "https://www.google.com/maps/search/?api=1&query=Laxmi%20Tour%20%26%20travels(Noida)&query_place_id=ChIJ7-drlRLpDDkRYV2OmymFKkE"
  },
  {
    "title": "Luxury car for Doli",
    "subTitle": "‡§≤‡§ï‡•ç‡§ú‡§∞‡•Ä ‡§ï‡§æ‡§∞ ‡§´‡•â‡§∞ ‡§°‡•ã‡§≤‡•Ä",
    "categoryName": "Car rental agency",
    "address": "Sector 141, Noida, Uttar Pradesh 201304, India",
    "neighborhood": "Sector 141",
    "city": "Noida",
    "postalCode": "201304",
    "state": "Uttar Pradesh",
    "countryCode": "IN",
    "location": {
      "lat": 28.5052335,
      "lng": 77.4137629
    },
    "totalScore": 5,
    "permanentlyClosed": false,
    "temporarilyClosed": false,
    "placeId": "ChIJF4momi7pDDkRhWgun9mj9dM",
    "categories": [
      "Car rental agency"
    ],
    "reviewsCount": 10,
    "imagesCount": 10,
    "openingHours": [
      {
        "day": "Monday",
        "hours": "Open 24 hours"
      },
      {
        "day": "Tuesday",
        "hours": "Open 24 hours"
      },
      {
        "day": "Wednesday",
        "hours": "Open 24 hours"
      },
      {
        "day": "Thursday",
        "hours": "Open 24 hours"
      },
      {
        "day": "Friday",
        "hours": "Open 24 hours"
      },
      {
        "day": "Saturday",
        "hours": "Open 24 hours"
      },
      {
        "day": "Sunday",
        "hours": "Open 24 hours"
      }
    ],
    "imageUrl": "https://lh3.googleusercontent.com/p/AF1QipOjlTj5IXL7ilxMic7D636yYS4APNubW9KHpxbg=w408-h405-k-no",
    "url": "https://www.google.com/maps/search/?api=1&query=Luxury%20car%20for%20Doli&query_place_id=ChIJF4momi7pDDkRhWgun9mj9dM"
  },
  {
    "title": "Luxury Car Hire Wedding Car Rental",
    "subTitle": "‡§≤‡§ï‡•ç‡§ú‡§∞‡•Ä ‡§ï‡§æ‡§∞ ‡§π‡•Ä‡§∞‡•á ‡§µ‡•á‡§°‡§ø‡§Ç‡§ó ‡§ï‡§æ‡§∞ ‡§∞‡•á‡§Ç‡§ü‡§≤",
    "categoryName": "Car dealer",
    "address": "H8RJ+4JV, C Block, Sector 10, Noida, Uttar Pradesh 201301, India",
    "neighborhood": "C Block, Sector 10",
    "street": "H8RJ+4JV",
    "city": "Noida",
    "postalCode": "201301",
    "state": "Uttar Pradesh",
    "countryCode": "IN",
    "phone": "+919821240456",
    "phoneUnformatted": "+919821240456",
    "location": {
      "lat": 28.5903605,
      "lng": 77.3315426
    },
    "totalScore": 5,
    "permanentlyClosed": false,
    "temporarilyClosed": false,
    "placeId": "ChIJAQAA0P_kDDkRxYUjsmM8zBU",
    "categories": [
      "Car dealer",
      "Car leasing service",
      "Car rental agency",
      "Limousine service",
      "Taxi service",
      "Van rental agency"
    ],
    "reviewsCount": 10,
    "openingHours": [
      {
        "day": "Monday",
        "hours": "8‚ÄØAM to 6‚ÄØPM"
      },
      {
        "day": "Tuesday",
        "hours": "8‚ÄØAM to 6‚ÄØPM"
      },
      {
        "day": "Wednesday",
        "hours": "8‚ÄØAM to 6‚ÄØPM"
      },
      {
        "day": "Thursday",
        "hours": "8‚ÄØAM to 6‚ÄØPM"
      },
      {
        "day": "Friday",
        "hours": "8‚ÄØAM to 6‚ÄØPM"
      },
      {
        "day": "Saturday",
        "hours": "8‚ÄØAM to 6‚ÄØPM"
      },
      {
        "day": "Sunday",
        "hours": "8‚ÄØAM to 6‚ÄØPM"
      }
    ],
    "url": "https://www.google.com/maps/search/?api=1&query=Luxury%20Car%20Hire%20Wedding%20Car%20Rental&query_place_id=ChIJAQAA0P_kDDkRxYUjsmM8zBU"
  },
  {
    "title": "Luxury cars rental Noida | Luxury Car/Audi/Jaguar/Fortuner/ For Doli/For Wedding/On Rent/Mercedes/",
    "subTitle": "‡§≤‡§ï‡•ç‡§ú‡§∞‡•Ä ‡§ï‡§æ‡§∞‡•ç‡§∏ ‡§∞‡•á‡§Ç‡§ü‡§≤ ‡§®‡•ã‡§è‡§°‡§æ | ‡§≤‡§ï‡•ç‡§ú‡§∞‡•Ä ‡§ï‡§æ‡§∞/‡§ë‡§°‡•Ä/‡§ú‡§ó‡•Å‡§Ü‡§∞/‡§´‡•â‡§∞‡•ç‡§ö‡•Ç‡§®‡§∞/ ‡§´‡•â‡§∞ ‡§°‡•ã‡§≤‡•Ä/‡§´‡•â‡§∞ ‡§µ‡•á‡§°‡§ø‡§Ç‡§ó/‡§ì‡§Ç ‡§∞‡•á‡§Ç‡§ü/‡§Æ‡§∞‡•ç‡§∏‡§ø‡§°‡•Ä‡§ú‡§º/",
    "categoryName": "Car rental agency",
    "address": "Gali Number 2, Naya Bans, Naya Bans Village, Sector 15, Noida, Uttar Pradesh 201301, India",
    "neighborhood": "Naya Bans, Naya Bans Village, Sector 15",
    "street": "Gali Number 2",
    "city": "Noida",
    "postalCode": "201301",
    "state": "Uttar Pradesh",
    "countryCode": "IN",
    "website": "https://luxurycarnoida.com/",
    "phone": "+919917560090",
    "phoneUnformatted": "+919917560090",
    "location": {
      "lat": 28.5805758,
      "lng": 77.3125279
    },
    "totalScore": 4.7,
    "permanentlyClosed": false,
    "temporarilyClosed": false,
    "placeId": "ChIJNVVVhVzkDDkR1zrENfw6FhY",
    "categories": [
      "Car rental agency",
      "Car leasing service",
      "Wedding planner",
      "Wedding service"
    ],
    "reviewsCount": 82,
    "imagesCount": 45,
    "openingHours": [
      {
        "day": "Monday",
        "hours": "Open 24 hours"
      },
      {
        "day": "Tuesday",
        "hours": "Open 24 hours"
      },
      {
        "day": "Wednesday",
        "hours": "Open 24 hours"
      },
      {
        "day": "Thursday",
        "hours": "Open 24 hours"
      },
      {
        "day": "Friday",
        "hours": "Open 24 hours"
      },
      {
        "day": "Saturday",
        "hours": "Open 24 hours"
      },
      {
        "day": "Sunday",
        "hours": "Open 24 hours"
      }
    ],
    "imageUrl": "https://lh3.googleusercontent.com/p/AF1QipPBZ319vhh7qfqccHOuL241ndL8oW7Ky4lNM2s5=w408-h419-k-no",
    "url": "https://www.google.com/maps/search/?api=1&query=Luxury%20cars%20rental%20Noida%20%7C%20Luxury%20Car%2FAudi%2FJaguar%2FFortuner%2F%20For%20Doli%2FFor%20Wedding%2FOn%20Rent%2FMercedes%2F&query_place_id=ChIJNVVVhVzkDDkR1zrENfw6FhY"
  },
  {
    "title": "Maan Tour And Travels",
    "subTitle": "‡§Æ‡§æ‡§® ‡§ü‡•Ç‡§∞ ‡§è‡§Ç‡§° ‡§ü‡•ç‡§∞‡•à‡§µ‡§≤‡•ç‡§∏",
    "categoryName": "Car leasing service",
    "address": "Shop No 9&10, JS Tyagi Market, Gejha, Sector 93, Noida, Uttar Pradesh 201304, India",
    "neighborhood": "Gejha, Sector 93",
    "street": "Shop No 9&10, JS Tyagi Market",
    "city": "Noida",
    "postalCode": "201304",
    "state": "Uttar Pradesh",
    "countryCode": "IN",
    "location": {
      "lat": 28.5213705,
      "lng": 77.3862741
    },
    "totalScore": 4.8,
    "permanentlyClosed": false,
    "temporarilyClosed": false,
    "placeId": "ChIJieBvbePpDDkRoK8sjUcrDhc",
    "categories": [
      "Car leasing service",
      "Bus tour agency",
      "Taxi service",
      "Minibus taxi service"
    ],
    "reviewsCount": 52,
    "imagesCount": 24,
    "openingHours": [],
    "imageUrl": "https://lh3.googleusercontent.com/gps-cs-s/AG0ilSz8zcolY8QyL_ODwe9st6pjaEIQOEWizPQPyEf-LoenVoxnO8Zvy98_yszJ-oOUVV2Nw0ju5yyjaygtq0AY0w85-sfLa4T2id48E0gTH52XC_wk_-BuUaNt05yFR3PMbR8PKy0LS_Zw9WHW=w533-h240-k-no",
    "url": "https://www.google.com/maps/search/?api=1&query=Maan%20Tour%20And%20Travels&query_place_id=ChIJieBvbePpDDkRoK8sjUcrDhc"
  },
  {
    "title": "Mercedes-Benz Silver Arrows Noida",
    "subTitle": "‡§Æ‡§∞‡•ç‡§∏‡§ø‡§°‡•Ä‡§ú-‡§¨‡•á‡§Ç‡§ú ‡§∏‡§ø‡§≤‡•ç‡§µ‡§∞ ‡§è‡§∞‡•ã‡§ú ‡§®‡•ã‡§è‡§°‡§æ",
    "categoryName": "Mercedes-Benz dealer",
    "address": "D7, Dallupura Rd, opposite Sahara India Financial Corporation Ltd, Rajat Vihar, D Block, Sector 8, Noida, Uttar Pradesh 201301, India",
    "neighborhood": "Rajat Vihar, D Block, Sector 8",
    "street": "D7, Dallupura Rd, opposite Sahara India Financial Corporation Ltd",
    "city": "Noida",
    "postalCode": "201301",
    "state": "Uttar Pradesh",
    "countryCode": "IN",
    "website": "https://www.silverarrows.mercedes-benz.co.in/",
    "phone": "+919999200500",
    "phoneUnformatted": "+919999200500",
    "location": {
      "lat": 28.595689,
      "lng": 77.3304519
    },
    "totalScore": 4.7,
    "permanentlyClosed": false,
    "temporarilyClosed": false,
    "placeId": "ChIJAU_PAf3kDDkRvRC6eXiosRo",
    "categories": [
      "Mercedes-Benz dealer",
      "Auto repair shop",
      "Car accessories store",
      "Car dealer",
      "Chauffeur service"
    ],
    "reviewsCount": 2265,
    "imagesCount": 666,
    "openingHours": [
      {
        "day": "Monday",
        "hours": "10‚ÄØAM to 7:30‚ÄØPM"
      },
      {
        "day": "Tuesday",
        "hours": "10‚ÄØAM to 7:30‚ÄØPM"
      },
      {
        "day": "Wednesday",
        "hours": "10‚ÄØAM to 7:30‚ÄØPM"
      },
      {
        "day": "Thursday",
        "hours": "10‚ÄØAM to 7:30‚ÄØPM"
      },
      {
        "day": "Friday",
        "hours": "10‚ÄØAM to 7:30‚ÄØPM"
      },
      {
        "day": "Saturday",
        "hours": "10‚ÄØAM to 7:30‚ÄØPM"
      },
      {
        "day": "Sunday",
        "hours": "10‚ÄØAM to 7:30‚ÄØPM"
      }
    ],
    "imageUrl": "https://lh3.googleusercontent.com/p/AF1QipMur5Vnsjo2qq_pjUmmwxGtVYvFVOHoK3KrQjAC=w480-h240-k-no",
    "url": "https://www.google.com/maps/search/?api=1&query=Mercedes-Benz%20Silver%20Arrows%20Noida&query_place_id=ChIJAU_PAf3kDDkRvRC6eXiosRo"
  },
  {
    "title": "Mithila tempo traveller in noida",
    "subTitle": "‡§Æ‡§ø‡§•‡§ø‡§≤‡§æ ‡§ü‡•à‡§ï‡•ç‡§∏‡•Ä",
    "categoryName": "Car rental agency",
    "address": "Flat no 381, A sector 122, Shramik Kunj, Sector 122, Noida, Uttar Pradesh 201304, India",
    "neighborhood": "Shramik Kunj, Sector 122",
    "street": "Flat no 381, A sector 122",
    "city": "Noida",
    "postalCode": "201304",
    "state": "Uttar Pradesh",
    "countryCode": "IN",
    "website": "https://www.mithilataxiservice.in/",
    "phone": "+918826268705",
    "phoneUnformatted": "+918826268705",
    "location": {
      "lat": 28.5942802,
      "lng": 77.4031981
    },
    "totalScore": 4.5,
    "permanentlyClosed": false,
    "temporarilyClosed": false,
    "placeId": "ChIJg9ruIwzlDDkREB7u9KA5dWE",
    "categories": [
      "Car rental agency",
      "Bus tour agency",
      "Minibus taxi service"
    ],
    "reviewsCount": 228,
    "imagesCount": 166,
    "openingHours": [],
    "imageUrl": "https://lh3.googleusercontent.com/p/AF1QipPefdcUcwzkeXdr6sQcDiyW7t5mZtPiAZrCI2xA=w426-h240-k-no",
    "url": "https://www.google.com/maps/search/?api=1&query=Mithila%20tempo%20traveller%20in%20noida&query_place_id=ChIJg9ruIwzlDDkREB7u9KA5dWE"
  },
  {
    "title": "Mohan Bros Nizamuddin",
    "subTitle": "‡§Æ‡•ã‡§π‡§® ‡§¨‡•ç‡§∞‡•ã‡§∏ ‡§®‡§ø‡§ú‡§æ‡§Æ‡•Å‡§¶‡•ç‡§¶‡•Ä‡§®",
    "categoryName": "Car rental agency",
    "address": "VDS-5, near Petrol Pump, Block D, Sector 44, Noida, Uttar Pradesh 201303, India",
    "neighborhood": "Block D, Sector 44",
    "street": "VDS-5, near Petrol Pump",
    "city": "Noida",
    "postalCode": "201303",
    "state": "Uttar Pradesh",
    "countryCode": "IN",
    "website": "http://www.mohanbros.com/",
    "phone": "+919971972266",
    "phoneUnformatted": "+919971972266",
    "location": {
      "lat": 28.560678,
      "lng": 77.339078
    },
    "totalScore": 3.7,
    "permanentlyClosed": false,
    "temporarilyClosed": false,
    "placeId": "ChIJAQAAAFTkDDkRjvIYBE5d9QE",
    "categories": [
      "Car rental agency",
      "Bus charter",
      "Bus company",
      "Travel agency"
    ],
    "reviewsCount": 20,
    "imagesCount": 14,
    "openingHours": [
      {
        "day": "Monday",
        "hours": "Open 24 hours"
      },
      {
        "day": "Tuesday",
        "hours": "Open 24 hours"
      },
      {
        "day": "Wednesday",
        "hours": "Open 24 hours"
      },
      {
        "day": "Thursday",
        "hours": "Open 24 hours"
      },
      {
        "day": "Friday",
        "hours": "Open 24 hours"
      },
      {
        "day": "Saturday",
        "hours": "Open 24 hours"
      },
      {
        "day": "Sunday",
        "hours": "Open 24 hours"
      }
    ],
    "imageUrl": "https://lh3.googleusercontent.com/gps-cs-s/AG0ilSyUnncCSceD1KvFmxQ-eUYgFu-2GlJiJD7BdTIJbJHT6WrUiZKgbZOvafA3uMgLOX1PEIsh7CiNIy4kxYPbBniYJNFsfaBUoXbHkCYrJ1Zhi7xCR1AegLlmsKgVFcRBDHb3LfCrXA=w408-h544-k-no",
    "url": "https://www.google.com/maps/search/?api=1&query=Mohan%20Bros%20Nizamuddin&query_place_id=ChIJAQAAAFTkDDkRjvIYBE5d9QE"
  },
  {
    "title": "Mototraders",
    "subTitle": "‡§Æ‡•ã‡§ü‡•ã‡§ü‡•ç‡§∞‡•á‡§°‡§∞‡•ç‡§∏",
    "categoryName": "Car dealer",
    "address": "HA-18, Gate Number 1, near footprint school, Block A, Sector 104, Noida, Uttar Pradesh 201304, India",
    "neighborhood": "Block A, Sector 104",
    "street": "HA-18, Gate Number 1, near footprint school",
    "city": "Noida",
    "postalCode": "201304",
    "state": "Uttar Pradesh",
    "countryCode": "IN",
    "phone": "+919810044228",
    "phoneUnformatted": "+919810044228",
    "location": {
      "lat": 28.534821,
      "lng": 77.3661625
    },
    "totalScore": 4.8,
    "permanentlyClosed": false,
    "temporarilyClosed": false,
    "placeId": "ChIJHcLQJ-jnDDkRFFbedeB-we4",
    "categories": [
      "Car dealer"
    ],
    "reviewsCount": 12,
    "imagesCount": 214,
    "openingHours": [
      {
        "day": "Monday",
        "hours": "10‚ÄØAM to 9‚ÄØPM"
      },
      {
        "day": "Tuesday",
        "hours": "10‚ÄØAM to 9‚ÄØPM"
      },
      {
        "day": "Wednesday",
        "hours": "10‚ÄØAM to 9‚ÄØPM"
      },
      {
        "day": "Thursday",
        "hours": "10‚ÄØAM to 9‚ÄØPM"
      },
      {
        "day": "Friday",
        "hours": "10‚ÄØAM to 9‚ÄØPM"
      },
      {
        "day": "Saturday",
        "hours": "10‚ÄØAM to 9‚ÄØPM"
      },
      {
        "day": "Sunday",
        "hours": "10‚ÄØAM to 9‚ÄØPM"
      }
    ],
    "imageUrl": "https://lh3.googleusercontent.com/p/AF1QipMk-REZa27xGEHh2slEiLai2rNWTfxZqYLQWbrr=w408-h544-k-no",
    "url": "https://www.google.com/maps/search/?api=1&query=Mototraders&query_place_id=ChIJHcLQJ-jnDDkRFFbedeB-we4"
  },
  {
    "title": "Noida Car Bazaar | Sell & Buy Second Hand Cars In Noida",
    "subTitle": "‡§®‡•ã‡§è‡§°‡§æ ‡§ï‡§æ‡§∞ ‡§¨‡§æ‡§ú‡§º‡§æ‡§∞ | ‡§∏‡•á‡§≤ & ‡§¨‡•Ä ‡§∏‡•á‡§ï‡§Ç‡§° ‡§π‡•à‡§Ç‡§° ‡§ï‡§æ‡§∞‡•ç‡§∏ ‡§á‡§® ‡§®‡•ã‡§è‡§°‡§æ",
    "categoryName": "Used car dealer",
    "address": "Shop No. 119, Spice World Mall, Town Centre, Sector 25A, Noida, Uttar Pradesh 201307, India",
    "neighborhood": "Town Centre, Sector 25A",
    "street": "Shop No. 119, Spice World Mall",
    "city": "Noida",
    "postalCode": "201307",
    "state": "Uttar Pradesh",
    "countryCode": "IN",
    "website": "https://indiacarbazaar.com/?utm_source=gmb&utm_medium=website&utm_campaign=gmb-listing",
    "phone": "+919811045021",
    "phoneUnformatted": "+919811045021",
    "location": {
      "lat": 28.5861829,
      "lng": 77.3410855
    },
    "totalScore": 4.4,
    "permanentlyClosed": false,
    "temporarilyClosed": false,
    "placeId": "ChIJwXedef3lDDkRk26LKTpwQIo",
    "categories": [
      "Used car dealer",
      "Auto broker",
      "Auto market",
      "Car dealer",
      "Motor vehicle dealer"
    ],
    "reviewsCount": 12,
    "imagesCount": 3,
    "openingHours": [
      {
        "day": "Monday",
        "hours": "11‚ÄØAM to 7‚ÄØPM"
      },
      {
        "day": "Tuesday",
        "hours": "11‚ÄØAM to 7‚ÄØPM"
      },
      {
        "day": "Wednesday",
        "hours": "11‚ÄØAM to 7‚ÄØPM"
      },
      {
        "day": "Thursday",
        "hours": "11‚ÄØAM to 7‚ÄØPM"
      },
      {
        "day": "Friday",
        "hours": "11‚ÄØAM to 7‚ÄØPM"
      },
      {
        "day": "Saturday",
        "hours": "11‚ÄØAM to 7‚ÄØPM"
      },
      {
        "day": "Sunday",
        "hours": "Closed"
      }
    ],
    "imageUrl": "https://lh3.googleusercontent.com/p/AF1QipOmZyicAVtI7wj_P2cjL1JsJYWYMdzDVL2mirND=w408-h408-k-no",
    "url": "https://www.google.com/maps/search/?api=1&query=Noida%20Car%20Bazaar%20%7C%20Sell%20%26%20Buy%20Second%20Hand%20Cars%20In%20Noida&query_place_id=ChIJwXedef3lDDkRk26LKTpwQIo"
  },
  {
    "title": "Noida Motors",
    "subTitle": "‡§®‡•ã‡§è‡§°‡§æ ‡§Æ‡•ã‡§ü‡§∞‡•ç‡§∏",
    "categoryName": "Used car dealer",
    "address": "Gulmohar Commercial Complex, SS- 02, near Metro Station, A Block, Sector 15, Noida, Uttar Pradesh 201301, India",
    "neighborhood": "A Block, Sector 15",
    "street": "Gulmohar Commercial Complex, SS- 02, near Metro Station",
    "city": "Noida",
    "postalCode": "201301",
    "state": "Uttar Pradesh",
    "countryCode": "IN",
    "phone": "+919810087014",
    "phoneUnformatted": "+919810087014",
    "location": {
      "lat": 28.5834043,
      "lng": 77.3122752
    },
    "totalScore": 4.5,
    "permanentlyClosed": false,
    "temporarilyClosed": false,
    "placeId": "ChIJ87ccaF7kDDkRy5TvZfTr5C4",
    "categories": [
      "Used car dealer"
    ],
    "reviewsCount": 11,
    "imagesCount": 9,
    "openingHours": [
      {
        "day": "Monday",
        "hours": "10‚ÄØAM to 7‚ÄØPM"
      },
      {
        "day": "Tuesday",
        "hours": "10‚ÄØAM to 7‚ÄØPM"
      },
      {
        "day": "Wednesday",
        "hours": "10‚ÄØAM to 7‚ÄØPM"
      },
      {
        "day": "Thursday",
        "hours": "10‚ÄØAM to 7‚ÄØPM"
      },
      {
        "day": "Friday",
        "hours": "10‚ÄØAM to 7‚ÄØPM"
      },
      {
        "day": "Saturday",
        "hours": "10‚ÄØAM to 7‚ÄØPM"
      },
      {
        "day": "Sunday",
        "hours": "10‚ÄØAM to 7‚ÄØPM"
      }
    ],
    "imageUrl": "https://lh3.googleusercontent.com/gps-proxy/ALd4DhGn_T2pf3pLp1AxAsHhdrboZO2WuqCtH6LGvQqB7XkZw0G9zazkaXODpSFR9fqeXRQE9nxrfRDBFekMfiBWW1j-kqN9kG81sSGO0NeexgC10FGIbzUBqz40XBhfkx9hvealugisUYAcp9tssXFMneugrVUrmyTXnIgZug0CgaSsZn8TaUr8erOejEmdG2WiZh1MPGU=w408-h725-k-no",
    "url": "https://www.google.com/maps/search/?api=1&query=Noida%20Motors&query_place_id=ChIJ87ccaF7kDDkRy5TvZfTr5C4"
  },
  {
    "title": "Onyxaa Noida | Car Detailing | Ceramic Coating | Graphene Coating | Borophene Coating | Best Car Detailing shop in Noida",
    "subTitle": "‡§ì‡§®‡§ø‡§ï‡§æ ‡§®‡•ã‡§è‡§°‡§æ | ‡§ï‡§æ‡§∞ ‡§°‡§ø‡§ü‡•á‡§≤‡§ø‡§Ç‡§ó | ‡§∏‡•á‡§∞‡•á‡§Æ‡§ø‡§ï ‡§ï‡•ã‡§ü‡§ø‡§Ç‡§ó | ‡§ó‡•ç‡§∞‡§æ‡§´‡•Ä‡§® ‡§ï‡•ã‡§ü‡§ø‡§Ç‡§ó | ‡§¨‡•ã‡§∞‡•ã‡§´‡•á‡§® ‡§ï‡•ã‡§ü‡§ø‡§Ç‡§ó | ‡§¨‡•á‡§∏‡•ç‡§ü ‡§ï‡§æ‡§∞ ‡§°‡§ø‡§ü‡•á‡§≤‡§ø‡§Ç‡§ó ‡§∂‡•â‡§™ ‡§á‡§® ‡§®‡•ã‡§è‡§°‡§æ",
    "categoryName": "Car wash",
    "address": "B-82, Block A, Sector 60, Noida, Uttar Pradesh 201301, India",
    "neighborhood": "Block A, Sector 60",
    "street": "B-82",
    "city": "Noida",
    "postalCode": "201301",
    "state": "Uttar Pradesh",
    "countryCode": "IN",
    "website": "https://www.satyaservices.net/",
    "phone": "+919717894250",
    "phoneUnformatted": "+919717894250",
    "location": {
      "lat": 28.6023133,
      "lng": 77.3669156
    },
    "totalScore": 4.4,
    "permanentlyClosed": false,
    "temporarilyClosed": false,
    "placeId": "ChIJSWiLp3rlDDkR5Xwbzz_kF_c",
    "categories": [
      "Car wash",
      "Auto body shop",
      "Auto painting",
      "Auto restoration service",
      "Painting"
    ],
    "reviewsCount": 170,
    "imagesCount": 224,
    "openingHours": [
      {
        "day": "Monday",
        "hours": "9‚ÄØAM to 5‚ÄØPM"
      },
      {
        "day": "Tuesday",
        "hours": "10:30‚ÄØAM to 7‚ÄØPM"
      },
      {
        "day": "Wednesday",
        "hours": "10:30‚ÄØAM to 7‚ÄØPM"
      },
      {
        "day": "Thursday",
        "hours": "10:30‚ÄØAM to 7‚ÄØPM"
      },
      {
        "day": "Friday",
        "hours": "10:30‚ÄØAM to 7‚ÄØPM"
      },
      {
        "day": "Saturday",
        "hours": "10:30‚ÄØAM to 7‚ÄØPM"
      },
      {
        "day": "Sunday",
        "hours": "10:30‚ÄØAM to 7‚ÄØPM"
      }
    ],
    "imageUrl": "https://lh3.googleusercontent.com/gps-cs-s/AG0ilSxGgk3Uz8nHaidBtU4Omrqx1B1AtgsG5JAJN05fyBQkf17LcrUJKarI7AQGg0rsr-b8QOxTQf4TNhMOBwQbuEX32WhZOpX4a_8JUIulnfj0TgB3IpDmAuGcCDJ8pSaUSuI_WYg=w408-h546-k-no",
    "url": "https://www.google.com/maps/search/?api=1&query=Onyxaa%20Noida%20%7C%20Car%20Detailing%20%7C%20Ceramic%20Coating%20%7C%20Graphene%20Coating%20%7C%20Borophene%20Coating%20%7C%20Best%20Car%20Detailing%20shop%20in%20Noida&query_place_id=ChIJSWiLp3rlDDkR5Xwbzz_kF_c"
  },
  {
    "title": "Raghav Cab Service",
    "subTitle": "‡§∞‡§æ‡§ò‡§µ ‡§ü‡•à‡§ï‡•ç‡§∏‡•Ä ‡§∏‡•á‡§µ‡§æ",
    "categoryName": "Car rental agency",
    "address": "B 275, Rajput Colony, Natthu Colony, Baraula, Sector 49, Noida, Uttar Pradesh 201304, India",
    "neighborhood": "Rajput Colony, Natthu Colony, Baraula, Sector 49",
    "street": "B 275",
    "city": "Noida",
    "postalCode": "201304",
    "state": "Uttar Pradesh",
    "countryCode": "IN",
    "website": "https://raghavcabservice.mystrikingly.com/",
    "phone": "+919716920797",
    "phoneUnformatted": "+919716920797",
    "location": {
      "lat": 28.5609042,
      "lng": 77.3738625
    },
    "totalScore": 4.6,
    "permanentlyClosed": false,
    "temporarilyClosed": false,
    "placeId": "ChIJqwlU3vblDDkR2RlO-9N2cR8",
    "categories": [
      "Car rental agency",
      "Car leasing service",
      "Taxi service",
      "Minibus taxi service",
      "Rental car return location",
      "Tour operator",
      "Travel agency"
    ],
    "reviewsCount": 129,
    "imagesCount": 52,
    "openingHours": [],
    "imageUrl": "https://lh3.googleusercontent.com/p/AF1QipPZSsvs7S-Zj8qJDRdtETFxnoGGFl7isPCmsq8Q=w781-h240-k-no",
    "url": "https://www.google.com/maps/search/?api=1&query=Raghav%20Cab%20Service&query_place_id=ChIJqwlU3vblDDkR2RlO-9N2cR8"
  },
  {
    "title": "Salman rent a car",
    "subTitle": "‡§∏‡§≤‡§Æ‡§æ‡§® ‡§∞‡•á‡§Ç‡§ü ‡§è ‡§ï‡§æ‡§∞",
    "categoryName": "Car rental agency",
    "address": "Hazipur, Sector 104, Noida, Uttar Pradesh 201301, India",
    "neighborhood": "Hazipur, Sector 104",
    "city": "Noida",
    "postalCode": "201301",
    "state": "Uttar Pradesh",
    "countryCode": "IN",
    "website": "https://salmanrentacar.com/",
    "phone": "+919971754510",
    "phoneUnformatted": "+919971754510",
    "location": {
      "lat": 28.5399511,
      "lng": 77.3693549
    },
    "totalScore": 4.9,
    "permanentlyClosed": false,
    "temporarilyClosed": false,
    "placeId": "ChIJp3zBIgznDDkRvnJrNDy6-aM",
    "categories": [
      "Car rental agency"
    ],
    "reviewsCount": 30,
    "imagesCount": 27,
    "openingHours": [
      {
        "day": "Monday",
        "hours": "Open 24 hours"
      },
      {
        "day": "Tuesday",
        "hours": "Open 24 hours"
      },
      {
        "day": "Wednesday",
        "hours": "Open 24 hours"
      },
      {
        "day": "Thursday",
        "hours": "Open 24 hours"
      },
      {
        "day": "Friday",
        "hours": "Open 24 hours"
      },
      {
        "day": "Saturday",
        "hours": "Open 24 hours"
      },
      {
        "day": "Sunday",
        "hours": "Open 24 hours"
      }
    ],
    "imageUrl": "https://lh3.googleusercontent.com/gps-cs-s/AG0ilSycJvTX4DNKPs577akU80QT3Pb8yEI2ny47wgMFzSpxcRce5vwVbyDuHfR75W04-mWvHTkrXJGmZN59MEJmaiBi-jK_0VB2ynSzD3YER86bc-qet1kRrnte4ghfnD9VgBWmAZRC=w408-h269-k-no",
    "url": "https://www.google.com/maps/search/?api=1&query=Salman%20rent%20a%20car&query_place_id=ChIJp3zBIgznDDkRvnJrNDy6-aM"
  },
  {
    "title": "SHUBHAM TOUR TRAVELS",
    "subTitle": "‡§∂‡•Å‡§≠‡§Æ‡•ç ‡§ü‡•Ç‡§∞ ‡§ü‡•ç‡§∞‡•à‡§µ‡§≤‡•ç‡§∏",
    "categoryName": "Car leasing service",
    "address": "SEC 73, NOIDA, near GLOBAL INDIAN INTERNATIONAL SCHOOL, Sarfabad, Sector 73, Noida, Uttar Pradesh 201316, India",
    "neighborhood": "Sarfabad, Sector 73",
    "street": "SEC 73, NOIDA, near GLOBAL INDIAN INTERNATIONAL SCHOOL",
    "city": "Noida",
    "postalCode": "201316",
    "state": "Uttar Pradesh",
    "countryCode": "IN",
    "phone": "+919711652993",
    "phoneUnformatted": "+919711652993",
    "location": {
      "lat": 28.5916008,
      "lng": 77.3807654
    },
    "totalScore": 4.6,
    "permanentlyClosed": false,
    "temporarilyClosed": false,
    "placeId": "ChIJrW3FDpvvDDkRAY0nzZQfIkc",
    "categories": [
      "Car leasing service",
      "Taxi service"
    ],
    "reviewsCount": 5,
    "imagesCount": 19,
    "openingHours": [],
    "imageUrl": "https://lh3.googleusercontent.com/p/AF1QipPTJPgMRe-s9ScmTozjmJ8fsW6NGhwvKZ_k3vgd=w408-h299-k-no",
    "url": "https://www.google.com/maps/search/?api=1&query=SHUBHAM%20TOUR%20TRAVELS&query_place_id=ChIJrW3FDpvvDDkRAY0nzZQfIkc"
  },
  {
    "title": "Sky Way Self Drive",
    "subTitle": "‡§∏‡•ç‡§ï‡§æ‡§à ‡§µ‡•á ‡§∏‡•á‡§≤‡•ç‡§´ ‡§°‡•ç‡§∞‡§æ‡§á‡§µ",
    "categoryName": "Car rental agency",
    "address": "Shivani Homes, Gali Number 2, Sainik Vihar, mamura, sector 66, Noida, Uttar Pradesh 201020, India",
    "neighborhood": "Sainik Vihar, mamura, sector 66",
    "street": "Shivani Homes, Gali Number 2",
    "city": "Noida",
    "postalCode": "201020",
    "state": "Uttar Pradesh",
    "countryCode": "IN",
    "website": "https://www.skywayselfdrive.com/",
    "phone": "+917703920518",
    "phoneUnformatted": "+917703920518",
    "location": {
      "lat": 28.6272963,
      "lng": 77.3482819
    },
    "totalScore": 4.6,
    "permanentlyClosed": false,
    "temporarilyClosed": false,
    "placeId": "ChIJnwX8JPnlDDkRI1oukjcaTpE",
    "categories": [
      "Car rental agency"
    ],
    "reviewsCount": 63,
    "imagesCount": 7,
    "openingHours": [
      {
        "day": "Monday",
        "hours": "9‚ÄØAM to 10‚ÄØPM"
      },
      {
        "day": "Tuesday",
        "hours": "9‚ÄØAM to 10‚ÄØPM"
      },
      {
        "day": "Wednesday",
        "hours": "9‚ÄØAM to 10‚ÄØPM"
      },
      {
        "day": "Thursday",
        "hours": "9‚ÄØAM to 10‚ÄØPM"
      },
      {
        "day": "Friday",
        "hours": "9‚ÄØAM to 10‚ÄØPM"
      },
      {
        "day": "Saturday",
        "hours": "9‚ÄØAM to 5‚ÄØPM"
      },
      {
        "day": "Sunday",
        "hours": "9‚ÄØAM to 5‚ÄØPM"
      }
    ],
    "imageUrl": "https://lh3.googleusercontent.com/gps-cs-s/AG0ilSxCZG9iUAp1hCsmKsg7DB5AjQM-YHBqXMT66OJ2DaUD8z-9DQgZMdoqeeL9WbUD6EQz2K8nlshxDH6jCgPrLv3Qgk5HiXN2v1m2fXDfOZBBOBTrEgEAK-MU35CJPcIxBFHbUoQmluEPsCLB=w408-h544-k-no",
    "url": "https://www.google.com/maps/search/?api=1&query=Sky%20Way%20Self%20Drive&query_place_id=ChIJnwX8JPnlDDkRI1oukjcaTpE"
  },
  {
    "title": "SPACE COUPE AUTOMOBILE PRE-OWNED LUXURY & SPORT CARS, BIKES.",
    "subTitle": "‡§∏‡•ç‡§™‡•á‡§∏ ‡§ï‡•Ç‡§™‡•á ‡§ë‡§ü‡•ã‡§Æ‡•ã‡§¨‡§æ‡§á‡§≤ ‡§™‡•ç‡§∞‡•Ä-‡§ì‡§®‡•ç‡§° ‡§≤‡§ï‡•ç‡§ú‡§∞‡•Ä & ‡§∏‡•ç‡§™‡•ã‡§∞‡•ç‡§ü ‡§ï‡§æ‡§∞‡•ç‡§∏, ‡§¨‡§æ‡§á‡§ï‡•ç‡§∏.",
    "categoryName": "Used car dealer",
    "address": "Sector 18, Noida, Uttar Pradesh 201301, India",
    "neighborhood": "Sector 18",
    "city": "Noida",
    "postalCode": "201301",
    "state": "Uttar Pradesh",
    "countryCode": "IN",
    "website": "https://spacecoupeautomobile.com/",
    "phone": "+918285728233",
    "phoneUnformatted": "+918285728233",
    "location": {
      "lat": 28.5676636,
      "lng": 77.3202876
    },
    "totalScore": 5,
    "permanentlyClosed": false,
    "temporarilyClosed": false,
    "placeId": "ChIJy3f-y4jlDDkRi4XtywxWqVM",
    "categories": [
      "Used car dealer"
    ],
    "reviewsCount": 2,
    "imagesCount": 2,
    "openingHours": [
      {
        "day": "Monday",
        "hours": "Open 24 hours"
      },
      {
        "day": "Tuesday",
        "hours": "Open 24 hours"
      },
      {
        "day": "Wednesday",
        "hours": "Open 24 hours"
      },
      {
        "day": "Thursday",
        "hours": "Open 24 hours"
      },
      {
        "day": "Friday",
        "hours": "Open 24 hours"
      },
      {
        "day": "Saturday",
        "hours": "Open 24 hours"
      },
      {
        "day": "Sunday",
        "hours": "Open 24 hours"
      }
    ],
    "imageUrl": "https://streetviewpixels-pa.googleapis.com/v1/thumbnail?panoid=tmwCWJi8kTPqwB7Q-gIIdg&cb_client=search.gws-prod.gps&w=408&h=240&yaw=74.685&pitch=0&thumbfov=100",
    "url": "https://www.google.com/maps/search/?api=1&query=SPACE%20COUPE%20AUTOMOBILE%20PRE-OWNED%20LUXURY%20%26%20SPORT%20CARS%2C%20BIKES.&query_place_id=ChIJy3f-y4jlDDkRi4XtywxWqVM"
  },
  {
    "title": "Star Auto Noida",
    "subTitle": "‡§∏‡•ç‡§ü‡§æ‡§∞ ‡§ë‡§ü‡•ã ‡§™‡•ç‡§∞‡§æ‡§á‡§µ‡•á‡§ü ‡§≤‡§ø‡§Æ‡§ø‡§ü‡•á‡§°",
    "categoryName": "Auto repair shop",
    "address": "D-134, near Noida stadium, D Block, Sector 10, Noida, Uttar Pradesh 201301, India",
    "neighborhood": "D Block, Sector 10",
    "street": "D-134, near Noida stadium",
    "city": "Noida",
    "postalCode": "201301",
    "state": "Uttar Pradesh",
    "countryCode": "IN",
    "website": "http://www.starautonoida.com/",
    "phone": "+919910700178",
    "phoneUnformatted": "+919910700178",
    "location": {
      "lat": 28.5907265,
      "lng": 77.3335338
    },
    "totalScore": 4.3,
    "permanentlyClosed": false,
    "temporarilyClosed": false,
    "placeId": "ChIJlRt01AblDDkR6h1d9lBqfD8",
    "categories": [
      "Auto repair shop",
      "Auto body shop",
      "Auto electrical service",
      "Used car dealer"
    ],
    "reviewsCount": 37,
    "imagesCount": 9,
    "openingHours": [
      {
        "day": "Monday",
        "hours": "9:30‚ÄØAM to 8‚ÄØPM"
      },
      {
        "day": "Tuesday",
        "hours": "9:30‚ÄØAM to 8‚ÄØPM"
      },
      {
        "day": "Wednesday",
        "hours": "9:30‚ÄØAM to 8‚ÄØPM"
      },
      {
        "day": "Thursday",
        "hours": "9:30‚ÄØAM to 8‚ÄØPM"
      },
      {
        "day": "Friday",
        "hours": "9:30‚ÄØAM to 8‚ÄØPM"
      },
      {
        "day": "Saturday",
        "hours": "9:30‚ÄØAM to 8‚ÄØPM"
      },
      {
        "day": "Sunday",
        "hours": "9:30‚ÄØAM to 3‚ÄØPM"
      }
    ],
    "imageUrl": "https://lh3.googleusercontent.com/gps-cs-s/AG0ilSyaaM8ZEQ-XhcNpp0bv7XLqLpiglkNePak8vKCxjWXUpaXrYtcnSpai-b9EQd10oRpoQNCZkezK9LI7ll-IgloRkvt6SphC5m0dazQg4mR2y77pGRH94fZs_ie4Pj0ouBHSh05h=w426-h240-k-no",
    "url": "https://www.google.com/maps/search/?api=1&query=Star%20Auto%20Noida&query_place_id=ChIJlRt01AblDDkR6h1d9lBqfD8"
  },
  {
    "title": "Star Tour & Travels",
    "subTitle": "‡§∏‡•ç‡§ü‡§æ‡§∞ ‡§ü‡•Ç‡§∞ & ‡§ü‡•ç‡§∞‡•à‡§µ‡§≤‡•ç‡§∏",
    "categoryName": "Car rental agency",
    "address": "Office No.- 103 First Floor, A-140, A Block, Sector 63, Noida, Uttar Pradesh 201309, India",
    "neighborhood": "A Block, Sector 63",
    "street": "Office No.- 103 First Floor, A-140",
    "city": "Noida",
    "postalCode": "201309",
    "state": "Uttar Pradesh",
    "countryCode": "IN",
    "website": "https://startourtravels.in/star-tour-and-travels-noida/",
    "phone": "+919891727522",
    "phoneUnformatted": "+919891727522",
    "location": {
      "lat": 28.6199888,
      "lng": 77.3776965
    },
    "totalScore": 5,
    "permanentlyClosed": false,
    "temporarilyClosed": false,
    "placeId": "ChIJs-STtAnlDDkRiCNBVNStYxU",
    "categories": [
      "Car rental agency",
      "Bus tour agency",
      "Car leasing service",
      "Minibus taxi service",
      "Taxi service",
      "Travel agency"
    ],
    "reviewsCount": 14,
    "imagesCount": 39,
    "openingHours": [
      {
        "day": "Monday",
        "hours": "Open 24 hours"
      },
      {
        "day": "Tuesday",
        "hours": "Open 24 hours"
      },
      {
        "day": "Wednesday",
        "hours": "Open 24 hours"
      },
      {
        "day": "Thursday",
        "hours": "Open 24 hours"
      },
      {
        "day": "Friday",
        "hours": "Open 24 hours"
      },
      {
        "day": "Saturday",
        "hours": "Open 24 hours"
      },
      {
        "day": "Sunday",
        "hours": "Open 24 hours"
      }
    ],
    "imageUrl": "https://lh3.googleusercontent.com/p/AF1QipOqXdtETC3cwbnLSjEVNM4TPWZCHAo1EInLKCka=w408-h342-k-no",
    "url": "https://www.google.com/maps/search/?api=1&query=Star%20Tour%20%26%20Travels&query_place_id=ChIJs-STtAnlDDkRiCNBVNStYxU"
  },
  {
    "title": "travelya",
    "subTitle": "‡§ü‡•ç‡§∞‡•à‡§µ‡§≤‡•ç‡§Ø",
    "categoryName": "Car leasing service",
    "address": "Kendriya Vihar II, Sector 82, Noida, Uttar Pradesh 201304, India",
    "neighborhood": "Kendriya Vihar II, Sector 82",
    "city": "Noida",
    "postalCode": "201304",
    "state": "Uttar Pradesh",
    "countryCode": "IN",
    "website": "https://www.travelya.site/",
    "location": {
      "lat": 28.5293772,
      "lng": 77.3912953
    },
    "totalScore": 4.9,
    "permanentlyClosed": false,
    "temporarilyClosed": false,
    "placeId": "ChIJEYuE2JfpDDkRkuVugXmAchc",
    "categories": [
      "Car leasing service"
    ],
    "reviewsCount": 18,
    "imagesCount": 8,
    "openingHours": [
      {
        "day": "Monday",
        "hours": "Open 24 hours"
      },
      {
        "day": "Tuesday",
        "hours": "Open 24 hours"
      },
      {
        "day": "Wednesday",
        "hours": "Open 24 hours"
      },
      {
        "day": "Thursday",
        "hours": "Open 24 hours"
      },
      {
        "day": "Friday",
        "hours": "Open 24 hours"
      },
      {
        "day": "Saturday",
        "hours": "Open 24 hours"
      },
      {
        "day": "Sunday",
        "hours": "Open 24 hours"
      }
    ],
    "imageUrl": "https://lh3.googleusercontent.com/p/AF1QipOcsYe08j6vHw61e-UT8iNTLuqG3LcuKo_TBb8p=w408-h550-k-no",
    "url": "https://www.google.com/maps/search/?api=1&query=travelya&query_place_id=ChIJEYuE2JfpDDkRkuVugXmAchc"
  },
  {
    "title": "Utl car rental",
    "subTitle": "‡§Ø‡•Ç‡§ü‡•Ä‡§è‡§≤ ‡§ï‡§æ‡§∞ ‡§∞‡•á‡§Ç‡§ü‡§≤",
    "categoryName": "Car rental agency",
    "address": "Unit No 507, 5th Floor, Plot No 22, ABC Tower, No-1, Sector 135, Noida, Uttar Pradesh 201304, India",
    "neighborhood": "Sector 135",
    "street": "Unit No 507, 5th Floor, Plot No 22, ABC Tower, No-1",
    "city": "Noida",
    "postalCode": "201304",
    "state": "Uttar Pradesh",
    "countryCode": "IN",
    "website": "http://utlcarrental.com/",
    "phone": "+918527009243",
    "phoneUnformatted": "+918527009243",
    "location": {
      "lat": 28.4985939,
      "lng": 77.3998994
    },
    "totalScore": 1.5,
    "permanentlyClosed": false,
    "temporarilyClosed": false,
    "placeId": "ChIJVVVVlWDoDDkRkpiCwibi9zI",
    "categories": [
      "Car rental agency"
    ],
    "reviewsCount": 2,
    "openingHours": [],
    "url": "https://www.google.com/maps/search/?api=1&query=Utl%20car%20rental&query_place_id=ChIJVVVVlWDoDDkRkpiCwibi9zI"
  },
  {
    "title": "Vaishnovi Taxi Service Noida",
    "subTitle": "‡§µ‡•à‡§∑‡•ç‡§£‡•ã‡§µ‡•Ä ‡§ü‡•à‡§ï‡•ç‡§∏‡•Ä ‡§∏‡§∞‡•ç‡§µ‡§ø‡§∏ ‡§®‡•ã‡§è‡§°‡§æ",
    "categoryName": "Car rental agency",
    "address": "Vaishnovi Tours & Travels, C-288, near Mandir Compound, Block C, Sector 22, Noida, Uttar Pradesh 201307, India",
    "neighborhood": "Block C, Sector 22",
    "street": "Vaishnovi Tours & Travels, C-288, near Mandir Compound",
    "city": "Noida",
    "postalCode": "201307",
    "state": "Uttar Pradesh",
    "countryCode": "IN",
    "website": "https://vaishnovitours.com/",
    "phone": "+919899648925",
    "phoneUnformatted": "+919899648925",
    "location": {
      "lat": 28.5922672,
      "lng": 77.345411
    },
    "totalScore": 4.9,
    "permanentlyClosed": false,
    "temporarilyClosed": false,
    "placeId": "ChIJuwDCLnrlDDkRYbWdwRYE5GI",
    "categories": [
      "Car rental agency",
      "Airport shuttle service",
      "Car leasing service",
      "Taxi service",
      "Minibus taxi service",
      "Tour operator",
      "Travel agency"
    ],
    "reviewsCount": 238,
    "imagesCount": 98,
    "openingHours": [],
    "imageUrl": "https://lh3.googleusercontent.com/p/AF1QipOMaGWd0jqPbZWmzmyCeiStfp8t32rU_IBiKnlU=w408-h544-k-no",
    "url": "https://www.google.com/maps/search/?api=1&query=Vaishnovi%20Taxi%20Service%20Noida&query_place_id=ChIJuwDCLnrlDDkRYbWdwRYE5GI"
  },
  {
    "title": "World Vacations Hub",
    "subTitle": "‡§µ‡§∞‡•ç‡§≤‡•ç‡§° ‡§µ‡•á‡§ï‡•á‡§∂‡§Ç‡§∏ ‡§π‡§¨",
    "categoryName": "Car rental agency",
    "address": "A 83, A Block, Sector 63, Noida, Uttar Pradesh 201309, India",
    "neighborhood": "A Block, Sector 63",
    "street": "A 83",
    "city": "Noida",
    "postalCode": "201309",
    "state": "Uttar Pradesh",
    "countryCode": "IN",
    "website": "http://www.worldvacationshub.com/",
    "phone": "+917827795577",
    "phoneUnformatted": "+917827795577",
    "location": {
      "lat": 28.6297045,
      "lng": 77.381877
    },
    "totalScore": 4.9,
    "permanentlyClosed": false,
    "temporarilyClosed": false,
    "placeId": "ChIJa0-52RblDDkRq7UWzBNHl6M",
    "categories": [
      "Car rental agency",
      "Airline",
      "Travel agency",
      "Cruise agency",
      "Holiday apartment rental",
      "Hotel",
      "Tour agency",
      "Tour operator",
      "Tourist information center",
      "Visa consulting service"
    ],
    "reviewsCount": 39,
    "imagesCount": 20,
    "openingHours": [],
    "imageUrl": "https://lh3.googleusercontent.com/gps-cs-s/AG0ilSwKjAuZuHmc0C45fQVyks2VvUPArFPxzbYI67qWUg5_pfTu0F4jE1gV5M0OlGyRY1_mXV9VOHjcXOlo6fMjL-IQMp1VX2kAdzB5FwDo22ttmktJpGxYpYiBc0EDQa04XsG2V0vf7g=w426-h240-k-no",
    "url": "https://www.google.com/maps/search/?api=1&query=World%20Vacations%20Hub&query_place_id=ChIJa0-52RblDDkRq7UWzBNHl6M"
  },
  {
    "title": "ZiT Car Rentals - Noida",
    "subTitle": "‡§ú‡•Ä‡§§ ‡§ï‡§æ‡§∞ ‡§∞‡•á‡§Ç‡§ü‡§≤‡•ç‡§∏ - ‡§®‡•ã‡§è‡§°‡§æ",
    "categoryName": "Car rental agency",
    "address": "Chaudhary Fateh Singh Market, Sector 45, Noida, Uttar Pradesh 201303, India",
    "neighborhood": "Block D, Sector 44",
    "street": "Chaudhary Fateh Singh Market, Sector 45",
    "city": "Noida",
    "postalCode": "201303",
    "state": "Uttar Pradesh",
    "countryCode": "IN",
    "website": "https://zitcarrental.com/",
    "phone": "+918744004437",
    "phoneUnformatted": "+918744004437",
    "location": {
      "lat": 28.5509726,
      "lng": 77.3416616
    },
    "totalScore": 4.9,
    "permanentlyClosed": false,
    "temporarilyClosed": false,
    "placeId": "ChIJS_t1i7blDDkRUSFtaY58RnM",
    "categories": [
      "Car rental agency"
    ],
    "reviewsCount": 46,
    "imagesCount": 58,
    "openingHours": [
      {
        "day": "Monday",
        "hours": "9‚ÄØAM to 10‚ÄØPM"
      },
      {
        "day": "Tuesday",
        "hours": "9‚ÄØAM to 10‚ÄØPM"
      },
      {
        "day": "Wednesday",
        "hours": "9‚ÄØAM to 10‚ÄØPM"
      },
      {
        "day": "Thursday",
        "hours": "9‚ÄØAM to 10‚ÄØPM"
      },
      {
        "day": "Friday",
        "hours": "9‚ÄØAM to 10‚ÄØPM"
      },
      {
        "day": "Saturday",
        "hours": "9‚ÄØAM to 10‚ÄØPM"
      },
      {
        "day": "Sunday",
        "hours": "10‚ÄØAM to 9‚ÄØPM"
      }
    ],
    "imageUrl": "https://lh3.googleusercontent.com/p/AF1QipPJY3HO2sWepzSrdbXkzimUNLbXyrzqp1kvPclz=w560-h240-k-no",
    "url": "https://www.google.com/maps/search/?api=1&query=ZiT%20Car%20Rentals%20-%20Noida&query_place_id=ChIJS_t1i7blDDkRUSFtaY58RnM"
  }
]
