[
  {
    "title": "A PATNA TOUR AND TRAVELS",
    "subTitle": "‡§è ‡§™‡§ü‡§®‡§æ ‡§ü‡•Ç‡§∞ ‡§è‡§Ç‡§° ‡§ü‡•ç‡§∞‡•à‡§µ‡§≤‡•ç‡§∏",
    "categoryName": "Car rental agency",
    "address": "Kurji more, Chashma Center Gali, near sunny sweet, Patna, Bihar 800013, India",
    "neighborhood": "Kurji",
    "street": "Kurji more, Chashma Center Gali, near sunny sweet",
    "city": "Patna",
    "postalCode": "800013",
    "state": "Bihar",
    "countryCode": "IN",
    "phone": "+916203780731",
    "phoneUnformatted": "+916203780731",
    "location": {
      "lat": 25.634875,
      "lng": 85.1072779
    },
    "totalScore": 5,
    "permanentlyClosed": false,
    "temporarilyClosed": false,
    "placeId": "ChIJc3y36hzDlWwR9HtmjI7Xh2o",
    "categories": [
      "Car rental agency",
      "Air taxi",
      "Car leasing service",
      "Taxi service",
      "Tour agency"
    ],
    "reviewsCount": 6,
    "imagesCount": 132,
    "openingHours": [
      {
        "day": "Monday",
        "hours": "Open 24 hours"
      },
      {
        "day": "Tuesday",
        "hours": "Open 24 hours"
      },
      {
        "day": "Wednesday",
        "hours": "Open 24 hours"
      },
      {
        "day": "Thursday",
        "hours": "Open 24 hours"
      },
      {
        "day": "Friday",
        "hours": "Open 24 hours"
      },
      {
        "day": "Saturday",
        "hours": "Open 24 hours"
      },
      {
        "day": "Sunday",
        "hours": "Open 24 hours"
      }
    ],
    "imageUrl": "https://lh3.googleusercontent.com/p/AF1QipM_m2HN8AWqrf5S6QYJ3G6MZMYhK2iaqRWwre2U=w408-h489-k-no",
    "url": "https://www.google.com/maps/search/?api=1&query=A%20PATNA%20TOUR%20AND%20TRAVELS&query_place_id=ChIJc3y36hzDlWwR9HtmjI7Xh2o"
  },
  {
    "title": "AB Services Tour & Travel Agency - Car Rental in Patna / Cab Booking / Taxi Service",
    "subTitle": "‡§Ö‡§¨ ‡§∏‡§∞‡•ç‡§µ‡§ø‡§∏‡•á‡§∏ ‡§ü‡•Ç‡§∞ & ‡§ü‡•ç‡§∞‡•à‡§µ‡§≤ ‡§è‡§ú‡•á‡§Ç‡§∏‡•Ä - ‡§ï‡§æ‡§∞ ‡§∞‡•á‡§Ç‡§ü‡§≤ ‡§á‡§® ‡§™‡§ü‡§®‡§æ / ‡§ï‡•à‡§¨ ‡§¨‡•Å‡§ï‡§ø‡§Ç‡§ó / ‡§ü‡•à‡§ï‡•ç‡§∏‡•Ä ‡§∏‡§∞‡•ç‡§µ‡§ø‡§∏",
    "categoryName": "Car rental agency",
    "address": "Panchmukhi mandir, Boring Canal Rd, near Himgiri Apartment, Anandpuri, Patna, Bihar 800001, India",
    "neighborhood": "Anandpuri",
    "street": "Panchmukhi mandir, Boring Canal Rd, near Himgiri Apartment",
    "city": "Patna",
    "postalCode": "800001",
    "state": "Bihar",
    "countryCode": "IN",
    "website": "https://abservicestourandtravelagencypatna.odoo.com/",
    "phone": "+919430488524",
    "phoneUnformatted": "+919430488524",
    "location": {
      "lat": 25.618374,
      "lng": 85.119589
    },
    "totalScore": 5,
    "permanentlyClosed": false,
    "temporarilyClosed": false,
    "placeId": "ChIJLcT4dh1Z7TkRh6TlholPYcM",
    "categories": [
      "Car rental agency",
      "Car leasing service",
      "Taxi service",
      "Travel agency"
    ],
    "reviewsCount": 178,
    "imagesCount": 113,
    "openingHours": [
      {
        "day": "Monday",
        "hours": "6‚ÄØAM to 11‚ÄØPM"
      },
      {
        "day": "Tuesday",
        "hours": "6‚ÄØAM to 11‚ÄØPM"
      },
      {
        "day": "Wednesday",
        "hours": "6‚ÄØAM to 11‚ÄØPM"
      },
      {
        "day": "Thursday",
        "hours": "6‚ÄØAM to 11‚ÄØPM"
      },
      {
        "day": "Friday",
        "hours": "6‚ÄØAM to 11‚ÄØPM"
      },
      {
        "day": "Saturday",
        "hours": "6‚ÄØAM to 11‚ÄØPM"
      },
      {
        "day": "Sunday",
        "hours": "6‚ÄØAM to 11‚ÄØPM"
      }
    ],
    "imageUrl": "https://lh3.googleusercontent.com/p/AF1QipPknj7Jf1jAmGe8P8m-KJJ5DI97dXYwVbZtM1M_=w408-h510-k-no",
    "url": "https://www.google.com/maps/search/?api=1&query=AB%20Services%20Tour%20%26%20Travel%20Agency%20-%20Car%20Rental%20in%20Patna%20%2F%20Cab%20Booking%20%2F%20Taxi%20Service&query_place_id=ChIJLcT4dh1Z7TkRh6TlholPYcM"
  },
  {
    "title": "ATW Travels - Best Travel Agent in Patna | Best Tour & Travel Agency in Patna | Travel Consultant | Flight Agency",
    "subTitle": "‡§Ö‡§ü‡•Ç ‡§ü‡•ç‡§∞‡•à‡§µ‡§≤‡•ç‡§∏ - ‡§¨‡•á‡§∏‡•ç‡§ü ‡§ü‡•ç‡§∞‡•à‡§µ‡§≤ ‡§è‡§ú‡•á‡§Ç‡§ü ‡§á‡§® ‡§™‡§ü‡§®‡§æ | ‡§¨‡•á‡§∏‡•ç‡§ü ‡§ü‡•Ç‡§∞ & ‡§ü‡•ç‡§∞‡•à‡§µ‡§≤ ‡§è‡§ú‡•á‡§Ç‡§∏‡•Ä ‡§á‡§® ‡§™‡§ü‡§®‡§æ | ‡§ü‡•ç‡§∞‡•à‡§µ‡§≤ ‡§ï‡§Ç‡§∏‡§≤‡§ü‡•á‡§Ç‡§ü | ‡§´‡•ç‡§≤‡§æ‡§á‡§ü ‡§è‡§ú‡•á‡§Ç‡§∏‡•Ä",
    "categoryName": "Car rental agency",
    "address": "Ground Floor, Ram Kumar Apartment, opposite Nobel Hospital, New Chitragupta Nagar, Kankarbagh, Chitragupta Nagar, Patna, Bihar 800020, India",
    "neighborhood": "New Chitragupta Nagar, Kankarbagh, Chitragupta Nagar",
    "street": "Ground Floor, Ram Kumar Apartment, opposite Nobel Hospital",
    "city": "Patna",
    "postalCode": "800020",
    "state": "Bihar",
    "countryCode": "IN",
    "website": "http://www.atwtravels.com/",
    "phone": "+919693339999",
    "phoneUnformatted": "+919693339999",
    "location": {
      "lat": 25.5985654,
      "lng": 85.168872
    },
    "totalScore": 5,
    "permanentlyClosed": false,
    "temporarilyClosed": false,
    "placeId": "ChIJQwsir15Y7TkRUez16LOzQrA",
    "categories": [
      "Car rental agency",
      "Airline ticket agency",
      "Car leasing service",
      "Travel agency",
      "Sightseeing tour agency",
      "Taxi service",
      "Tour agency",
      "Tour operator",
      "Train ticket office",
      "Visa and passport office"
    ],
    "reviewsCount": 145,
    "imagesCount": 290,
    "openingHours": [
      {
        "day": "Monday",
        "hours": "8‚ÄØAM to 11‚ÄØPM"
      },
      {
        "day": "Tuesday",
        "hours": "8‚ÄØAM to 11‚ÄØPM"
      },
      {
        "day": "Wednesday",
        "hours": "8‚ÄØAM to 11‚ÄØPM"
      },
      {
        "day": "Thursday",
        "hours": "8‚ÄØAM to 11‚ÄØPM"
      },
      {
        "day": "Friday",
        "hours": "8‚ÄØAM to 11‚ÄØPM"
      },
      {
        "day": "Saturday",
        "hours": "8‚ÄØAM to 11‚ÄØPM"
      },
      {
        "day": "Sunday",
        "hours": "8‚ÄØAM to 11‚ÄØPM"
      }
    ],
    "imageUrl": "https://lh3.googleusercontent.com/p/AF1QipM5g7--W_qPqoNBwD-poi_Phc44nZBL8vXJDJb7=w425-h240-k-no",
    "url": "https://www.google.com/maps/search/?api=1&query=ATW%20Travels%20-%20Best%20Travel%20Agent%20in%20Patna%20%7C%20Best%20Tour%20%26%20Travel%20Agency%20in%20Patna%20%7C%20Travel%20Consultant%20%7C%20Flight%20Agency&query_place_id=ChIJQwsir15Y7TkRUez16LOzQrA"
  },
  {
    "title": "Authentic cars",
    "subTitle": "‡§ë‡§•‡•á‡§Ç‡§ü‡§ø‡§ï ‡§ï‡§æ‡§∞‡•ç‡§∏",
    "categoryName": "Car dealer",
    "address": "West Boring Canal Rd, near Bharat petrol pump, Anandpuri, Patna, Bihar 800001, India",
    "neighborhood": "Anandpuri",
    "street": "West Boring Canal Rd, near Bharat petrol pump",
    "city": "Patna",
    "postalCode": "800001",
    "state": "Bihar",
    "countryCode": "IN",
    "phone": "+919334194416",
    "phoneUnformatted": "+919334194416",
    "location": {
      "lat": 25.6157188,
      "lng": 85.1202071
    },
    "totalScore": 5,
    "permanentlyClosed": false,
    "temporarilyClosed": false,
    "placeId": "ChIJNUM2qN1Z7TkRvLsBj7v3vZU",
    "categories": [
      "Car dealer"
    ],
    "reviewsCount": 10,
    "imagesCount": 24,
    "openingHours": [
      {
        "day": "Monday",
        "hours": "10‚ÄØAM to 7‚ÄØPM"
      },
      {
        "day": "Tuesday",
        "hours": "10‚ÄØAM to 7‚ÄØPM"
      },
      {
        "day": "Wednesday",
        "hours": "10‚ÄØAM to 7‚ÄØPM"
      },
      {
        "day": "Thursday",
        "hours": "10‚ÄØAM to 7‚ÄØPM"
      },
      {
        "day": "Friday",
        "hours": "10‚ÄØAM to 7‚ÄØPM"
      },
      {
        "day": "Saturday",
        "hours": "10‚ÄØAM to 7‚ÄØPM"
      },
      {
        "day": "Sunday",
        "hours": "10‚ÄØAM to 7‚ÄØPM"
      }
    ],
    "imageUrl": "https://lh3.googleusercontent.com/p/AF1QipMB6jAwFD4Lk3cvQM01rj1L64lAQsB4tYYXI3b2=w408-h544-k-no",
    "url": "https://www.google.com/maps/search/?api=1&query=Authentic%20cars&query_place_id=ChIJNUM2qN1Z7TkRvLsBj7v3vZU"
  },
  {
    "title": "Baba Cabs",
    "subTitle": "‡§¨‡§æ‡§¨‡§æ ‡§ï‡•à‡§¨‡•ç‡§∏",
    "categoryName": "Car rental agency",
    "address": "Fraser Road Area, Patna, Bihar 800001, India",
    "neighborhood": "Fraser Road Area",
    "city": "Patna",
    "postalCode": "800001",
    "state": "Bihar",
    "countryCode": "IN",
    "website": "http://cabsinpatna.com/",
    "phone": "+918579060606",
    "phoneUnformatted": "+918579060606",
    "location": {
      "lat": 25.6048813,
      "lng": 85.1369331
    },
    "totalScore": 4.1,
    "permanentlyClosed": false,
    "temporarilyClosed": false,
    "placeId": "ChIJ87m4olxY7TkRQsNCQsMLBdQ",
    "categories": [
      "Car rental agency",
      "Car leasing service",
      "Taxi service",
      "Sightseeing tour agency",
      "Travel agency"
    ],
    "reviewsCount": 232,
    "imagesCount": 14,
    "openingHours": [],
    "imageUrl": "https://lh3.googleusercontent.com/p/AF1QipNP0iTOjCV7Xakjr1ZT9mwDJ_UqC3EtGA5FXtSJ=w408-h269-k-no",
    "url": "https://www.google.com/maps/search/?api=1&query=Baba%20Cabs&query_place_id=ChIJ87m4olxY7TkRQsNCQsMLBdQ"
  },
  {
    "title": "Bala Jee Motors",
    "subTitle": "‡§¨‡§æ‡§≤‡§æ ‡§ú‡•Ä ‡§Æ‡•ã‡§ü‡§∞‡•ç‡§∏",
    "categoryName": "Car dealer",
    "address": "Janak Plaza, West Boring Canal Rd, near Udiyan Hospital, North Anandpuri, Anandpuri, Patna, Bihar 800001, India",
    "neighborhood": "North Anandpuri, Anandpuri",
    "street": "Janak Plaza, West Boring Canal Rd, near Udiyan Hospital",
    "city": "Patna",
    "postalCode": "800001",
    "state": "Bihar",
    "countryCode": "IN",
    "phone": "+917250773372",
    "phoneUnformatted": "+917250773372",
    "location": {
      "lat": 25.621056,
      "lng": 85.1229119
    },
    "totalScore": 5,
    "permanentlyClosed": false,
    "temporarilyClosed": false,
    "placeId": "ChIJTY1E6m1Z7TkRsOkJX2vpK_s",
    "categories": [
      "Car dealer",
      "Used car dealer"
    ],
    "reviewsCount": 3,
    "imagesCount": 14,
    "openingHours": [
      {
        "day": "Monday",
        "hours": "10‚ÄØAM to 5‚ÄØPM"
      },
      {
        "day": "Tuesday",
        "hours": "10‚ÄØAM to 5‚ÄØPM"
      },
      {
        "day": "Wednesday",
        "hours": "10‚ÄØAM to 5‚ÄØPM"
      },
      {
        "day": "Thursday",
        "hours": "10‚ÄØAM to 5‚ÄØPM"
      },
      {
        "day": "Friday",
        "hours": "10‚ÄØAM to 5‚ÄØPM"
      },
      {
        "day": "Saturday",
        "hours": "10‚ÄØAM to 5‚ÄØPM"
      },
      {
        "day": "Sunday",
        "hours": "10‚ÄØAM to 5‚ÄØPM"
      }
    ],
    "imageUrl": "https://lh3.googleusercontent.com/gps-cs-s/AG0ilSwKsxsVG2b4cxAJvfvGSShA4YMhfrD7MnUMy3cMX6fTUXTJjtjwTN-YoR8Aa14f8pKfovsBobcPWoYc8GMswZgvA4uoA7NROkSq_pc_HtmsZZ3LM4s8z4n5ZMETa0eEwa0Eo5o5=w408-h306-k-no",
    "url": "https://www.google.com/maps/search/?api=1&query=Bala%20Jee%20Motors&query_place_id=ChIJTY1E6m1Z7TkRsOkJX2vpK_s"
  },
  {
    "title": "Bhardwaj Enterprise",
    "subTitle": "‡§≠‡§æ‡§∞‡§¶‡•ç‡§µ‡§æ‡§ú ‡§è‡§Ç‡§ü‡§∞‡§™‡•ç‡§∞‡§æ‡§á‡§ú",
    "categoryName": "Used car dealer",
    "address": "SHOP NO-23, JJ Complex, E Boring Canal Rd, opposite BHARAT PETROLEUM, near PUNJAB NATIONAL BANK, Pandooi Kothi, Patna, Bihar 800001, India",
    "neighborhood": "Pandooi Kothi",
    "street": "SHOP NO-23, JJ Complex, E Boring Canal Rd, opposite BHARAT PETROLEUM, near PUNJAB NATIONAL BANK",
    "city": "Patna",
    "postalCode": "800001",
    "state": "Bihar",
    "countryCode": "IN",
    "phone": "+919835286344",
    "phoneUnformatted": "+919835286344",
    "location": {
      "lat": 25.6159576,
      "lng": 85.1207107
    },
    "totalScore": 5,
    "permanentlyClosed": false,
    "temporarilyClosed": false,
    "placeId": "ChIJdbz8AOlZ7TkRrbJWweyP4LA",
    "categories": [
      "Used car dealer"
    ],
    "reviewsCount": 6,
    "imagesCount": 25,
    "openingHours": [
      {
        "day": "Monday",
        "hours": "Open 24 hours"
      },
      {
        "day": "Tuesday",
        "hours": "Open 24 hours"
      },
      {
        "day": "Wednesday",
        "hours": "Open 24 hours"
      },
      {
        "day": "Thursday",
        "hours": "Open 24 hours"
      },
      {
        "day": "Friday",
        "hours": "Open 24 hours"
      },
      {
        "day": "Saturday",
        "hours": "Open 24 hours"
      },
      {
        "day": "Sunday",
        "hours": "Open 24 hours"
      }
    ],
    "imageUrl": "https://lh3.googleusercontent.com/gps-cs-s/AG0ilSxLxisME29fNHSLruHQl5Pj1hfdavh4ihaWsCw3U_yHWIl6yXNnC4RFThg16wE_c8QQYRoJDnW0o_tkB88GucuAhLIADUXc0bP6E-kAr4-G3QTOYJYh2At_9sBzCNHe14IAKUA=w408-h544-k-no",
    "url": "https://www.google.com/maps/search/?api=1&query=Bhardwaj%20Enterprise&query_place_id=ChIJdbz8AOlZ7TkRrbJWweyP4LA"
  },
  {
    "title": "Bihartrip",
    "subTitle": "‡§¨‡§ø‡§π‡§æ‡§∞‡§ü‡•ç‡§∞‡§ø‡§™",
    "categoryName": "Car rental agency",
    "address": "Shop No - FF 8, Luv Kush Tower, Exhibition Rd, Salimpur Ahra, Golambar, Patna, Bihar 800001, India",
    "neighborhood": "Salimpur Ahra, Golambar",
    "street": "Shop No - FF 8, Luv Kush Tower, Exhibition Rd",
    "city": "Patna",
    "postalCode": "800001",
    "state": "Bihar",
    "countryCode": "IN",
    "website": "https://www.bihartrip.com/",
    "phone": "+919572918542",
    "phoneUnformatted": "+919572918542",
    "location": {
      "lat": 25.6084521,
      "lng": 85.1430022
    },
    "totalScore": 4.9,
    "permanentlyClosed": false,
    "temporarilyClosed": false,
    "placeId": "ChIJc2Qw619Z7TkRFddyUNbcM8M",
    "categories": [
      "Car rental agency",
      "Car leasing service",
      "Taxi service",
      "Minibus taxi service",
      "Sightseeing tour agency",
      "Tour agency",
      "Tour operator",
      "Tourist attraction",
      "Tourist information center"
    ],
    "reviewsCount": 163,
    "imagesCount": 229,
    "openingHours": [],
    "imageUrl": "https://lh3.googleusercontent.com/p/AF1QipN5MLoPUSLLbJLOyXpuB8-uTwhHWwqI194V_EzH=w408-h241-k-no",
    "url": "https://www.google.com/maps/search/?api=1&query=Bihartrip&query_place_id=ChIJc2Qw619Z7TkRFddyUNbcM8M"
  },
  {
    "title": "BlueLine Taxi Patna",
    "subTitle": "‡§¨‡•ç‡§≤‡•Ç‡§≤‡§æ‡§á‡§® ‡§ü‡•à‡§ï‡•ç‡§∏‡•Ä ‡§™‡§ü‡§®‡§æ",
    "categoryName": "Car rental agency",
    "address": "Shop No 1, Fraser Rd, Old Jakkanpur, Lodipur, Patna, Bihar 800001, India",
    "neighborhood": "Old Jakkanpur, Lodipur",
    "street": "Shop No 1, Fraser Rd",
    "city": "Patna",
    "postalCode": "800001",
    "state": "Bihar",
    "countryCode": "IN",
    "website": "https://bluelinepatnataxi.in/",
    "phone": "+919117000110",
    "phoneUnformatted": "+919117000110",
    "location": {
      "lat": 25.6112901,
      "lng": 85.1384347
    },
    "totalScore": 4.7,
    "permanentlyClosed": false,
    "temporarilyClosed": false,
    "placeId": "ChIJCcZVR6SX5q8ReR-NzEfK-ew",
    "categories": [
      "Car rental agency"
    ],
    "reviewsCount": 87,
    "imagesCount": 48,
    "openingHours": [
      {
        "day": "Monday",
        "hours": "Open 24 hours"
      },
      {
        "day": "Tuesday",
        "hours": "Open 24 hours"
      },
      {
        "day": "Wednesday",
        "hours": "Open 24 hours"
      },
      {
        "day": "Thursday",
        "hours": "Open 24 hours"
      },
      {
        "day": "Friday",
        "hours": "Open 24 hours"
      },
      {
        "day": "Saturday",
        "hours": "Open 24 hours"
      },
      {
        "day": "Sunday",
        "hours": "Open 24 hours"
      }
    ],
    "imageUrl": "https://lh3.googleusercontent.com/p/AF1QipP2OAjiOu9e0TfgV8q373hwFHs3b0MgbLkxKhvq=w408-h306-k-no",
    "url": "https://www.google.com/maps/search/?api=1&query=BlueLine%20Taxi%20Patna&query_place_id=ChIJCcZVR6SX5q8ReR-NzEfK-ew"
  },
  {
    "title": "Bookcheap | Cab and Taxi service",
    "subTitle": "‡§¨‡•Å‡§ï‡§ö‡•Ä‡§™ | ‡§ï‡•à‡§¨ ‡§è‡§Ç‡§° ‡§ü‡•à‡§ï‡•ç‡§∏‡•Ä ‡§∏‡§∞‡•ç‡§µ‡§ø‡§∏",
    "categoryName": "Car leasing service",
    "address": "E-86, Rajesh Kumar Path, Sri Krishna Puri, Patna, Bihar 800001, India",
    "neighborhood": "Sri Krishna Puri",
    "street": "E-86, Rajesh Kumar Path",
    "city": "Patna",
    "postalCode": "800001",
    "state": "Bihar",
    "countryCode": "IN",
    "website": "https://bookcheap.co.in/",
    "phone": "+919263774117",
    "phoneUnformatted": "+919263774117",
    "location": {
      "lat": 25.6124603,
      "lng": 85.113423
    },
    "totalScore": 4.8,
    "permanentlyClosed": false,
    "temporarilyClosed": false,
    "placeId": "ChIJhwPk84WKg4gRv8AllNqY08g",
    "categories": [
      "Car leasing service",
      "Airport shuttle service",
      "Taxi service",
      "Wedding service"
    ],
    "reviewsCount": 10,
    "imagesCount": 30,
    "openingHours": [],
    "imageUrl": "https://lh3.googleusercontent.com/p/AF1QipMlplejxDeG8ETXYAegEqDVHmE8Tbketx4OFU74=w408-h366-k-no",
    "url": "https://www.google.com/maps/search/?api=1&query=Bookcheap%20%7C%20Cab%20and%20Taxi%20service&query_place_id=ChIJhwPk84WKg4gRv8AllNqY08g"
  },
  {
    "title": "Buddha Cab Service",
    "subTitle": "‡§¨‡•Å‡§¶‡•ç‡§ß‡§æ ‡§ï‡•à‡§¨ ‡§∏‡§∞‡•ç‡§µ‡§ø‡§∏",
    "categoryName": "Car rental agency",
    "address": "Veer kunwar Singh chauk, Rd Number 9B, Rajeev Nagar, Keshri Nagar, Patna, Bihar 800024, India",
    "neighborhood": "Rajeev Nagar, Keshri Nagar",
    "street": "Veer kunwar Singh chauk, Rd Number 9B",
    "city": "Patna",
    "postalCode": "800024",
    "state": "Bihar",
    "countryCode": "IN",
    "website": "https://buddhacab.in/",
    "phone": "+918210459744",
    "phoneUnformatted": "+918210459744",
    "location": {
      "lat": 25.6234301,
      "lng": 85.0936213
    },
    "totalScore": 4.9,
    "permanentlyClosed": false,
    "temporarilyClosed": false,
    "placeId": "ChIJEVxJx3NX7TkRgqqAapa0qQo",
    "categories": [
      "Car rental agency",
      "Car leasing service",
      "Taxi service",
      "Tour operator",
      "Travel agency"
    ],
    "reviewsCount": 603,
    "imagesCount": 295,
    "openingHours": [],
    "imageUrl": "https://lh3.googleusercontent.com/gps-cs-s/AG0ilSzo2-UJoeig-ZKBVY9IVwq7t0mLIj4o0p_5ik0jgxMwq-nsCgjOdn2SMOIAZbQXY7Ea7nV0Y0_IU0K9wh_TdmUsGfG5f8I3hvsYJB_BHKxA6P9oINiwJ0Hi5NYCdR14IyVdawoS=w508-h240-k-no",
    "url": "https://www.google.com/maps/search/?api=1&query=Buddha%20Cab%20Service&query_place_id=ChIJEVxJx3NX7TkRgqqAapa0qQo"
  },
  {
    "title": "Budha Toyota",
    "subTitle": "‡§¨‡•Å‡§¶‡•ç‡§ß‡§æ ‡§ü‡•ã‡§Ø‡•ã‡§ü‡§æ",
    "categoryName": "Toyota dealer",
    "address": "140, Patliputra Kurji Rd, New Patliputra Colony, Patliputra Colony, Patna, Bihar 800013, India",
    "neighborhood": "New Patliputra Colony, Patliputra Colony",
    "street": "140, Patliputra Kurji Rd",
    "city": "Patna",
    "postalCode": "800013",
    "state": "Bihar",
    "countryCode": "IN",
    "website": "http://www.budhatoyota.com/",
    "phone": "+9118001204164",
    "phoneUnformatted": "+9118001204164",
    "location": {
      "lat": 25.6288937,
      "lng": 85.1073621
    },
    "totalScore": 4.7,
    "permanentlyClosed": false,
    "temporarilyClosed": false,
    "placeId": "ChIJ31QOTNVZ7TkRdiJqOEYpA4E",
    "categories": [
      "Toyota dealer",
      "Car dealer"
    ],
    "reviewsCount": 1054,
    "imagesCount": 252,
    "openingHours": [
      {
        "day": "Monday",
        "hours": "9:30‚ÄØAM to 6:30‚ÄØPM"
      },
      {
        "day": "Tuesday",
        "hours": "9:30‚ÄØAM to 6:30‚ÄØPM"
      },
      {
        "day": "Wednesday",
        "hours": "9:30‚ÄØAM to 6:30‚ÄØPM"
      },
      {
        "day": "Thursday",
        "hours": "9:30‚ÄØAM to 6:30‚ÄØPM"
      },
      {
        "day": "Friday",
        "hours": "9:30‚ÄØAM to 6:30‚ÄØPM"
      },
      {
        "day": "Saturday",
        "hours": "9:30‚ÄØAM to 6:30‚ÄØPM"
      },
      {
        "day": "Sunday",
        "hours": "9:30‚ÄØAM to 6:30‚ÄØPM"
      }
    ],
    "imageUrl": "https://lh3.googleusercontent.com/gps-cs-s/AG0ilSw_QUbAlOwvAJehmE7mE-ZxFdJg52kix83f2ChiqZPFI_fKc6IN5sopwAIA568VibBIZv3QzBFd3cRfe9CdmsEQuk-MEbxp4--soBBjTi1Pah5dQ-KaBiZckKTOtb90quUR1lyW=w408-h544-k-no",
    "url": "https://www.google.com/maps/search/?api=1&query=Budha%20Toyota&query_place_id=ChIJ31QOTNVZ7TkRdiJqOEYpA4E"
  },
  {
    "title": "CabZio ( Taxi Service )",
    "subTitle": "‡§ï‡§¨‡•ç‡§ú‡§º‡§ø‡§Ø‡•ã ( ‡§ü‡•à‡§ï‡•ç‡§∏‡•Ä ‡§∏‡§∞‡•ç‡§µ‡§ø‡§∏ )",
    "categoryName": "Car leasing service",
    "address": "New, Baypass Raod, near Sichai Bhwan, opp. HDFC ATM, Anisabad, Patna, Bihar 800002, India",
    "neighborhood": "Anisabad",
    "street": "New, Baypass Raod, near Sichai Bhwan, opp. HDFC ATM",
    "city": "Patna",
    "postalCode": "800002",
    "state": "Bihar",
    "countryCode": "IN",
    "website": "https://www.cabzio.in/",
    "phone": "+917870182583",
    "phoneUnformatted": "+917870182583",
    "location": {
      "lat": 25.583742,
      "lng": 85.0968628
    },
    "totalScore": 5,
    "permanentlyClosed": false,
    "temporarilyClosed": false,
    "placeId": "ChIJ6zRlitBX7TkRRrEYxuk2v2Q",
    "categories": [
      "Car leasing service",
      "Taxi service",
      "Travel agency"
    ],
    "reviewsCount": 82,
    "imagesCount": 39,
    "openingHours": [],
    "imageUrl": "https://lh3.googleusercontent.com/p/AF1QipOyxT3CJEpuj_2KOT9WbvqXh9PTyFp-pqcNExzA=w408-h725-k-no",
    "url": "https://www.google.com/maps/search/?api=1&query=CabZio%20(%20Taxi%20Service%20)&query_place_id=ChIJ6zRlitBX7TkRRrEYxuk2v2Q"
  },
  {
    "title": "Car Club",
    "subTitle": "‡§ï‡§æ‡§∞ ‡§ï‡•ç‡§≤‡§¨",
    "categoryName": "Car dealer",
    "address": "Jyoti Tower New Dak Bungalow Road, &, Jamal Rd, Lodipur, Patna, Bihar 800001, India",
    "neighborhood": "Lodipur",
    "street": "Jyoti Tower New Dak Bungalow Road, &, Jamal Rd",
    "city": "Patna",
    "postalCode": "800001",
    "state": "Bihar",
    "countryCode": "IN",
    "phone": "+919334229900",
    "phoneUnformatted": "+919334229900",
    "location": {
      "lat": 25.6093362,
      "lng": 85.1411145
    },
    "totalScore": 3.5,
    "permanentlyClosed": false,
    "temporarilyClosed": false,
    "placeId": "ChIJL2Y6SVxY7TkRZb5evHsdiIU",
    "categories": [
      "Car dealer",
      "Used car dealer"
    ],
    "reviewsCount": 11,
    "imagesCount": 2,
    "openingHours": [
      {
        "day": "Monday",
        "hours": "10‚ÄØAM to 7‚ÄØPM"
      },
      {
        "day": "Tuesday",
        "hours": "10‚ÄØAM to 7‚ÄØPM"
      },
      {
        "day": "Wednesday",
        "hours": "10‚ÄØAM to 7‚ÄØPM"
      },
      {
        "day": "Thursday",
        "hours": "10‚ÄØAM to 7‚ÄØPM"
      },
      {
        "day": "Friday",
        "hours": "10‚ÄØAM to 7‚ÄØPM"
      },
      {
        "day": "Saturday",
        "hours": "10‚ÄØAM to 7‚ÄØPM"
      },
      {
        "day": "Sunday",
        "hours": "10‚ÄØAM to 7‚ÄØPM"
      }
    ],
    "imageUrl": "https://lh3.googleusercontent.com/gps-proxy/ALd4DhHKmk8dh8u19G5XSygWZgAug2m78w1xuiO2chYmolaIGts-U8DFmkpif1sy0y9E0nzL3btIkaBZRmVYLtqd_6HRDFa4FvztjZsOT2MTV8YIy5ozAdy1gN2k-hzgEBvE4NX4T94TwcGf8_LgzghguntcCLVrQ0IJEhF4HRmqf957QEnXBf7XgF3rE_GGNB6cLQeKBgI=w408-h306-k-no",
    "url": "https://www.google.com/maps/search/?api=1&query=Car%20Club&query_place_id=ChIJL2Y6SVxY7TkRZb5evHsdiIU"
  },
  {
    "title": "Car Craft",
    "subTitle": "‡§ï‡§æ‡§∞ ‡§ï‡•ç‡§∞‡§æ‡§´‡•ç‡§ü",
    "categoryName": "Car stereo store",
    "address": "204, Abdul Hai Commercial Complex, Exhibition Rd, Ali Nagar Colony, Salimpur Ahra, Rapd, Patna, Bihar 800001, India",
    "neighborhood": "Ali Nagar Colony, Salimpur Ahra, Rapd",
    "street": "204, Abdul Hai Commercial Complex, Exhibition Rd",
    "city": "Patna",
    "postalCode": "800001",
    "state": "Bihar",
    "countryCode": "IN",
    "location": {
      "lat": 25.613307,
      "lng": 85.144172
    },
    "totalScore": 4.1,
    "permanentlyClosed": false,
    "temporarilyClosed": false,
    "placeId": "ChIJl2UeR0dY7TkRtVt7PQ3wld4",
    "categories": [
      "Car stereo store",
      "Car accessories store"
    ],
    "reviewsCount": 17,
    "imagesCount": 5,
    "openingHours": [
      {
        "day": "Monday",
        "hours": "9:30‚ÄØAM to 8:30‚ÄØPM"
      },
      {
        "day": "Tuesday",
        "hours": "9:30‚ÄØAM to 8:30‚ÄØPM"
      },
      {
        "day": "Wednesday",
        "hours": "9:30‚ÄØAM to 8:30‚ÄØPM"
      },
      {
        "day": "Thursday",
        "hours": "9:30‚ÄØAM to 8:30‚ÄØPM"
      },
      {
        "day": "Friday",
        "hours": "9:30‚ÄØAM to 8:30‚ÄØPM"
      },
      {
        "day": "Saturday",
        "hours": "9:30‚ÄØAM to 8:30‚ÄØPM"
      },
      {
        "day": "Sunday",
        "hours": "9:30‚ÄØAM to 6‚ÄØPM"
      }
    ],
    "imageUrl": "https://lh3.googleusercontent.com/gps-proxy/ALd4DhFfJx_kdQrmJEUPem_gsMt8TQytYKGYb1weR7CrIGtNQtqUkPeLGUkrLlKA9-4xKkKklmLooUEwh2xB5qPTP4MulelbK1pCvhScXdvOnXMhjvmDJ_2Bas3N1LWtTMVZcRyDstEzOEFUQ-0-oBvwggGNMD3sLaXBgKiwqz7t5PHxr7goWJWdx83xKLjN8u4ALRVwV9I=w408-h306-k-no",
    "url": "https://www.google.com/maps/search/?api=1&query=Car%20Craft&query_place_id=ChIJl2UeR0dY7TkRtVt7PQ3wld4"
  },
  {
    "title": "Car Mart",
    "subTitle": "‡§ï‡§æ‡§∞ ‡§Æ‡§æ‡§∞‡•ç‡§ü",
    "categoryName": "Car dealer",
    "address": "NP Centre, F-14, New Dak Bunglow Rd, Old Jakkanpur, Lodipur, Patna, Bihar 800001, India",
    "neighborhood": "Old Jakkanpur, Lodipur",
    "street": "NP Centre, F-14, New Dak Bunglow Rd",
    "city": "Patna",
    "postalCode": "800001",
    "state": "Bihar",
    "countryCode": "IN",
    "location": {
      "lat": 25.6100834,
      "lng": 85.1388056
    },
    "totalScore": 3.5,
    "permanentlyClosed": false,
    "temporarilyClosed": false,
    "placeId": "ChIJo7a01IxZ7TkR-lLL4vLujwg",
    "categories": [
      "Car dealer"
    ],
    "reviewsCount": 8,
    "imagesCount": 4,
    "openingHours": [
      {
        "day": "Monday",
        "hours": "11‚ÄØAM to 7‚ÄØPM"
      },
      {
        "day": "Tuesday",
        "hours": "11‚ÄØAM to 7‚ÄØPM"
      },
      {
        "day": "Wednesday",
        "hours": "11‚ÄØAM to 7‚ÄØPM"
      },
      {
        "day": "Thursday",
        "hours": "11‚ÄØAM to 7‚ÄØPM"
      },
      {
        "day": "Friday",
        "hours": "11‚ÄØAM to 7‚ÄØPM"
      },
      {
        "day": "Saturday",
        "hours": "11‚ÄØAM to 7‚ÄØPM"
      },
      {
        "day": "Sunday",
        "hours": "11‚ÄØAM to 7‚ÄØPM"
      }
    ],
    "imageUrl": "https://lh3.googleusercontent.com/p/AF1QipM6vqkmq6wUNiN664IvDRaIkZOuK0JygJPdwOUF=w426-h240-k-no",
    "url": "https://www.google.com/maps/search/?api=1&query=Car%20Mart&query_place_id=ChIJo7a01IxZ7TkR-lLL4vLujwg"
  },
  {
    "title": "CARS24 - Buy, Sell, Finance Used Cars in Atal Path, Patna",
    "subTitle": "‡§ï‡§æ‡§∞‡•ç‡§∏24 - ‡§¨‡§æ‡§Ø, ‡§∏‡•á‡§≤, ‡§´‡§æ‡§á‡§®‡•á‡§Ç‡§∏ ‡§Ø‡•Ç‡§ú‡•ç‡§° ‡§ï‡§æ‡§∞‡•ç‡§∏ ‡§á‡§® ‡§Ö‡§ü‡§≤ ‡§™‡§•, ‡§™‡§ü‡§®‡§æ",
    "categoryName": "Used car dealer",
    "address": "R Block, Digha Road, Atal Path, near Party Zone Community Hall, Yadav Colony, Digha Ghat, Patna, Bihar 800011, India",
    "neighborhood": "Mica Colony, Yadav Colony, Digha Ghat",
    "street": "R Block, Digha Road, Atal Path, near Party Zone Community Hall",
    "city": "Patna",
    "postalCode": "800011",
    "state": "Bihar",
    "countryCode": "IN",
    "website": "https://www.cars24.com/",
    "phone": "+918929759586",
    "phoneUnformatted": "+918929759586",
    "location": {
      "lat": 25.6439714,
      "lng": 85.0921295
    },
    "totalScore": 4.8,
    "permanentlyClosed": false,
    "temporarilyClosed": false,
    "placeId": "ChIJ88PbGhlX7TkRaxGRZFk2SIk",
    "categories": [
      "Used car dealer",
      "Audi dealer",
      "BMW dealer",
      "Car finance and loan company",
      "Honda dealer",
      "Hyundai dealer",
      "Jeep dealer",
      "Kia dealer",
      "Suzuki dealer",
      "Toyota dealer"
    ],
    "reviewsCount": 1639,
    "imagesCount": 498,
    "openingHours": [
      {
        "day": "Monday",
        "hours": "11‚ÄØAM to 8‚ÄØPM"
      },
      {
        "day": "Tuesday",
        "hours": "11‚ÄØAM to 8‚ÄØPM"
      },
      {
        "day": "Wednesday",
        "hours": "11‚ÄØAM to 8‚ÄØPM"
      },
      {
        "day": "Thursday",
        "hours": "11‚ÄØAM to 8‚ÄØPM"
      },
      {
        "day": "Friday",
        "hours": "11‚ÄØAM to 8‚ÄØPM"
      },
      {
        "day": "Saturday",
        "hours": "11‚ÄØAM to 8‚ÄØPM"
      },
      {
        "day": "Sunday",
        "hours": "11‚ÄØAM to 8‚ÄØPM"
      }
    ],
    "imageUrl": "https://lh3.googleusercontent.com/p/AF1QipOLwjwf5S9FwPDKCfFquPFqniLHv3BFKUJo9VWh=w408-h306-k-no",
    "url": "https://www.google.com/maps/search/?api=1&query=CARS24%20-%20Buy%2C%20Sell%2C%20Finance%20Used%20Cars%20in%20Atal%20Path%2C%20Patna&query_place_id=ChIJ88PbGhlX7TkRaxGRZFk2SIk"
  },
  {
    "title": "CarX",
    "subTitle": "‡§ï‡§æ‡§∞‡•ç‡§∏",
    "categoryName": "Used car dealer",
    "address": "Shop No.5 Lower Ground Floor Orchide Mall, Boring Rd, opposite A.N College, Patna, Bihar 800013, India",
    "neighborhood": "Anandpuri",
    "street": "Shop No.5 Lower Ground Floor Orchide Mall, Boring Rd, opposite A.N College",
    "city": "Patna",
    "postalCode": "800013",
    "state": "Bihar",
    "countryCode": "IN",
    "phone": "+916203573818",
    "phoneUnformatted": "+916203573818",
    "location": {
      "lat": 25.6186489,
      "lng": 85.1111995
    },
    "totalScore": 5,
    "permanentlyClosed": false,
    "temporarilyClosed": false,
    "placeId": "ChIJART4Fj5Z7TkRdxlmS56eMbY",
    "categories": [
      "Used car dealer"
    ],
    "reviewsCount": 33,
    "imagesCount": 17,
    "openingHours": [
      {
        "day": "Monday",
        "hours": "10‚ÄØAM to 7‚ÄØPM"
      },
      {
        "day": "Tuesday",
        "hours": "10‚ÄØAM to 7‚ÄØPM"
      },
      {
        "day": "Wednesday",
        "hours": "10‚ÄØAM to 7‚ÄØPM"
      },
      {
        "day": "Thursday",
        "hours": "10‚ÄØAM to 7‚ÄØPM"
      },
      {
        "day": "Friday",
        "hours": "10‚ÄØAM to 7‚ÄØPM"
      },
      {
        "day": "Saturday",
        "hours": "10‚ÄØAM to 7‚ÄØPM"
      },
      {
        "day": "Sunday",
        "hours": "9‚ÄØAM to 5‚ÄØPM"
      }
    ],
    "imageUrl": "https://lh3.googleusercontent.com/p/AF1QipMhqG-SCWv2DS_MHH1MjUKvTLhw_GyQJdLK2EmK=w408-h306-k-no",
    "url": "https://www.google.com/maps/search/?api=1&query=CarX&query_place_id=ChIJART4Fj5Z7TkRdxlmS56eMbY"
  },
  {
    "title": "Citypro Car Rental",
    "categoryName": "Car rental agency",
    "address": "Shivpuri Rd, near Ganga Market, South 1, Shastri Nagar, Patna, Bihar 801103, India",
    "neighborhood": "South 1, Shastri Nagar",
    "street": "Shivpuri Rd, near Ganga Market",
    "city": "Patna",
    "postalCode": "801103",
    "state": "Bihar",
    "countryCode": "IN",
    "website": "http://cityprocab.in/",
    "phone": "+918292566100",
    "phoneUnformatted": "+918292566100",
    "location": {
      "lat": 25.6180089,
      "lng": 85.1088485
    },
    "totalScore": 5,
    "permanentlyClosed": false,
    "temporarilyClosed": false,
    "placeId": "ChIJt_wFYShY7TkRgrMSqRb3UxE",
    "categories": [
      "Car rental agency",
      "Taxi service"
    ],
    "reviewsCount": 54,
    "imagesCount": 111,
    "openingHours": [],
    "imageUrl": "https://lh3.googleusercontent.com/p/AF1QipPdKzAB8hZ1nZFut2v-4rIMJO8H26ZHNNuZFXCK=w408-h408-k-no",
    "url": "https://www.google.com/maps/search/?api=1&query=Citypro%20Car%20Rental&query_place_id=ChIJt_wFYShY7TkRgrMSqRb3UxE"
  },
  {
    "title": "Classic car bazar",
    "subTitle": "‡§ï‡•ç‡§≤‡§æ‡§∏‡§ø‡§ï ‡§ï‡§æ‡§∞ ‡§¨‡§æ‡§ú‡§æ‡§∞",
    "categoryName": "Car dealer",
    "address": "Maa Sharda Complex, Sri Krishna Nagar, Kidwaipuri, Patna, Bihar 800001, India",
    "neighborhood": "Sri Krishna Nagar, Kidwaipuri",
    "street": "Maa Sharda Complex",
    "city": "Patna",
    "postalCode": "800001",
    "state": "Bihar",
    "countryCode": "IN",
    "website": "https://www.classiccarbazar.co.in/",
    "phone": "+917277006600",
    "phoneUnformatted": "+917277006600",
    "location": {
      "lat": 25.6187013,
      "lng": 85.1223131
    },
    "totalScore": 3.8,
    "permanentlyClosed": false,
    "temporarilyClosed": false,
    "placeId": "ChIJ90rsNTdY7TkRMpCwQSIgUFU",
    "categories": [
      "Car dealer",
      "Motor vehicle dealer",
      "Store"
    ],
    "reviewsCount": 10,
    "imagesCount": 34,
    "openingHours": [],
    "imageUrl": "https://lh3.googleusercontent.com/p/AF1QipOODM4tNDEC3qUyx0OIUH2m-BfSoMY2gAExVbq2=w533-h240-k-no",
    "url": "https://www.google.com/maps/search/?api=1&query=Classic%20car%20bazar&query_place_id=ChIJ90rsNTdY7TkRMpCwQSIgUFU"
  },
  {
    "title": "Crown Cab",
    "subTitle": "‡§ï‡•ç‡§∞‡§æ‡§â‡§® ‡§ï‡•à‡§¨",
    "categoryName": "Car rental agency",
    "address": "Kautilya hotel, Daroga Prasad Rai Path, R-Block, Veerchand Patel Road Area, Patna, Bihar 800001, India",
    "neighborhood": "R-Block, Veerchand Patel Road Area",
    "street": "Kautilya hotel, Daroga Prasad Rai Path",
    "city": "Patna",
    "postalCode": "800001",
    "state": "Bihar",
    "countryCode": "IN",
    "phone": "+919334746185",
    "phoneUnformatted": "+919334746185",
    "location": {
      "lat": 25.6019945,
      "lng": 85.1256648
    },
    "totalScore": 4.9,
    "permanentlyClosed": false,
    "temporarilyClosed": false,
    "placeId": "ChIJvVRFT5hZ7TkRf4szgp-V8iI",
    "categories": [
      "Car rental agency"
    ],
    "reviewsCount": 78,
    "openingHours": [
      {
        "day": "Monday",
        "hours": "Open 24 hours"
      },
      {
        "day": "Tuesday",
        "hours": "Open 24 hours"
      },
      {
        "day": "Wednesday",
        "hours": "Open 24 hours"
      },
      {
        "day": "Thursday",
        "hours": "Open 24 hours"
      },
      {
        "day": "Friday",
        "hours": "Open 24 hours"
      },
      {
        "day": "Saturday",
        "hours": "Open 24 hours"
      },
      {
        "day": "Sunday",
        "hours": "Open 24 hours"
      }
    ],
    "imageUrl": "https://lh3.googleusercontent.com/gps-cs-s/AG0ilSze1qpxHTalG3EAYc4YfFDot5KxTXAnzltd24bc449beks2cFk2E6KErAk7kwAos4HgEDbJVgskR2EF54ZTCnx3HnEzYN3im7_zXcwVyl3WcXY3RGtwQT6ipSpWIzAQSaUDxMk5Fg=w408-h725-k-no",
    "url": "https://www.google.com/maps/search/?api=1&query=Crown%20Cab&query_place_id=ChIJvVRFT5hZ7TkRf4szgp-V8iI"
  },
  {
    "title": "ùóóùó≤ùòÅùóÆùó∂ùóπ ùóöùóºùó±",
    "subTitle": "‡§°‡§ø‡§ü‡•á‡§≤ ‡§ó‡•ã‡§¶ | ‡§∏‡•á‡§∞‡§æ‡§Æ‡§ø‡§ï ‡§ï‡•ã‡§ü‡§ø‡§Ç‡§ó | ‡§™‡•Ä‡§™‡•Ä‡§è‡§´ | ‡§°‡§ø‡§ü‡•á‡§≤‡§ø‡§Ç‡§ó",
    "categoryName": "Car detailing service",
    "address": "U e, Ashiana - Digha Rd, adjacent to JK Tyre, near Don Bosco School, Yadav Colony, Digha Ghat, Patna, Bihar 800011, India",
    "neighborhood": "Yadav Colony, Digha Ghat",
    "street": "U e, Ashiana - Digha Rd, adjacent to JK Tyre, near Don Bosco School",
    "city": "Patna",
    "postalCode": "800011",
    "state": "Bihar",
    "countryCode": "IN",
    "phone": "+917004542630",
    "phoneUnformatted": "+917004542630",
    "location": {
      "lat": 25.6345923,
      "lng": 85.0864069
    },
    "totalScore": 4.7,
    "permanentlyClosed": false,
    "temporarilyClosed": false,
    "placeId": "ChIJBU4Bw-NX7TkRAjpi1FdLJHA",
    "categories": [
      "Car detailing service"
    ],
    "reviewsCount": 161,
    "imagesCount": 254,
    "openingHours": [
      {
        "day": "Monday",
        "hours": "10‚ÄØAM to 8‚ÄØPM"
      },
      {
        "day": "Tuesday",
        "hours": "10‚ÄØAM to 8‚ÄØPM"
      },
      {
        "day": "Wednesday",
        "hours": "10‚ÄØAM to 8‚ÄØPM"
      },
      {
        "day": "Thursday",
        "hours": "10‚ÄØAM to 8‚ÄØPM"
      },
      {
        "day": "Friday",
        "hours": "10‚ÄØAM to 8‚ÄØPM"
      },
      {
        "day": "Saturday",
        "hours": "10‚ÄØAM to 8‚ÄØPM"
      },
      {
        "day": "Sunday",
        "hours": "10‚ÄØAM to 8‚ÄØPM"
      }
    ],
    "imageUrl": "https://lh3.googleusercontent.com/p/AF1QipP9N-lbPdd7qGTd8Rdnxhvo5Z6kI0jPR98WSCTd=w408-h306-k-no",
    "url": "https://www.google.com/maps/search/?api=1&query=%F0%9D%97%97%F0%9D%97%B2%F0%9D%98%81%F0%9D%97%AE%F0%9D%97%B6%F0%9D%97%B9%20%F0%9D%97%9A%F0%9D%97%BC%F0%9D%97%B1&query_place_id=ChIJBU4Bw-NX7TkRAjpi1FdLJHA"
  },
  {
    "title": "Dhriti Cabs",
    "subTitle": "‡§ß‡•É‡§§‡§ø ‡§ï‡•à‡§¨‡•ç‡§∏",
    "categoryName": "Car rental agency",
    "address": "Rajeev Nagar, Patna, Bihar 800024, India",
    "neighborhood": "Rajeev Nagar",
    "city": "Patna",
    "postalCode": "800024",
    "state": "Bihar",
    "countryCode": "IN",
    "website": "https://amzn.openinapp.co/xm0ak",
    "phone": "+919334456704",
    "phoneUnformatted": "+919334456704",
    "location": {
      "lat": 25.6322975,
      "lng": 85.0881967
    },
    "totalScore": 4.9,
    "permanentlyClosed": false,
    "temporarilyClosed": false,
    "placeId": "ChIJuZPJBXRX7TkRDVg2lcFchyo",
    "categories": [
      "Car rental agency",
      "Taxi service"
    ],
    "reviewsCount": 89,
    "imagesCount": 24,
    "openingHours": [],
    "imageUrl": "https://lh3.googleusercontent.com/p/AF1QipP3rLoKjuHjsVxbOhwWRmK8_tmx91uH0BROrbAK=w427-h240-k-no",
    "url": "https://www.google.com/maps/search/?api=1&query=Dhriti%20Cabs&query_place_id=ChIJuZPJBXRX7TkRDVg2lcFchyo"
  },
  {
    "title": "Digi Cab Service - Best Cab Service in Patna | Best Taxi Service in Patna",
    "subTitle": "‡§°‡§ø‡§ú‡•Ä ‡§ï‡•à‡§¨ ‡§∏‡§∞‡•ç‡§µ‡§ø‡§∏ - ‡§¨‡•á‡§∏‡•ç‡§ü ‡§ï‡•à‡§¨ ‡§∏‡§∞‡•ç‡§µ‡§ø‡§∏ ‡§á‡§® ‡§™‡§ü‡§®‡§æ | ‡§¨‡•á‡§∏‡•ç‡§ü ‡§ü‡•à‡§ï‡•ç‡§∏‡•Ä ‡§∏‡§∞‡•ç‡§µ‡§ø‡§∏ ‡§á‡§® ‡§™‡§ü‡§®‡§æ",
    "categoryName": "Car leasing service",
    "address": "Near, Kali Mandir Rd, Sanjay Gandhi Nagar, Kankarbagh, Hanuman Nagar, Patna, Bihar 800026, India",
    "neighborhood": "Sanjay Gandhi Nagar, Kankarbagh, Hanuman Nagar",
    "street": "Near, Kali Mandir Rd",
    "city": "Patna",
    "postalCode": "800026",
    "state": "Bihar",
    "countryCode": "IN",
    "website": "https://digicabservice.com/",
    "phone": "+917808107401",
    "phoneUnformatted": "+917808107401",
    "location": {
      "lat": 25.5905324,
      "lng": 85.1625871
    },
    "totalScore": 5,
    "permanentlyClosed": false,
    "temporarilyClosed": false,
    "placeId": "ChIJpeeccJJZ7TkRkAzsJN4jlt0",
    "categories": [
      "Car leasing service",
      "Airport",
      "Airport shuttle service",
      "Taxi service",
      "Transportation service",
      "Travel agency"
    ],
    "reviewsCount": 88,
    "imagesCount": 97,
    "openingHours": [],
    "imageUrl": "https://lh3.googleusercontent.com/p/AF1QipOIlnlattcnSXZ_FEMwFQROVxaib_v_noVDYTxu=w408-h408-k-no",
    "url": "https://www.google.com/maps/search/?api=1&query=Digi%20Cab%20Service%20-%20Best%20Cab%20Service%20in%20Patna%20%7C%20Best%20Taxi%20Service%20in%20Patna&query_place_id=ChIJpeeccJJZ7TkRkAzsJN4jlt0"
  },
  {
    "title": "Divya Rath",
    "subTitle": "‡§¶‡§ø‡§µ‡•ç‡§Ø‡§æ ‡§∞‡§•",
    "categoryName": "Car rental agency",
    "address": "2nd Floor, Verma Sadan, Vishnupuri Rd, Shivpuri, Anisabad, Patna, Bihar 800002, India",
    "neighborhood": "Shivpuri, Anisabad",
    "street": "2nd Floor, Verma Sadan, Vishnupuri Rd",
    "city": "Patna",
    "postalCode": "800002",
    "state": "Bihar",
    "countryCode": "IN",
    "website": "https://www.youtube.com/@divyarathcabs-l5y",
    "phone": "+919153763916",
    "phoneUnformatted": "+919153763916",
    "location": {
      "lat": 25.5798859,
      "lng": 85.10274
    },
    "totalScore": 4.9,
    "permanentlyClosed": false,
    "temporarilyClosed": false,
    "placeId": "ChIJcQJWkkOp8jkR_uXAr5d_m6w",
    "categories": [
      "Car rental agency",
      "Car leasing service",
      "Taxi service",
      "Travel agency"
    ],
    "reviewsCount": 15,
    "imagesCount": 14,
    "openingHours": [],
    "imageUrl": "https://lh3.googleusercontent.com/p/AF1QipP1UW5adXnU35Ez74ci1eWVnnEk6wteeacuDAfB=w532-h240-k-no",
    "url": "https://www.google.com/maps/search/?api=1&query=Divya%20Rath&query_place_id=ChIJcQJWkkOp8jkR_uXAr5d_m6w"
  },
  {
    "title": "Dreamz cars",
    "subTitle": "‡§°‡•ç‡§∞‡•Ä‡§Æ‡•ç‡§ú‡§º ‡§ï‡§æ‡§∞‡•ç‡§∏",
    "categoryName": "Used car dealer",
    "address": "J48C+XC2, West Boring Canal Rd, Anandpuri, Patna, Bihar 800001, India",
    "neighborhood": "Anandpuri",
    "street": "J48C+XC2, West Boring Canal Rd",
    "city": "Patna",
    "postalCode": "800001",
    "state": "Bihar",
    "countryCode": "IN",
    "location": {
      "lat": 25.6173756,
      "lng": 85.1210299
    },
    "totalScore": 3.8,
    "permanentlyClosed": false,
    "temporarilyClosed": false,
    "placeId": "ChIJeeZDEjpY7TkR0zL88FacWaY",
    "categories": [
      "Used car dealer",
      "Auto auction"
    ],
    "reviewsCount": 12,
    "imagesCount": 40,
    "openingHours": [
      {
        "day": "Monday",
        "hours": "10‚ÄØAM to 7‚ÄØPM"
      },
      {
        "day": "Tuesday",
        "hours": "10‚ÄØAM to 7‚ÄØPM"
      },
      {
        "day": "Wednesday",
        "hours": "10‚ÄØAM to 7‚ÄØPM"
      },
      {
        "day": "Thursday",
        "hours": "10‚ÄØAM to 7‚ÄØPM"
      },
      {
        "day": "Friday",
        "hours": "10‚ÄØAM to 7‚ÄØPM"
      },
      {
        "day": "Saturday",
        "hours": "10‚ÄØAM to 7‚ÄØPM"
      },
      {
        "day": "Sunday",
        "hours": "10‚ÄØAM to 7‚ÄØPM"
      }
    ],
    "imageUrl": "https://lh3.googleusercontent.com/gps-cs-s/AG0ilSxfeeKg1BYu_Z2ONDvbFrHyJ7CzGXBaQAY0NUTfmtiKUoOBnYfWZH-_Sq6jbBpHghGwWi5zWiJvQkAwt3eQ1awcFM_nWnuKIYCQR3h_ZDwnpbuHZwfDQkyl-iPqSlwnMMZ9ElLUmA=w408-h544-k-no",
    "url": "https://www.google.com/maps/search/?api=1&query=Dreamz%20cars&query_place_id=ChIJeeZDEjpY7TkR0zL88FacWaY"
  },
  {
    "title": "EazeeCab",
    "subTitle": "‡§à‡§ú‡§º‡•Ä‡§ï‡•à‡§¨",
    "categoryName": "Car rental agency",
    "address": "Rajatan Market, Patliputra Garments, Ramnagri More, Ashiana Digha road, Patna, Bihar 800025, India",
    "neighborhood": "Ashiana, Ram Nagari, Rukanpura",
    "street": "Rajatan Market, Patliputra Garments, Ramnagri More, Ashiana Digha road",
    "city": "Patna",
    "postalCode": "800025",
    "state": "Bihar",
    "countryCode": "IN",
    "website": "http://www.eazeecab.com/",
    "phone": "+919934692970",
    "phoneUnformatted": "+919934692970",
    "location": {
      "lat": 25.6156264,
      "lng": 85.0815137
    },
    "totalScore": 4.8,
    "permanentlyClosed": false,
    "temporarilyClosed": false,
    "placeId": "ChIJHxJsKHpX7TkRCzpMWMFuVzw",
    "categories": [
      "Car rental agency",
      "Airport shuttle service",
      "Taxi service",
      "Taxicab Stand"
    ],
    "reviewsCount": 6,
    "imagesCount": 16,
    "openingHours": [
      {
        "day": "Monday",
        "hours": "Open 24 hours"
      },
      {
        "day": "Tuesday",
        "hours": "Open 24 hours"
      },
      {
        "day": "Wednesday",
        "hours": "Open 24 hours"
      },
      {
        "day": "Thursday",
        "hours": "Open 24 hours"
      },
      {
        "day": "Friday",
        "hours": "Open 24 hours"
      },
      {
        "day": "Saturday",
        "hours": "Open 24 hours"
      },
      {
        "day": "Sunday",
        "hours": "Open 24 hours"
      }
    ],
    "imageUrl": "https://lh3.googleusercontent.com/p/AF1QipOtTHr1wOQ6vZZ8iyXEIhvLEsTmMca2HfwqARgJ=w408-h306-k-no",
    "url": "https://www.google.com/maps/search/?api=1&query=EazeeCab&query_place_id=ChIJHxJsKHpX7TkRCzpMWMFuVzw"
  },
  {
    "title": "Elite Travels - Best Car Rental | Hire and Taxi Services in Patna",
    "subTitle": "‡§è‡§≤‡•Ä‡§ü ‡§ü‡•ç‡§∞‡•à‡§µ‡§≤‡•ç‡§∏ - ‡§¨‡•á‡§∏‡•ç‡§ü ‡§ï‡§æ‡§∞ ‡§∞‡•á‡§Ç‡§ü‡§≤ | ‡§π‡•Ä‡§∞‡•á ‡§è‡§Ç‡§° ‡§ü‡•à‡§ï‡•ç‡§∏‡•Ä ‡§∏‡§∞‡•ç‡§µ‡§ø‡§∏‡•á‡§∏ ‡§á‡§® ‡§™‡§ü‡§®‡§æ",
    "categoryName": "Car leasing service",
    "address": "Shri Krishna Bhawan, Post Office Road, Punaichak, Rajbansi Nagar, Patna, Bihar 801103, India",
    "neighborhood": "Punaichak, Rajbansi Nagar",
    "street": "Shri Krishna Bhawan, Post Office Road",
    "city": "Patna",
    "postalCode": "801103",
    "state": "Bihar",
    "countryCode": "IN",
    "website": "https://eliteetravels.com/",
    "phone": "+916205023665",
    "phoneUnformatted": "+916205023665",
    "location": {
      "lat": 25.6089552,
      "lng": 85.1137819
    },
    "totalScore": 4.7,
    "permanentlyClosed": false,
    "temporarilyClosed": false,
    "placeId": "ChIJzScXGBNZ7TkRivNewGv7c00",
    "categories": [
      "Car leasing service",
      "Taxi service"
    ],
    "reviewsCount": 16,
    "imagesCount": 2,
    "openingHours": [],
    "imageUrl": "https://streetviewpixels-pa.googleapis.com/v1/thumbnail?panoid=9MBM3_hbmtP3ro6-YaA_cg&cb_client=search.gws-prod.gps&w=408&h=240&yaw=302.95538&pitch=0&thumbfov=100",
    "url": "https://www.google.com/maps/search/?api=1&query=Elite%20Travels%20-%20Best%20Car%20Rental%20%7C%20Hire%20and%20Taxi%20Services%20in%20Patna&query_place_id=ChIJzScXGBNZ7TkRivNewGv7c00"
  },
  {
    "title": "Friends Travel Agency",
    "subTitle": "‡§Æ‡§ø‡§§‡•ç‡§∞ ‡§∏‡§´‡§∞ ‡§è‡§ú‡•á‡§Ç‡§∏‡•Ä",
    "categoryName": "Car rental agency",
    "address": "Shop no - 104, 1942 Shaheed Rajendra Singh Complex Postoffice, beside Anisabad, Anisabad, Patna, Bihar 800002, India",
    "neighborhood": "Ali Nagar Colony, Anisabad",
    "street": "Shop no - 104, 1942 Shaheed Rajendra Singh Complex Postoffice, beside Anisabad",
    "city": "Patna",
    "postalCode": "800002",
    "state": "Bihar",
    "countryCode": "IN",
    "website": "http://www.gofriendsgo.com/",
    "phone": "+919709709833",
    "phoneUnformatted": "+919709709833",
    "location": {
      "lat": 25.5858826,
      "lng": 85.0969537
    },
    "totalScore": 4.8,
    "permanentlyClosed": false,
    "temporarilyClosed": false,
    "placeId": "ChIJAQAAAASo8jkRbnSCp-Pd-VY",
    "categories": [
      "Car rental agency",
      "Airline ticket agency",
      "Car leasing service",
      "Travel agency",
      "Sightseeing tour agency",
      "Visa and passport office"
    ],
    "reviewsCount": 500,
    "imagesCount": 165,
    "openingHours": [
      {
        "day": "Monday",
        "hours": "8‚ÄØAM to 8‚ÄØPM"
      },
      {
        "day": "Tuesday",
        "hours": "8‚ÄØAM to 8‚ÄØPM"
      },
      {
        "day": "Wednesday",
        "hours": "8‚ÄØAM to 8‚ÄØPM"
      },
      {
        "day": "Thursday",
        "hours": "8‚ÄØAM to 8‚ÄØPM"
      },
      {
        "day": "Friday",
        "hours": "8‚ÄØAM to 8‚ÄØPM"
      },
      {
        "day": "Saturday",
        "hours": "8‚ÄØAM to 8‚ÄØPM"
      },
      {
        "day": "Sunday",
        "hours": "8‚ÄØAM to 8‚ÄØPM"
      }
    ],
    "imageUrl": "https://lh3.googleusercontent.com/p/AF1QipOK7ImhVgjYNTLeSZxbHLqm-gSdezfu_ZGgE3yy=w408-h408-k-no",
    "url": "https://www.google.com/maps/search/?api=1&query=Friends%20Travel%20Agency&query_place_id=ChIJAQAAAASo8jkRbnSCp-Pd-VY"
  },
  {
    "title": "Go,Luxury car rental",
    "subTitle": "‡§ó‡•ã,‡§≤‡§ó‡•ç‡§ú‡§∞‡•Ä ‡§ï‡§æ‡§∞ ‡§∞‡•á‡§Ç‡§ü‡§≤",
    "categoryName": "Car rental agency",
    "address": "Nehru Nagar, North Sri Krishna Puri, Patna, Bihar 800013, India",
    "neighborhood": "Nehru Nagar, North Sri Krishna Puri",
    "city": "Patna",
    "postalCode": "800013",
    "state": "Bihar",
    "countryCode": "IN",
    "phone": "+919122048797",
    "phoneUnformatted": "+919122048797",
    "location": {
      "lat": 25.6205885,
      "lng": 85.1103214
    },
    "totalScore": 4.7,
    "permanentlyClosed": false,
    "temporarilyClosed": false,
    "placeId": "ChIJtR7HLqhZ7TkR9EltMv7J6OY",
    "categories": [
      "Car rental agency"
    ],
    "reviewsCount": 15,
    "imagesCount": 11,
    "openingHours": [
      {
        "day": "Monday",
        "hours": "Open 24 hours"
      },
      {
        "day": "Tuesday",
        "hours": "Open 24 hours"
      },
      {
        "day": "Wednesday",
        "hours": "Open 24 hours"
      },
      {
        "day": "Thursday",
        "hours": "Open 24 hours"
      },
      {
        "day": "Friday",
        "hours": "Open 24 hours"
      },
      {
        "day": "Saturday",
        "hours": "Open 24 hours"
      },
      {
        "day": "Sunday",
        "hours": "Open 24 hours"
      }
    ],
    "imageUrl": "https://lh3.googleusercontent.com/p/AF1QipPXV52toofKv0mXKCRpBN-VlauUBkOwrqrIOlAd=w408-h886-k-no",
    "url": "https://www.google.com/maps/search/?api=1&query=Go%2CLuxury%20car%20rental&query_place_id=ChIJtR7HLqhZ7TkR9EltMv7J6OY"
  },
  {
    "title": "Gogo Cab",
    "subTitle": "‡§ó‡•ã‡§ó‡•ã ‡§ï‡•à‡§¨",
    "categoryName": "Car rental agency",
    "address": "P&M Mall, CNS HOSPITAL, Industrial, New Patliputra Colony, Patliputra Colony, Patna, Bihar 800013, India",
    "neighborhood": "New Patliputra Colony, Patliputra Colony",
    "street": "P&M Mall, CNS HOSPITAL, Industrial",
    "city": "Patna",
    "postalCode": "800013",
    "state": "Bihar",
    "countryCode": "IN",
    "location": {
      "lat": 25.628128,
      "lng": 85.110737
    },
    "totalScore": 5,
    "permanentlyClosed": false,
    "temporarilyClosed": false,
    "placeId": "ChIJG1xw7zbf92YRdCgi6OJVqB8",
    "categories": [
      "Car rental agency"
    ],
    "reviewsCount": 4,
    "imagesCount": 11,
    "openingHours": [
      {
        "day": "Monday",
        "hours": "6‚ÄØAM to 11‚ÄØPM"
      },
      {
        "day": "Tuesday",
        "hours": "6‚ÄØAM to 11‚ÄØPM"
      },
      {
        "day": "Wednesday",
        "hours": "6‚ÄØAM to 11‚ÄØPM"
      },
      {
        "day": "Thursday",
        "hours": "6‚ÄØAM to 11‚ÄØPM"
      },
      {
        "day": "Friday",
        "hours": "6‚ÄØAM to 11‚ÄØPM"
      },
      {
        "day": "Saturday",
        "hours": "6‚ÄØAM to 11‚ÄØPM"
      },
      {
        "day": "Sunday",
        "hours": "6‚ÄØAM to 11‚ÄØPM"
      }
    ],
    "imageUrl": "https://lh3.googleusercontent.com/p/AF1QipN15m9U3ttonCDLCzqGFSTBaS4U4RE4jl_9npzS=w408-h408-k-no",
    "url": "https://www.google.com/maps/search/?api=1&query=Gogo%20Cab&query_place_id=ChIJG1xw7zbf92YRdCgi6OJVqB8"
  },
  {
    "title": "IKS TOUR & TRAVELS | TAXI SERVICE | LUXURY CAR RENTAL | CAR HIRE IN PATNA|",
    "subTitle": "‡§á‡§ï‡•ç‡§∏ ‡§ü‡•Ç‡§∞ & ‡§ü‡•ç‡§∞‡•à‡§µ‡§≤‡•ç‡§∏ | ‡§ü‡•à‡§ï‡•ç‡§∏‡•Ä ‡§∏‡§∞‡•ç‡§µ‡§ø‡§∏ | ‡§≤‡§ï‡•ç‡§ú‡§∞‡•Ä ‡§ï‡§æ‡§∞ ‡§∞‡•á‡§Ç‡§ü‡§≤ | ‡§ï‡§æ‡§∞ ‡§π‡•Ä‡§∞‡•á ‡§á‡§® ‡§™‡§ü‡§®‡§æ|",
    "categoryName": "Car rental agency",
    "address": "Road no 06, Rajeev Nagar, Digha Ghat, Patna, Bihar 800011, India",
    "neighborhood": "Rajeev Nagar, Digha Ghat",
    "street": "Road no 06",
    "city": "Patna",
    "postalCode": "800011",
    "state": "Bihar",
    "countryCode": "IN",
    "phone": "+919304223282",
    "phoneUnformatted": "+919304223282",
    "location": {
      "lat": 25.6373616,
      "lng": 85.0871591
    },
    "totalScore": 4.9,
    "permanentlyClosed": false,
    "temporarilyClosed": false,
    "placeId": "ChIJG2u0OZRX7TkR0oUvceH98pw",
    "categories": [
      "Car rental agency",
      "Car leasing service",
      "Taxi service"
    ],
    "reviewsCount": 30,
    "imagesCount": 13,
    "openingHours": [],
    "imageUrl": "https://lh3.googleusercontent.com/p/AF1QipMmoDLMxl1ekDZygNWQb4MiWu8IrEJXhlw4_irF=w408-h306-k-no",
    "url": "https://www.google.com/maps/search/?api=1&query=IKS%20TOUR%20%26%20TRAVELS%20%7C%20TAXI%20SERVICE%20%7C%20LUXURY%20CAR%20RENTAL%20%7C%20CAR%20HIRE%20IN%20PATNA%7C&query_place_id=ChIJG2u0OZRX7TkR0oUvceH98pw"
  },
  {
    "title": "KAP SWIFT",
    "subTitle": "‡§ï‡§™ ‡§∏‡•ç‡§µ‡§ø‡§´‡•ç‡§ü",
    "categoryName": "Car rental agency",
    "address": "Bailey Rd, near Pillar no.83, behind of HP world, Mali Tola, Sheikhpura, Patna, Bihar 800014, India",
    "neighborhood": "Mali Tola, Sheikhpura",
    "street": "Bailey Rd, near Pillar no.83, behind of HP world",
    "city": "Patna",
    "postalCode": "800014",
    "state": "Bihar",
    "countryCode": "IN",
    "website": "http://kapswift.com/",
    "phone": "+918877666447",
    "phoneUnformatted": "+918877666447",
    "location": {
      "lat": 25.6042584,
      "lng": 85.092795
    },
    "totalScore": 4.9,
    "permanentlyClosed": false,
    "temporarilyClosed": false,
    "placeId": "ChIJJXK8BiRX7TkR18hU6pNBqZg",
    "categories": [
      "Car rental agency",
      "Car leasing service",
      "Taxi service",
      "Travel agency"
    ],
    "reviewsCount": 43,
    "imagesCount": 14,
    "openingHours": [],
    "imageUrl": "https://lh3.googleusercontent.com/p/AF1QipOFXSsjShQ4oDpQTxECOTBBNAG3yJfvwu-m3Aad=w458-h240-k-no",
    "url": "https://www.google.com/maps/search/?api=1&query=KAP%20SWIFT&query_place_id=ChIJJXK8BiRX7TkR18hU6pNBqZg"
  },
  {
    "title": "Krishna Automobiles",
    "subTitle": "‡§ï‡•É‡§∑‡•ç‡§£‡§æ ‡§ë‡§ü‡•ã‡§Æ‡•ã‡§¨‡§ø‡§≤‡•ç‡§∏",
    "categoryName": "Used car dealer",
    "address": "Shop No :- 12, Sri Ram Kunj Apartment, E Boring Canal Rd, beside Yes Bank ATM, Nageshwar Colony, Kidwaipuri, Patna, Bihar 800001, India",
    "neighborhood": "Nageshwar Colony, Kidwaipuri",
    "street": "Shop No :- 12, Sri Ram Kunj Apartment, E Boring Canal Rd, beside Yes Bank ATM",
    "city": "Patna",
    "postalCode": "800001",
    "state": "Bihar",
    "countryCode": "IN",
    "location": {
      "lat": 25.6138331,
      "lng": 85.1197798
    },
    "totalScore": 5,
    "permanentlyClosed": false,
    "temporarilyClosed": false,
    "placeId": "ChIJN2hpOKBZ7TkRMrA6acQ7Jkg",
    "categories": [
      "Used car dealer"
    ],
    "reviewsCount": 1,
    "imagesCount": 1,
    "openingHours": [],
    "imageUrl": "https://streetviewpixels-pa.googleapis.com/v1/thumbnail?panoid=zg0y6nq7OtXArlh-UAnpPg&cb_client=search.gws-prod.gps&w=408&h=240&yaw=113.06737&pitch=0&thumbfov=100",
    "url": "https://www.google.com/maps/search/?api=1&query=Krishna%20Automobiles&query_place_id=ChIJN2hpOKBZ7TkRMrA6acQ7Jkg"
  },
  {
    "title": "LEADER AUTO SALES PVT LTD",
    "subTitle": "‡§≤‡•Ä‡§°‡§∞ ‡§ë‡§ü‡•ã ‡§∏‡•á‡§≤‡•ç‡§∏ ‡§™‡•Ä‡§µ‡•Ä‡§ü‡•Ä ‡§è‡§≤‡§ü‡•Ä‡§°‡•Ä",
    "categoryName": "Motor vehicle dealer",
    "address": "BHARAT PETROLEUM, BEUR, MORE, near HARI OM PETROL PUMP, Anisabad, Patna, Bihar 800002, India",
    "neighborhood": "Bashisth Colony, Anisabad",
    "street": "BHARAT PETROLEUM, BEUR, MORE, near HARI OM PETROL PUMP",
    "city": "Patna",
    "postalCode": "800002",
    "state": "Bihar",
    "countryCode": "IN",
    "location": {
      "lat": 25.577448,
      "lng": 85.0929151
    },
    "totalScore": 4.8,
    "permanentlyClosed": false,
    "temporarilyClosed": false,
    "placeId": "ChIJ2Z3Ekh2p8jkRILahrfbdDZc",
    "categories": [
      "Motor vehicle dealer"
    ],
    "reviewsCount": 24,
    "imagesCount": 7,
    "openingHours": [
      {
        "day": "Monday",
        "hours": "10‚ÄØAM to 7‚ÄØPM"
      },
      {
        "day": "Tuesday",
        "hours": "10‚ÄØAM to 7‚ÄØPM"
      },
      {
        "day": "Wednesday",
        "hours": "10‚ÄØAM to 7‚ÄØPM"
      },
      {
        "day": "Thursday",
        "hours": "10‚ÄØAM to 7‚ÄØPM"
      },
      {
        "day": "Friday",
        "hours": "10‚ÄØAM to 7‚ÄØPM"
      },
      {
        "day": "Saturday",
        "hours": "10‚ÄØAM to 6:30‚ÄØPM"
      },
      {
        "day": "Sunday",
        "hours": "10‚ÄØAM to 6‚ÄØPM"
      }
    ],
    "imageUrl": "https://lh3.googleusercontent.com/p/AF1QipP7BrZAJsN-9XN66cN7--P0pajNfvXzrW19kc8V=w408-h306-k-no",
    "url": "https://www.google.com/maps/search/?api=1&query=LEADER%20AUTO%20SALES%20PVT%20LTD&query_place_id=ChIJ2Z3Ekh2p8jkRILahrfbdDZc"
  },
  {
    "title": "Luxury Cars in Patna for wedding purposes",
    "subTitle": "‡§≤‡§ï‡•ç‡§ú‡§∞‡•Ä ‡§ï‡§æ‡§∞‡•ç‡§∏ ‡§á‡§® ‡§™‡§ü‡§®‡§æ ‡§´‡•â‡§∞ ‡§µ‡•á‡§°‡§ø‡§Ç‡§ó ‡§™‡§∞‡•ç‡§™‡§∏‡•ç‡§∏",
    "categoryName": "Car rental agency",
    "address": "Laxmi Medical Hall, Road no-1, RK Ave, Rajendra Nagar, Patna, Bihar 800004, India",
    "neighborhood": "Langar Toli, Rajendra Nagar",
    "street": "Laxmi Medical Hall, Road no-1, RK Ave",
    "city": "Patna",
    "postalCode": "800004",
    "state": "Bihar",
    "countryCode": "IN",
    "location": {
      "lat": 25.612191,
      "lng": 85.1560165
    },
    "totalScore": 5,
    "permanentlyClosed": false,
    "temporarilyClosed": false,
    "placeId": "ChIJ2zd225hZ7TkRyoRq1f4b4go",
    "categories": [
      "Car rental agency",
      "Car leasing service"
    ],
    "reviewsCount": 7,
    "imagesCount": 23,
    "openingHours": [
      {
        "day": "Monday",
        "hours": "Open 24 hours"
      },
      {
        "day": "Tuesday",
        "hours": "Open 24 hours"
      },
      {
        "day": "Wednesday",
        "hours": "Open 24 hours"
      },
      {
        "day": "Thursday",
        "hours": "Open 24 hours"
      },
      {
        "day": "Friday",
        "hours": "Open 24 hours"
      },
      {
        "day": "Saturday",
        "hours": "Open 24 hours"
      },
      {
        "day": "Sunday",
        "hours": "Open 24 hours"
      }
    ],
    "imageUrl": "https://lh3.googleusercontent.com/p/AF1QipMr6MgHaY7ZpuQ92QrHJ3MvWVXkDX8zQX00wj0F=w408-h906-k-no",
    "url": "https://www.google.com/maps/search/?api=1&query=Luxury%20Cars%20in%20Patna%20for%20wedding%20purposes&query_place_id=ChIJ2zd225hZ7TkRyoRq1f4b4go"
  },
  {
    "title": "Maa Vaishno tour and travel",
    "subTitle": "‡§Æ‡§æ‡§Å ‡§µ‡•à‡§∑‡•ç‡§£‡•ã ‡§ü‡•Ç‡§∞ ‡§è‡§Ç‡§° ‡§ü‡•ç‡§∞‡•à‡§µ‡§≤",
    "categoryName": "Car rental agency",
    "address": "no 03, P33, Vijay Nagar Rd, Kankarbagh, Hanuman Nagar, Patna, Bihar 800026, India",
    "neighborhood": "Kankarbagh, Hanuman Nagar",
    "street": "no 03, P33, Vijay Nagar Rd",
    "city": "Patna",
    "postalCode": "800026",
    "state": "Bihar",
    "countryCode": "IN",
    "website": "https://maavaishnotourandtravels.com/",
    "phone": "+919525645143",
    "phoneUnformatted": "+919525645143",
    "location": {
      "lat": 25.5880238,
      "lng": 85.1656
    },
    "totalScore": 4.9,
    "permanentlyClosed": false,
    "temporarilyClosed": false,
    "placeId": "ChIJu75CbrJZ7TkRbN77scnYfrQ",
    "categories": [
      "Car rental agency",
      "Taxi service",
      "Travel agency"
    ],
    "reviewsCount": 15,
    "imagesCount": 4,
    "openingHours": [
      {
        "day": "Monday",
        "hours": "Open 24 hours"
      },
      {
        "day": "Tuesday",
        "hours": "Open 24 hours"
      },
      {
        "day": "Wednesday",
        "hours": "Open 24 hours"
      },
      {
        "day": "Thursday",
        "hours": "Open 24 hours"
      },
      {
        "day": "Friday",
        "hours": "Open 24 hours"
      },
      {
        "day": "Saturday",
        "hours": "Open 24 hours"
      },
      {
        "day": "Sunday",
        "hours": "Open 24 hours"
      }
    ],
    "imageUrl": "https://lh3.googleusercontent.com/p/AF1QipOHUur8iusKK7Ssv6144Yh0hxgY0Gjo_8TjHN02=w426-h240-k-no",
    "url": "https://www.google.com/maps/search/?api=1&query=Maa%20Vaishno%20tour%20and%20travel&query_place_id=ChIJu75CbrJZ7TkRbN77scnYfrQ"
  },
  {
    "title": "Madhav Taxi & Cab Service",
    "subTitle": "‡§Æ‡§æ‡§ß‡§µ ‡§ü‡•à‡§ï‡•ç‡§∏‡•Ä & ‡§ï‡•à‡§¨ ‡§∏‡§∞‡•ç‡§µ‡§ø‡§∏",
    "categoryName": "Car rental agency",
    "address": "Boring Rd, near Blinkit warehouse, Anandpuri, Patna, Bihar 800001, India",
    "neighborhood": "Anandpuri",
    "street": "Boring Rd, near Blinkit warehouse",
    "city": "Patna",
    "postalCode": "800001",
    "state": "Bihar",
    "countryCode": "IN",
    "website": "https://madhav-taxi-cab-service.grexa.site/",
    "phone": "+916207700495",
    "phoneUnformatted": "+916207700495",
    "location": {
      "lat": 25.6179067,
      "lng": 85.1188011
    },
    "totalScore": 5,
    "permanentlyClosed": false,
    "temporarilyClosed": false,
    "placeId": "ChIJm3ZCfHJZ7TkRQkTLAnK5JrY",
    "categories": [
      "Car rental agency",
      "Bus tour agency",
      "Car leasing service",
      "Taxi service",
      "Minibus taxi service",
      "Travel agency"
    ],
    "reviewsCount": 5,
    "imagesCount": 24,
    "openingHours": [],
    "imageUrl": "https://lh3.googleusercontent.com/p/AF1QipNRCYflDc7ntcQ4KuADIKWkNFEIYRT6yZJNp-p6=w408-h408-k-no",
    "url": "https://www.google.com/maps/search/?api=1&query=Madhav%20Taxi%20%26%20Cab%20Service&query_place_id=ChIJm3ZCfHJZ7TkRQkTLAnK5JrY"
  },
  {
    "title": "Magadh Tour & Travels | Travel Agency in Patna",
    "subTitle": "‡§Æ‡§ó‡§ß ‡§ü‡•Ç‡§∞ ‡§è‡§Ç‡§° ‡§ü‡•ç‡§∞‡•à‡§µ‡§≤‡•ç‡§∏",
    "categoryName": "Car rental agency",
    "address": "Shiva Enclave, 106, Kankarbagh Main Rd, nearby Jalan shop, PCI Colony, RBI Flats Colony, Bankman Colony, Patna, Bihar 800020, India",
    "neighborhood": "PCI Colony, RBI Flats Colony, Bankman Colony",
    "street": "Shiva Enclave, 106, Kankarbagh Main Rd, nearby Jalan shop",
    "city": "Patna",
    "postalCode": "800020",
    "state": "Bihar",
    "countryCode": "IN",
    "phone": "+918102976432",
    "phoneUnformatted": "+918102976432",
    "location": {
      "lat": 25.6028892,
      "lng": 85.1477075
    },
    "totalScore": 4,
    "permanentlyClosed": false,
    "temporarilyClosed": false,
    "placeId": "ChIJU6Ne9mNY7TkR6GRMXyXOBnY",
    "categories": [
      "Car rental agency",
      "Bus tour agency",
      "Car leasing service",
      "Tour operator",
      "Minibus taxi service",
      "Taxi service",
      "Travel agency"
    ],
    "reviewsCount": 124,
    "imagesCount": 47,
    "openingHours": [
      {
        "day": "Monday",
        "hours": "Open 24 hours"
      },
      {
        "day": "Tuesday",
        "hours": "Open 24 hours"
      },
      {
        "day": "Wednesday",
        "hours": "Open 24 hours"
      },
      {
        "day": "Thursday",
        "hours": "Open 24 hours"
      },
      {
        "day": "Friday",
        "hours": "Open 24 hours"
      },
      {
        "day": "Saturday",
        "hours": "Open 24 hours"
      },
      {
        "day": "Sunday",
        "hours": "Open 24 hours"
      }
    ],
    "imageUrl": "https://lh3.googleusercontent.com/gps-cs-s/AG0ilSyz0XaootFO5CiN3LOdBr7xluqsdeTFW8mRCdrjGSkUDtv6ImFjxHcvOjiBgqag1XeuV_snkSeYjvGjnIcyl5kGJrflpAsjyTjRandV1XaFUJDKXG7AMSE7m0_9R_JftlkMoLAc=w408-h725-k-no",
    "url": "https://www.google.com/maps/search/?api=1&query=Magadh%20Tour%20%26%20Travels%20%7C%20Travel%20Agency%20in%20Patna&query_place_id=ChIJU6Ne9mNY7TkR6GRMXyXOBnY"
  },
  {
    "title": "Maruti Suzuki ARENA (Karlo Automobiles, Patna, Boring Road)",
    "subTitle": "‡§Æ‡§æ‡§∞‡•Å‡§§‡§ø ‡§∏‡•Å‡§ú‡•Å‡§ï‡•Ä ‡§è‡§∞‡•á‡§®‡§æ (‡§ï‡§æ‡§∞‡•ç‡§≤‡•ã ‡§ë‡§ü‡•ã‡§Æ‡•ã‡§¨‡§æ‡§á‡§≤‡•ç‡§∏, ‡§™‡§ü‡§®‡§æ, ‡§¨‡•ã‡§∞‡§ø‡§Ç‡§ó ‡§∞‡•ã‡§°)",
    "categoryName": "Car dealer",
    "address": "Boring Rd, Sri Krishna Puri, Patna, Bihar 800001, India",
    "neighborhood": "Sri Krishna Puri",
    "street": "Boring Rd",
    "city": "Patna",
    "postalCode": "800001",
    "state": "Bihar",
    "countryCode": "IN",
    "website": "https://www.arenaofboringroad.com/?utm_source=gmb&utm_medium=google&utm_campaign=seo-local",
    "phone": "+918062514105",
    "phoneUnformatted": "+918062514105",
    "location": {
      "lat": 25.613326,
      "lng": 85.11754
    },
    "totalScore": 4.4,
    "permanentlyClosed": false,
    "temporarilyClosed": false,
    "placeId": "ChIJDdl6EyVY7TkRhqVU3JXxB3A",
    "categories": [
      "Car dealer"
    ],
    "reviewsCount": 2083,
    "imagesCount": 392,
    "openingHours": [
      {
        "day": "Monday",
        "hours": "10‚ÄØAM to 7‚ÄØPM"
      },
      {
        "day": "Tuesday",
        "hours": "10‚ÄØAM to 7‚ÄØPM"
      },
      {
        "day": "Wednesday",
        "hours": "10‚ÄØAM to 7‚ÄØPM"
      },
      {
        "day": "Thursday",
        "hours": "10‚ÄØAM to 7‚ÄØPM"
      },
      {
        "day": "Friday",
        "hours": "10‚ÄØAM to 7‚ÄØPM"
      },
      {
        "day": "Saturday",
        "hours": "10‚ÄØAM to 7‚ÄØPM"
      },
      {
        "day": "Sunday",
        "hours": "10‚ÄØAM to 7‚ÄØPM"
      }
    ],
    "imageUrl": "https://lh3.googleusercontent.com/p/AF1QipPKJ14aXFU6xL025J3SrCsgfwM4o-JPQdvJc5Aa=w408-h306-k-no",
    "url": "https://www.google.com/maps/search/?api=1&query=Maruti%20Suzuki%20ARENA%20(Karlo%20Automobiles%2C%20Patna%2C%20Boring%20Road)&query_place_id=ChIJDdl6EyVY7TkRhqVU3JXxB3A"
  },
  {
    "title": "MG Motor Ashiana Showroom",
    "subTitle": "‡§è‡§Æ‡§ú‡•Ä ‡§Æ‡•ã‡§ü‡§∞ ‡§Ü‡§∂‡§ø‡§Ø‡§æ‡§®‡§æ ‡§∂‡•ã‡§∞‡•Ç‡§Æ",
    "categoryName": "MG dealer",
    "address": "Ground Floor, Ashiana Vihar Apartment, Rajendra Path, near CDA Building, Radhe Krishn Colony, Ghrounda, Patna, Bihar 800001, India",
    "neighborhood": "Radhe Krishn Colony, Ghrounda",
    "street": "Ground Floor, Ashiana Vihar Apartment, Rajendra Path, near CDA Building",
    "city": "Patna",
    "postalCode": "800001",
    "state": "Bihar",
    "countryCode": "IN",
    "website": "https://dealers.mgmotor.co.in/mg-motor-ashiana-showroom-car-dealer-rajendra-path-patna-371905/Home",
    "phone": "+919608916710",
    "phoneUnformatted": "+919608916710",
    "location": {
      "lat": 25.6074974,
      "lng": 85.1438862
    },
    "totalScore": 4.4,
    "permanentlyClosed": false,
    "temporarilyClosed": false,
    "placeId": "ChIJ21eedClZ7TkRLxxWZBvtC1A",
    "categories": [
      "MG dealer",
      "Car dealer",
      "Motor vehicle dealer"
    ],
    "reviewsCount": 295,
    "imagesCount": 203,
    "openingHours": [
      {
        "day": "Monday",
        "hours": "10‚ÄØAM to 7‚ÄØPM"
      },
      {
        "day": "Tuesday",
        "hours": "10‚ÄØAM to 7‚ÄØPM"
      },
      {
        "day": "Wednesday",
        "hours": "10‚ÄØAM to 7‚ÄØPM"
      },
      {
        "day": "Thursday",
        "hours": "10‚ÄØAM to 7‚ÄØPM"
      },
      {
        "day": "Friday",
        "hours": "10‚ÄØAM to 7‚ÄØPM"
      },
      {
        "day": "Saturday",
        "hours": "10‚ÄØAM to 7‚ÄØPM"
      },
      {
        "day": "Sunday",
        "hours": "10‚ÄØAM to 12‚ÄØAM"
      }
    ],
    "imageUrl": "https://lh3.googleusercontent.com/gps-cs-s/AG0ilSyoFaEADRg8g-OPgqMtzDAzOXp4nnTnl3ucxEpqY-jr_RQ8kZTnDiIG_IvUkAX-Om2FhAJW3ruW7U0GcaoELuig8zP632y8qLiNKNWVZlnnsh_JlCzF4oP_n-pHTF1x0jSxh4nr=w408-h544-k-no",
    "url": "https://www.google.com/maps/search/?api=1&query=MG%20Motor%20Ashiana%20Showroom&query_place_id=ChIJ21eedClZ7TkRLxxWZBvtC1A"
  },
  {
    "title": "Millionaires Toys",
    "subTitle": "‡§Æ‡§ø‡§≤‡§ø‡§Ø‡§®‡•á‡§∞‡•ç‡§∏ ‡§ü‡•â‡§Ø‡§∏",
    "categoryName": "Used car dealer",
    "address": "Ujjain Complex, New Dak Bunglow Rd, Ali Nagar Colony, Salimpur Ahra, Lodipur, Patna, Bihar 800001, India",
    "neighborhood": "Ali Nagar Colony, Salimpur Ahra, Lodipur",
    "street": "Ujjain Complex, New Dak Bunglow Rd",
    "city": "Patna",
    "postalCode": "800001",
    "state": "Bihar",
    "countryCode": "IN",
    "phone": "+919102050786",
    "phoneUnformatted": "+919102050786",
    "location": {
      "lat": 25.610907,
      "lng": 85.14299
    },
    "totalScore": 3.7,
    "permanentlyClosed": false,
    "temporarilyClosed": false,
    "placeId": "ChIJ-fcYJDJZ7TkRs42X3oCByFo",
    "categories": [
      "Used car dealer"
    ],
    "reviewsCount": 27,
    "imagesCount": 3,
    "openingHours": [
      {
        "day": "Monday",
        "hours": "10‚ÄØAM to 8‚ÄØPM"
      },
      {
        "day": "Tuesday",
        "hours": "10‚ÄØAM to 8‚ÄØPM"
      },
      {
        "day": "Wednesday",
        "hours": "10‚ÄØAM to 8‚ÄØPM"
      },
      {
        "day": "Thursday",
        "hours": "10‚ÄØAM to 8‚ÄØPM"
      },
      {
        "day": "Friday",
        "hours": "10‚ÄØAM to 8‚ÄØPM"
      },
      {
        "day": "Saturday",
        "hours": "10‚ÄØAM to 8‚ÄØPM"
      },
      {
        "day": "Sunday",
        "hours": "10‚ÄØAM to 8‚ÄØPM"
      }
    ],
    "imageUrl": "https://lh3.googleusercontent.com/gps-cs-s/AG0ilSwkGOZ5JtT78cXAEiG9XdRpMQPYTUiNJJnILRrEp67jst2LqEr0NwJeeffdW6dPiJkCJn6lF4oA9dzlHnz-kLjBW6t2PBXBqXvri4irxkjg95f121tmnGCcBiN3c0ZVKndrbnBH=w408-h491-k-no",
    "url": "https://www.google.com/maps/search/?api=1&query=Millionaires%20Toys&query_place_id=ChIJ-fcYJDJZ7TkRs42X3oCByFo"
  },
  {
    "title": "Millionaires Toys",
    "subTitle": "‡§Æ‡§ø‡§≤‡§ø‡§Ø‡§®‡•á‡§∞‡•ç‡§∏ ‡§ü‡•â‡§Ø‡§∏",
    "categoryName": "Car dealer",
    "address": "West Boring Canal Rd, Sri Krishna Nagar, Buddha Colony, Patna, Bihar 800001, India",
    "neighborhood": "Sri Krishna Nagar, Buddha Colony",
    "street": "West Boring Canal Rd",
    "city": "Patna",
    "postalCode": "800001",
    "state": "Bihar",
    "countryCode": "IN",
    "phone": "+919304567625",
    "phoneUnformatted": "+919304567625",
    "location": {
      "lat": 25.6180062,
      "lng": 85.1218848
    },
    "totalScore": 5,
    "permanentlyClosed": false,
    "temporarilyClosed": false,
    "placeId": "ChIJqdKBWHZZ7TkRM645keymbKI",
    "categories": [
      "Car dealer"
    ],
    "reviewsCount": 1,
    "imagesCount": 10,
    "openingHours": [
      {
        "day": "Monday",
        "hours": "10‚ÄØAM to 7‚ÄØPM"
      },
      {
        "day": "Tuesday",
        "hours": "10‚ÄØAM to 7‚ÄØPM"
      },
      {
        "day": "Wednesday",
        "hours": "10‚ÄØAM to 7‚ÄØPM"
      },
      {
        "day": "Thursday",
        "hours": "10‚ÄØAM to 7‚ÄØPM"
      },
      {
        "day": "Friday",
        "hours": "10‚ÄØAM to 7‚ÄØPM"
      },
      {
        "day": "Saturday",
        "hours": "10‚ÄØAM to 7‚ÄØPM"
      },
      {
        "day": "Sunday",
        "hours": "10‚ÄØAM to 7‚ÄØPM"
      }
    ],
    "imageUrl": "https://lh3.googleusercontent.com/gps-cs-s/AG0ilSwxMsjUnW683skgQDWMuEhP57mTojxYyihbgV4A1CPQb4_Rfpw_A_jZjeIDPrJ9eVZHtSbxE1oBS3E_-HT941FeVTAb74u1_qrbIhJeM6JaienM_N6By6P4YFKV9G-VnBSM4lU=w408-h272-k-no",
    "url": "https://www.google.com/maps/search/?api=1&query=Millionaires%20Toys&query_place_id=ChIJqdKBWHZZ7TkRM645keymbKI"
  },
  {
    "title": "Millionaires Toys on Rent",
    "subTitle": "‡§Æ‡§ø‡§≤‡§ø‡§Ø‡§®‡•á‡§∞‡•ç‡§∏ ‡§ü‡•â‡§Ø‡§∏ ‡§ë‡§® ‡§∞‡•á‡§Ç‡§ü",
    "categoryName": "Car leasing service",
    "address": "Shushant Enclave, Boring Rd, near Guinea Motors, Patna, Bihar 800001, India",
    "neighborhood": "Anandpuri",
    "street": "Shushant Enclave, Boring Rd, near Guinea Motors",
    "city": "Patna",
    "postalCode": "800001",
    "state": "Bihar",
    "countryCode": "IN",
    "phone": "+919661154613",
    "phoneUnformatted": "+919661154613",
    "location": {
      "lat": 25.6169302,
      "lng": 85.120904
    },
    "totalScore": 4.8,
    "permanentlyClosed": false,
    "temporarilyClosed": false,
    "placeId": "ChIJ27lCyvVZ7TkRaRN7Qo5TiR0",
    "categories": [
      "Car leasing service"
    ],
    "reviewsCount": 72,
    "imagesCount": 38,
    "openingHours": [
      {
        "day": "Monday",
        "hours": "9‚ÄØAM to 8‚ÄØPM"
      },
      {
        "day": "Tuesday",
        "hours": "9‚ÄØAM to 8‚ÄØPM"
      },
      {
        "day": "Wednesday",
        "hours": "9‚ÄØAM to 8‚ÄØPM"
      },
      {
        "day": "Thursday",
        "hours": "9‚ÄØAM to 8‚ÄØPM"
      },
      {
        "day": "Friday",
        "hours": "9‚ÄØAM to 8‚ÄØPM"
      },
      {
        "day": "Saturday",
        "hours": "9‚ÄØAM to 8‚ÄØPM"
      },
      {
        "day": "Sunday",
        "hours": "9‚ÄØAM to 8‚ÄØPM"
      }
    ],
    "imageUrl": "https://lh3.googleusercontent.com/p/AF1QipMlp5TiFvvJblMIcsHuVPq_Oe-2zTKw6g_v2HZl=w408-h408-k-no",
    "url": "https://www.google.com/maps/search/?api=1&query=Millionaires%20Toys%20on%20Rent&query_place_id=ChIJ27lCyvVZ7TkRaRN7Qo5TiR0"
  },
  {
    "title": "Mishra Tour & Travels",
    "subTitle": "‡§Æ‡§ø‡§∂‡•ç‡§∞‡§æ ‡§ü‡•Ç‡§∞ ‡§è‡§Ç‡§° ‡§ü‡•ç‡§∞‡•à‡§µ‡§≤‡•ç‡§∏",
    "categoryName": "Car rental agency",
    "address": "C/194, Paharpur Rd, C Sector, Police Colony, Anisabad, Patna, Bihar 800002, India",
    "neighborhood": "C Sector, Police Colony, Anisabad",
    "street": "C/194, Paharpur Rd",
    "city": "Patna",
    "postalCode": "800002",
    "state": "Bihar",
    "countryCode": "IN",
    "website": "http://www.mishratravels.com/",
    "phone": "+919304739135",
    "phoneUnformatted": "+919304739135",
    "location": {
      "lat": 25.5844271,
      "lng": 85.0867241
    },
    "totalScore": 3.6,
    "permanentlyClosed": false,
    "temporarilyClosed": true,
    "placeId": "ChIJ2zF6NuZX7TkRYRypIKE0gZ8",
    "categories": [
      "Car rental agency",
      "Travel agency"
    ],
    "reviewsCount": 25,
    "imagesCount": 2,
    "openingHours": [],
    "imageUrl": "https://streetviewpixels-pa.googleapis.com/v1/thumbnail?panoid=B8sr7yNV7lZkkYr_aqGHdQ&cb_client=search.gws-prod.gps&w=408&h=240&yaw=196.56657&pitch=0&thumbfov=100",
    "url": "https://www.google.com/maps/search/?api=1&query=Mishra%20Tour%20%26%20Travels&query_place_id=ChIJ2zF6NuZX7TkRYRypIKE0gZ8"
  },
  {
    "title": "Namrata Cab",
    "subTitle": "‡§®‡§Æ‡•ç‡§∞‡§§‡§æ ‡§ï‡•à‡§¨",
    "categoryName": "Car rental agency",
    "address": "10, Circular Rd, near airport, Rajbansi Nagar, Patna, Bihar 800001, India",
    "neighborhood": "Rajbansi Nagar",
    "street": "10, Circular Rd, near airport",
    "city": "Patna",
    "postalCode": "800001",
    "state": "Bihar",
    "countryCode": "IN",
    "website": "https://namratacabpatna.in/",
    "phone": "+917050813544",
    "phoneUnformatted": "+917050813544",
    "location": {
      "lat": 25.5974281,
      "lng": 85.1073511
    },
    "totalScore": 5,
    "permanentlyClosed": false,
    "temporarilyClosed": false,
    "placeId": "ChIJj13nvbaAC64RuIoJY98pGY8",
    "categories": [
      "Car rental agency"
    ],
    "reviewsCount": 61,
    "imagesCount": 20,
    "openingHours": [
      {
        "day": "Monday",
        "hours": "Open 24 hours"
      },
      {
        "day": "Tuesday",
        "hours": "Open 24 hours"
      },
      {
        "day": "Wednesday",
        "hours": "Open 24 hours"
      },
      {
        "day": "Thursday",
        "hours": "Open 24 hours"
      },
      {
        "day": "Friday",
        "hours": "Open 24 hours"
      },
      {
        "day": "Saturday",
        "hours": "Open 24 hours"
      },
      {
        "day": "Sunday",
        "hours": "Open 24 hours"
      }
    ],
    "imageUrl": "https://lh3.googleusercontent.com/gps-cs-s/AG0ilSzOVtKr73rzAsQfZ9kOuTRknAgqx-NTQtm9U8vD-qRGFWrirQp3wJp_J4PTYm-GTIBRdDq1k0Q0c_BUda_oTcx9xJkcrqVZiKwV6DQWIhNEoGx_NxRD-8iI6J1YAL31FoBn0XpPFkw6Ste3=w408-h544-k-no",
    "url": "https://www.google.com/maps/search/?api=1&query=Namrata%20Cab&query_place_id=ChIJj13nvbaAC64RuIoJY98pGY8"
  },
  {
    "title": "NEXA (Shree Gopal Auto, Patna, New Bypass)",
    "subTitle": "‡§®‡•á‡§ï‡•ç‡§∏‡§æ (‡§∂‡•ç‡§∞‡•Ä ‡§ó‡•ã‡§™‡§æ‡§≤ ‡§ë‡§ü‡•ã, ‡§™‡§ü‡§®‡§æ, ‡§®‡•ç‡§Ø‡•Ç ‡§¨‡§æ‡§à‡§™‡§æ‡§∏)",
    "categoryName": "Car dealer",
    "address": "Bypass Rd, Bansi Vihar, Anisabad, Patna, Bihar 800002, India",
    "neighborhood": "Bansi Vihar, Anisabad",
    "street": "Bypass Rd",
    "city": "Patna",
    "postalCode": "800002",
    "state": "Bihar",
    "countryCode": "IN",
    "website": "https://www.nexaofanisabad.com/?utm_source=gmb&utm_medium=google&utm_campaign=seo-local",
    "phone": "+918062217112",
    "phoneUnformatted": "+918062217112",
    "location": {
      "lat": 25.5812458,
      "lng": 85.1090005
    },
    "totalScore": 4.4,
    "permanentlyClosed": false,
    "temporarilyClosed": false,
    "placeId": "ChIJKx2HoZqn8jkRcZ6Jqr2kf_U",
    "categories": [
      "Car dealer"
    ],
    "reviewsCount": 1229,
    "imagesCount": 381,
    "openingHours": [
      {
        "day": "Monday",
        "hours": "9:30‚ÄØAM to 6:30‚ÄØPM"
      },
      {
        "day": "Tuesday",
        "hours": "9:30‚ÄØAM to 6:30‚ÄØPM"
      },
      {
        "day": "Wednesday",
        "hours": "9:30‚ÄØAM to 6:30‚ÄØPM"
      },
      {
        "day": "Thursday",
        "hours": "9:30‚ÄØAM to 6:30‚ÄØPM"
      },
      {
        "day": "Friday",
        "hours": "9:30‚ÄØAM to 6:30‚ÄØPM"
      },
      {
        "day": "Saturday",
        "hours": "9:30‚ÄØAM to 6:30‚ÄØPM"
      },
      {
        "day": "Sunday",
        "hours": "9:30‚ÄØAM to 6:30‚ÄØPM"
      }
    ],
    "imageUrl": "https://lh3.googleusercontent.com/gps-cs-s/AG0ilSxSSFR7sBvRzsNgT6KuLIqm9RhqPPCBH9QyqYX4zttR9zQ5YATMFBMXuTW0Qg6b8D85nmd2e_TjB5Dc5pD2ar8_tnu3RMBRrMe_1yYmpHbXytLPDVHUXKUq5mOOTJWVzrXHO-WoTRcE0Dzl=w408-h544-k-no",
    "url": "https://www.google.com/maps/search/?api=1&query=NEXA%20(Shree%20Gopal%20Auto%2C%20Patna%2C%20New%20Bypass)&query_place_id=ChIJKx2HoZqn8jkRcZ6Jqr2kf_U"
  },
  {
    "title": "Nirvanacab - Your taxi and Cab Partner in Patna",
    "subTitle": "‡§®‡§ø‡§∞‡•ç‡§µ‡§Ç‡§∏‡•Ä‡§è‡§¨‡•Ä - ‡§Ø‡•ã‡§∞ ‡§ü‡•à‡§ï‡•ç‡§∏‡•Ä ‡§è‡§Ç‡§° ‡§ï‡•à‡§¨ ‡§™‡§æ‡§∞‡•ç‡§ü‡§®‡§∞ ‡§á‡§® ‡§™‡§ü‡§®‡§æ",
    "categoryName": "Car rental agency",
    "address": "k-582, near Housing Board Office, Kankarbagh, Lohia Nagar, Patna, Bihar 800020, India",
    "neighborhood": "Kankarbagh, Lohia Nagar",
    "street": "k-582, near Housing Board Office",
    "city": "Patna",
    "postalCode": "800020",
    "state": "Bihar",
    "countryCode": "IN",
    "website": "http://www.nirvanacab.com/",
    "phone": "+917324942884",
    "phoneUnformatted": "+917324942884",
    "location": {
      "lat": 25.5929218,
      "lng": 85.1514299
    },
    "totalScore": 4.1,
    "permanentlyClosed": false,
    "temporarilyClosed": false,
    "placeId": "ChIJeeftwJpY7TkRkLeHof5HyyM",
    "categories": [
      "Car rental agency",
      "Airport shuttle service",
      "Car leasing service",
      "Taxi service",
      "Minibus taxi service",
      "Rental car return location",
      "Travel agency",
      "Van rental agency"
    ],
    "reviewsCount": 319,
    "imagesCount": 55,
    "openingHours": [],
    "imageUrl": "https://lh3.googleusercontent.com/p/AF1QipN_kWb3jxFYiZgHFsLCbQpd8_n_yzNeQA4gtmUk=w408-h408-k-no",
    "url": "https://www.google.com/maps/search/?api=1&query=Nirvanacab%20-%20Your%20taxi%20and%20Cab%20Partner%20in%20Patna&query_place_id=ChIJeeftwJpY7TkRkLeHof5HyyM"
  },
  {
    "title": "OM SAI MOTORS",
    "subTitle": "‡§ì‡§Æ ‡§∏‡§æ‡§à ‡§Æ‡•ã‡§ü‡§∞‡•ç‡§∏",
    "categoryName": "Used car dealer",
    "address": "West Boring Canal Rd, beside Tata Motors Showroom, Anandpuri, Patna, Bihar 800001, India",
    "neighborhood": "Anandpuri",
    "street": "West Boring Canal Rd, beside Tata Motors Showroom",
    "city": "Patna",
    "postalCode": "800001",
    "state": "Bihar",
    "countryCode": "IN",
    "website": "http://www.omsaimotors.co.in/",
    "phone": "+919661686867",
    "phoneUnformatted": "+919661686867",
    "location": {
      "lat": 25.6174842,
      "lng": 85.121145
    },
    "totalScore": 4.4,
    "permanentlyClosed": false,
    "temporarilyClosed": false,
    "placeId": "ChIJ44aEBQVZ7TkRB4hucJVSv5E",
    "categories": [
      "Used car dealer"
    ],
    "reviewsCount": 8,
    "imagesCount": 45,
    "openingHours": [
      {
        "day": "Monday",
        "hours": "9‚ÄØAM to 6‚ÄØPM"
      },
      {
        "day": "Tuesday",
        "hours": "9‚ÄØAM to 6‚ÄØPM"
      },
      {
        "day": "Wednesday",
        "hours": "9‚ÄØAM to 6‚ÄØPM"
      },
      {
        "day": "Thursday",
        "hours": "9‚ÄØAM to 6‚ÄØPM"
      },
      {
        "day": "Friday",
        "hours": "9‚ÄØAM to 6‚ÄØPM"
      },
      {
        "day": "Saturday",
        "hours": "9‚ÄØAM to 6‚ÄØPM"
      },
      {
        "day": "Sunday",
        "hours": "9‚ÄØAM to 6‚ÄØPM"
      }
    ],
    "imageUrl": "https://lh3.googleusercontent.com/gps-cs-s/AG0ilSz0YLiHf2HJlM-7zSY8WmaCxsLRaKl4vLGAo_YwH_UJ2SflqrN8wsUBd4yXuFf9KXS0DAID81tPgEEp_gQ-lVOIM9QiVWMkNKZR-RJT2bi_XcrQmwLL_sd_0Sa-PjjT0dT85paJ=w408-h250-k-no",
    "url": "https://www.google.com/maps/search/?api=1&query=OM%20SAI%20MOTORS&query_place_id=ChIJ44aEBQVZ7TkRB4hucJVSv5E"
  },
  {
    "title": "Patna Car Bazaar",
    "subTitle": "‡§™‡§ü‡§®‡§æ ‡§ï‡§æ‡§∞ ‡§¨‡§æ‡§ú‡§º‡§æ‡§∞",
    "categoryName": "Used car dealer",
    "address": "Sri Ram Mairege Hall, behind Alankar Business Center, opp. Udayan Hospital, Sri Krishna Nagar, Kidwaipuri, Patna, Bihar 800001, India",
    "neighborhood": "Sri Krishna Nagar, Kidwaipuri",
    "street": "Sri Ram Mairege Hall, behind Alankar Business Center, opp. Udayan Hospital",
    "city": "Patna",
    "postalCode": "800001",
    "state": "Bihar",
    "countryCode": "IN",
    "phone": "+919199829877",
    "phoneUnformatted": "+919199829877",
    "location": {
      "lat": 25.6193314,
      "lng": 85.1226014
    },
    "totalScore": 4.6,
    "permanentlyClosed": false,
    "temporarilyClosed": false,
    "placeId": "ChIJTYVL825Z7TkRKTBdNfyoGBA",
    "categories": [
      "Used car dealer"
    ],
    "reviewsCount": 243,
    "imagesCount": 222,
    "openingHours": [
      {
        "day": "Monday",
        "hours": "10‚ÄØAM to 7‚ÄØPM"
      },
      {
        "day": "Tuesday",
        "hours": "10‚ÄØAM to 7‚ÄØPM"
      },
      {
        "day": "Wednesday",
        "hours": "10‚ÄØAM to 7‚ÄØPM"
      },
      {
        "day": "Thursday",
        "hours": "10‚ÄØAM to 7‚ÄØPM"
      },
      {
        "day": "Friday",
        "hours": "10‚ÄØAM to 7‚ÄØPM"
      },
      {
        "day": "Saturday",
        "hours": "10‚ÄØAM to 7‚ÄØPM"
      },
      {
        "day": "Sunday",
        "hours": "9‚ÄØAM to 8‚ÄØPM"
      }
    ],
    "imageUrl": "https://lh3.googleusercontent.com/p/AF1QipNbd6ta4UA-bnblB3fTcgwaaCyql4gMfa-xPf7Q=w522-h240-k-no",
    "url": "https://www.google.com/maps/search/?api=1&query=Patna%20Car%20Bazaar&query_place_id=ChIJTYVL825Z7TkRKTBdNfyoGBA"
  },
  {
    "title": "Patna Wheels Point Pvt. Ltd.",
    "subTitle": "‡§™‡§ü‡§®‡§æ ‡§µ‡•ç‡§π‡•Ä‡§≤‡•ç‡§∏ ‡§™‡•â‡§á‡§Ç‡§ü ‡§™‡•Ä‡§µ‡•Ä‡§ü‡•Ä. ‡§è‡§≤‡§ü‡•Ä‡§°‡•Ä.",
    "categoryName": "Motor vehicle dealer",
    "address": "J46R+37W, J P Das Ln, Old Jakkanpur, Lodipur, Patna, Bihar 800001, India",
    "neighborhood": "Old Jakkanpur, Lodipur",
    "street": "J46R+37W, J P Das Ln",
    "city": "Patna",
    "postalCode": "800001",
    "state": "Bihar",
    "countryCode": "IN",
    "website": "http://www.mahindrafirstchoice.com/",
    "phone": "+916122216202",
    "phoneUnformatted": "+916122216202",
    "location": {
      "lat": 25.6102329,
      "lng": 85.1407164
    },
    "totalScore": 3.7,
    "permanentlyClosed": false,
    "temporarilyClosed": false,
    "placeId": "ChIJh0skXVxY7TkRGwvXZMNi5as",
    "categories": [
      "Motor vehicle dealer",
      "Used car dealer"
    ],
    "reviewsCount": 40,
    "openingHours": [
      {
        "day": "Monday",
        "hours": "10‚ÄØAM to 7‚ÄØPM"
      },
      {
        "day": "Tuesday",
        "hours": "10‚ÄØAM to 7‚ÄØPM"
      },
      {
        "day": "Wednesday",
        "hours": "10‚ÄØAM to 7‚ÄØPM"
      },
      {
        "day": "Thursday",
        "hours": "10‚ÄØAM to 7‚ÄØPM"
      },
      {
        "day": "Friday",
        "hours": "10‚ÄØAM to 7‚ÄØPM"
      },
      {
        "day": "Saturday",
        "hours": "10‚ÄØAM to 7‚ÄØPM"
      },
      {
        "day": "Sunday",
        "hours": "10‚ÄØAM to 7‚ÄØPM"
      }
    ],
    "imageUrl": "https://lh3.googleusercontent.com/gps-cs-s/AG0ilSy_6fdN-H5w84Yb4VMUr2eMcsLe8db2l8GBvMnLA_ITZDyOXuFGrxqMDP6tDDOIo-LS4vlK7M1G-06FpuMmlkKpaE7Q5D3B0HtwlKaCilUCBy6lkdybhOlI4jIDdDkrv5ZRgGWk7nFNYT1T=w408-h725-k-no",
    "url": "https://www.google.com/maps/search/?api=1&query=Patna%20Wheels%20Point%20Pvt.%20Ltd.&query_place_id=ChIJh0skXVxY7TkRGwvXZMNi5as"
  },
  {
    "title": "Rajnarayan Travels",
    "subTitle": "‡§∞‡§æ‡§ú‡§®‡§æ‡§∞‡§æ‡§Ø‡§£ ‡§ü‡•ç‡§∞‡•à‡§µ‡§≤‡•ç‡§∏",
    "categoryName": "Car rental agency",
    "address": "Rajapur Pul, Mainpura Rd, opposite of gate no-36, behind the middle school, Rajapur, Mainpura, Patna, Bihar 800001, India",
    "neighborhood": "Rajapur, Mainpura",
    "street": "Rajapur Pul, Mainpura Rd, opposite of gate no-36, behind the middle school",
    "city": "Patna",
    "postalCode": "800001",
    "state": "Bihar",
    "countryCode": "IN",
    "website": "https://rajnarayantravels.com/",
    "phone": "+917903258502",
    "phoneUnformatted": "+917903258502",
    "location": {
      "lat": 25.6258399,
      "lng": 85.122889
    },
    "totalScore": 5,
    "permanentlyClosed": false,
    "temporarilyClosed": false,
    "placeId": "ChIJLRJ0rbpZ7TkRMTxSkuuJXDU",
    "categories": [
      "Car rental agency"
    ],
    "reviewsCount": 25,
    "imagesCount": 19,
    "openingHours": [
      {
        "day": "Monday",
        "hours": "8‚ÄØAM to 10‚ÄØPM"
      },
      {
        "day": "Tuesday",
        "hours": "8‚ÄØAM to 10‚ÄØPM"
      },
      {
        "day": "Wednesday",
        "hours": "8‚ÄØAM to 10‚ÄØPM"
      },
      {
        "day": "Thursday",
        "hours": "8‚ÄØAM to 10‚ÄØPM"
      },
      {
        "day": "Friday",
        "hours": "8‚ÄØAM to 10‚ÄØPM"
      },
      {
        "day": "Saturday",
        "hours": "8‚ÄØAM to 10‚ÄØPM"
      },
      {
        "day": "Sunday",
        "hours": "8‚ÄØAM to 10‚ÄØPM"
      }
    ],
    "imageUrl": "https://lh3.googleusercontent.com/gps-cs-s/AG0ilSyWTpPr8CqYJ6FGclDkQoFPR4KmtFl1nWAE-Rc-X261GAasf19q7th2KkHCPr3iui5ilIxvdF8HyBxdvOziW_MVz24ymnsAFh461H7P71eYEPEj7i2GCN78ntnmeBgw3VOcy3j9h3Awx0OU=w408-h306-k-no",
    "url": "https://www.google.com/maps/search/?api=1&query=Rajnarayan%20Travels&query_place_id=ChIJLRJ0rbpZ7TkRMTxSkuuJXDU"
  },
  {
    "title": "RAJRANI EXPRESS CAB",
    "subTitle": "‡§∞‡§æ‡§ú‡§∞‡§æ‡§®‡•Ä ‡§è‡§ï‡•ç‡§∏‡§™‡•ç‡§∞‡•á‡§∏ ‡§ï‡•à‡§¨",
    "categoryName": "Car rental agency",
    "address": "Rd Number 12, Bahadurpur Gumti, Rajendra Nagar, Patna, Bihar 800016, India",
    "neighborhood": "Bahadurpur Gumti, Rajendra Nagar",
    "street": "Rd Number 12",
    "city": "Patna",
    "postalCode": "800016",
    "state": "Bihar",
    "countryCode": "IN",
    "website": "https://rajraniexpresscab.com/",
    "phone": "+917903383483",
    "phoneUnformatted": "+917903383483",
    "location": {
      "lat": 25.6032862,
      "lng": 85.1669269
    },
    "totalScore": 5,
    "permanentlyClosed": false,
    "temporarilyClosed": false,
    "placeId": "ChIJOfwGwbhZ7TkRIwP0NCz9pH8",
    "categories": [
      "Car rental agency",
      "Taxi service",
      "Minibus taxi service",
      "Travel agency"
    ],
    "reviewsCount": 1018,
    "imagesCount": 124,
    "openingHours": [],
    "imageUrl": "https://lh3.googleusercontent.com/p/AF1QipN3W8UADRQdiwleSaxvd10_X5WWtFT60G8QyZva=w426-h240-k-no",
    "url": "https://www.google.com/maps/search/?api=1&query=RAJRANI%20EXPRESS%20CAB&query_place_id=ChIJOfwGwbhZ7TkRIwP0NCz9pH8"
  },
  {
    "title": "Ranjeet Cab Taxi",
    "subTitle": "‡§∞‡§Ç‡§ú‡•Ä‡§§ ‡§ï‡•à‡§¨ ‡§ü‡•à‡§ï‡•ç‡§∏‡•Ä",
    "categoryName": "Car rental agency",
    "address": "Kanti Factory Rd, near competitiv English, Kankarbagh, lohiya nagar, Patna, Bihar 800026, India",
    "neighborhood": "Kankarbagh, lohiya nagar",
    "street": "Kanti Factory Rd, near competitiv English",
    "city": "Patna",
    "postalCode": "800026",
    "state": "Bihar",
    "countryCode": "IN",
    "website": "https://rcabservice.com/",
    "phone": "+919264237222",
    "phoneUnformatted": "+919264237222",
    "location": {
      "lat": 25.5928614,
      "lng": 85.1682632
    },
    "totalScore": 5,
    "permanentlyClosed": false,
    "temporarilyClosed": false,
    "placeId": "ChIJf6Ejv8tZ7TkRJta5GMDh6mk",
    "categories": [
      "Car rental agency",
      "Taxi service",
      "Travel agency"
    ],
    "reviewsCount": 1177,
    "imagesCount": 314,
    "openingHours": [],
    "imageUrl": "https://lh3.googleusercontent.com/p/AF1QipNrJ13PkgkUSgSOJppYGSJ9y6uJRX_KwUHafnaL=w408-h306-k-no",
    "url": "https://www.google.com/maps/search/?api=1&query=Ranjeet%20Cab%20Taxi&query_place_id=ChIJf6Ejv8tZ7TkRJta5GMDh6mk"
  },
  {
    "title": "Rental Car Services",
    "subTitle": "‡§∞‡•á‡§Ç‡§ü‡§≤ ‡§ï‡§æ‡§∞ ‡§∏‡§∞‡•ç‡§µ‡§ø‡§∏‡•á‡§∏",
    "categoryName": "Car rental agency",
    "address": "Boring Rd, opposite A N College, above MAHAVIR MEDICAL SHOP, Sri Krishna Puri, Patna, Bihar 800001, India",
    "neighborhood": "Sri Krishna Puri",
    "street": "Boring Rd, opposite A N College, above MAHAVIR MEDICAL SHOP",
    "city": "Patna",
    "postalCode": "800001",
    "state": "Bihar",
    "countryCode": "IN",
    "phone": "+919241059155",
    "phoneUnformatted": "+919241059155",
    "location": {
      "lat": 25.6169151,
      "lng": 85.1125273
    },
    "totalScore": 4.7,
    "permanentlyClosed": false,
    "temporarilyClosed": false,
    "placeId": "ChIJQ3Up3MxdJaQRabMsqJQU2Vc",
    "categories": [
      "Car rental agency",
      "Minibus taxi service",
      "Van rental agency"
    ],
    "reviewsCount": 15,
    "imagesCount": 19,
    "openingHours": [],
    "imageUrl": "https://lh3.googleusercontent.com/p/AF1QipPCDW41w-Q7I2olA-yP6N0zVo0y8J4rV82SI_d-=w427-h240-k-no",
    "url": "https://www.google.com/maps/search/?api=1&query=Rental%20Car%20Services&query_place_id=ChIJQ3Up3MxdJaQRabMsqJQU2Vc"
  },
  {
    "title": "ROYAL CAR'S",
    "subTitle": "‡§∞‡•â‡§Ø‡§≤ ‡§ï‡§æ‡§∞'‡§∏",
    "categoryName": "Used car dealer",
    "address": "West Boring Canal Rd, near Bharat Petrol Pump, Anandpuri, Patna, Bihar 800001, India",
    "neighborhood": "Anandpuri",
    "street": "West Boring Canal Rd, near Bharat Petrol Pump",
    "city": "Patna",
    "postalCode": "800001",
    "state": "Bihar",
    "countryCode": "IN",
    "phone": "+919472962269",
    "phoneUnformatted": "+919472962269",
    "location": {
      "lat": 25.6154734,
      "lng": 85.1201363
    },
    "totalScore": 5,
    "permanentlyClosed": false,
    "temporarilyClosed": false,
    "placeId": "ChIJPVY38gtZ7TkRLQFTz4EMseM",
    "categories": [
      "Used car dealer",
      "Car dealer"
    ],
    "reviewsCount": 118,
    "imagesCount": 65,
    "openingHours": [
      {
        "day": "Monday",
        "hours": "10:30‚ÄØAM to 7‚ÄØPM"
      },
      {
        "day": "Tuesday",
        "hours": "10:30‚ÄØAM to 7‚ÄØPM"
      },
      {
        "day": "Wednesday",
        "hours": "10:30‚ÄØAM to 7:30‚ÄØPM"
      },
      {
        "day": "Thursday",
        "hours": "10:30‚ÄØAM to 7:30‚ÄØPM"
      },
      {
        "day": "Friday",
        "hours": "10:30‚ÄØAM to 7‚ÄØPM"
      },
      {
        "day": "Saturday",
        "hours": "10:30‚ÄØAM to 5:30‚ÄØPM"
      },
      {
        "day": "Sunday",
        "hours": "7‚ÄØAM to 7‚ÄØPM"
      }
    ],
    "imageUrl": "https://lh3.googleusercontent.com/p/AF1QipNQ_EzhK_s81SxN3YLn0JgfOVRfVVbjn5hmYiTG=w531-h240-k-no",
    "url": "https://www.google.com/maps/search/?api=1&query=ROYAL%20CAR'S&query_place_id=ChIJPVY38gtZ7TkRLQFTz4EMseM"
  },
  {
    "title": "Royal Rides Vintage Wedding Car",
    "subTitle": "‡§∞‡•â‡§Ø‡§≤ ‡§∞‡§æ‡§á‡§°‡•ç‡§∏ ‡§µ‡§ø‡§Ç‡§ü‡•á‡§ú ‡§µ‡•á‡§°‡§ø‡§Ç‡§ó ‡§ï‡§æ‡§∞",
    "categoryName": "Car rental agency",
    "address": "L - 2, Ground Floor, Pallavi Grand, Judges, Court Rd, Gandhi Maidan Rd, Patna, Bihar 800004, India",
    "neighborhood": "Patna University Campus",
    "street": "L - 2, Ground Floor, Pallavi Grand, Judges, Court Rd, Gandhi Maidan Rd",
    "city": "Patna",
    "postalCode": "800004",
    "state": "Bihar",
    "countryCode": "IN",
    "website": "https://www.instagram.com/royalridesweddingcar",
    "phone": "+917632038034",
    "phoneUnformatted": "+917632038034",
    "location": {
      "lat": 25.621704,
      "lng": 85.1518566
    },
    "totalScore": 5,
    "permanentlyClosed": false,
    "temporarilyClosed": false,
    "placeId": "ChIJk2EBUOJZ7TkRlpmAP15x7UU",
    "categories": [
      "Car rental agency",
      "Car leasing service",
      "Taxi service"
    ],
    "reviewsCount": 11,
    "imagesCount": 51,
    "openingHours": [],
    "imageUrl": "https://lh3.googleusercontent.com/p/AF1QipORndpdj6w4jK2XOWNhFMUL6pvnZsqSGjCnGNoQ=w408-h305-k-no",
    "url": "https://www.google.com/maps/search/?api=1&query=Royal%20Rides%20Vintage%20Wedding%20Car&query_place_id=ChIJk2EBUOJZ7TkRlpmAP15x7UU"
  },
  {
    "title": "Rudransh Automobile(Mahindra first choice)",
    "subTitle": "‡§∞‡•Å‡§¶‡•ç‡§∞‡§æ‡§Ç‡§∂ ‡§ë‡§ü‡•ã‡§Æ‡•ã‡§¨‡§æ‡§á‡§≤(‡§Æ‡§π‡•á‡§Ç‡§¶‡•ç‡§∞ ‡§´‡§∞‡•ç‡§∏‡•ç‡§ü ‡§ö‡•â‡§á‡§∏)",
    "categoryName": "Used car dealer",
    "address": "Front of bajaj and ktm showrroom, near by nissa showrroom, BC Colony, Dasratha, Sipara, Patna, Bihar 800032, India",
    "neighborhood": "BC Colony, Dasratha, Sipara",
    "street": "Front of bajaj and ktm showrroom, near by nissa showrroom",
    "city": "Patna",
    "postalCode": "800032",
    "state": "Bihar",
    "countryCode": "IN",
    "location": {
      "lat": 25.5837617,
      "lng": 85.1214279
    },
    "totalScore": 2.7,
    "permanentlyClosed": false,
    "temporarilyClosed": false,
    "placeId": "ChIJMdshTCpZ7TkR_Yn2gJ54YE4",
    "categories": [
      "Used car dealer"
    ],
    "reviewsCount": 7,
    "imagesCount": 5,
    "openingHours": [
      {
        "day": "Monday",
        "hours": "10‚ÄØAM to 7‚ÄØPM"
      },
      {
        "day": "Tuesday",
        "hours": "10‚ÄØAM to 7‚ÄØPM"
      },
      {
        "day": "Wednesday",
        "hours": "10‚ÄØAM to 7‚ÄØPM"
      },
      {
        "day": "Thursday",
        "hours": "10‚ÄØAM to 7‚ÄØPM"
      },
      {
        "day": "Friday",
        "hours": "10‚ÄØAM to 7‚ÄØPM"
      },
      {
        "day": "Saturday",
        "hours": "10‚ÄØAM to 7‚ÄØPM"
      },
      {
        "day": "Sunday",
        "hours": "10‚ÄØAM to 7‚ÄØPM"
      }
    ],
    "imageUrl": "https://lh3.googleusercontent.com/p/AF1QipMaUUdELD3N7atuj1fsCPEwJCGhM79SVZx2yEs=w408-h306-k-no",
    "url": "https://www.google.com/maps/search/?api=1&query=Rudransh%20Automobile(Mahindra%20first%20choice)&query_place_id=ChIJMdshTCpZ7TkR_Yn2gJ54YE4"
  },
  {
    "title": "Safar ka Sathi",
    "subTitle": "‡§∏‡§´‡§º‡§∞ ‡§ï‡§æ ‡§∏‡§æ‡§•‡•Ä",
    "categoryName": "Car rental agency",
    "address": "Gali No-1, Hanuman Nagar Rd, K Sector, Kankarbagh, Bankman Colony, Patna, Bihar 800026, India",
    "neighborhood": "K Sector, Kankarbagh, Bankman Colony",
    "street": "Gali No-1, Hanuman Nagar Rd",
    "city": "Patna",
    "postalCode": "800026",
    "state": "Bihar",
    "countryCode": "IN",
    "phone": "+918757130118",
    "phoneUnformatted": "+918757130118",
    "location": {
      "lat": 25.5921492,
      "lng": 85.1646522
    },
    "totalScore": 4.8,
    "permanentlyClosed": false,
    "temporarilyClosed": true,
    "placeId": "ChIJbetP8iBZ7TkR5B-nFfpFwDE",
    "categories": [
      "Car rental agency",
      "Car leasing service",
      "Taxi service"
    ],
    "reviewsCount": 19,
    "imagesCount": 10,
    "openingHours": [],
    "imageUrl": "https://lh3.googleusercontent.com/p/AF1QipN7LH-HLqdbORHhqCbCMk9g3fgP5V_ogo-KXCv3=w408-h404-k-no",
    "url": "https://www.google.com/maps/search/?api=1&query=Safar%20ka%20Sathi&query_place_id=ChIJbetP8iBZ7TkR5B-nFfpFwDE"
  },
  {
    "title": "Sewak Tour & Travels",
    "subTitle": "‡§∏‡•á‡§µ‡§ï ‡§ü‡•Ç‡§∞ ‡§è‡§Ç‡§° ‡§ü‡•ç‡§∞‡•à‡§µ‡§≤‡•ç‡§∏",
    "categoryName": "Car rental agency",
    "address": "1st Floor, Sahenjni House, West Boring Canal Rd, Anandpuri, Patna, Bihar 800001, India",
    "neighborhood": "Anandpuri",
    "street": "1st Floor, Sahenjni House, West Boring Canal Rd",
    "city": "Patna",
    "postalCode": "800001",
    "state": "Bihar",
    "countryCode": "IN",
    "website": "https://sewaktourandtravels.com/",
    "phone": "+919470837849",
    "phoneUnformatted": "+919470837849",
    "location": {
      "lat": 25.6155468,
      "lng": 85.1201469
    },
    "totalScore": 3.9,
    "permanentlyClosed": false,
    "temporarilyClosed": false,
    "placeId": "ChIJiVDLVjpY7TkR2RtnjvKGuL4",
    "categories": [
      "Car rental agency",
      "Bus tour agency",
      "Travel agency",
      "Taxi service",
      "Tour agency"
    ],
    "reviewsCount": 20,
    "imagesCount": 3,
    "openingHours": [
      {
        "day": "Monday",
        "hours": "6‚ÄØAM to 10‚ÄØPM"
      },
      {
        "day": "Tuesday",
        "hours": "6‚ÄØAM to 10‚ÄØPM"
      },
      {
        "day": "Wednesday",
        "hours": "6‚ÄØAM to 10‚ÄØPM"
      },
      {
        "day": "Thursday",
        "hours": "6‚ÄØAM to 10‚ÄØPM"
      },
      {
        "day": "Friday",
        "hours": "6‚ÄØAM to 10‚ÄØPM"
      },
      {
        "day": "Saturday",
        "hours": "6‚ÄØAM to 10‚ÄØPM"
      },
      {
        "day": "Sunday",
        "hours": "6‚ÄØAM to 10‚ÄØPM"
      }
    ],
    "imageUrl": "https://lh3.googleusercontent.com/gps-cs-s/AG0ilSyJayEWxBb0gRfo-aLf3hjRXGx89y_9xD-xIyRdgciK5T_V_Lyk1SLVlBHjtNEk9WcOXJHSfXcpy9DKpTb3SWD5qr2XjHyYxFvxmbJvTXvgaY-CMFSyxZreRb23QC5NmVktqQ9B=w408-h544-k-no",
    "url": "https://www.google.com/maps/search/?api=1&query=Sewak%20Tour%20%26%20Travels&query_place_id=ChIJiVDLVjpY7TkR2RtnjvKGuL4"
  },
  {
    "title": "Shakshi Tour and Travels",
    "subTitle": "‡§∂‡§æ‡§ï‡•ç‡§∑‡•Ä ‡§ü‡•Ç‡§∞ ‡§è‡§Ç‡§° ‡§ü‡•ç‡§∞‡•à‡§µ‡§≤‡•ç‡§∏",
    "categoryName": "Car rental agency",
    "address": "2A/41, Indrapuri, AP Textbook Colony, Indrapuri, P.O, Keshri Nagar, Patna, Bihar 800024, India",
    "neighborhood": "Indrapuri, AP Textbook Colony, Indrapuri, P.O, Keshri Nagar",
    "street": "2A/41",
    "city": "Patna",
    "postalCode": "800024",
    "state": "Bihar",
    "countryCode": "IN",
    "phone": "+919334254234",
    "phoneUnformatted": "+919334254234",
    "location": {
      "lat": 25.6245057,
      "lng": 85.0996246
    },
    "totalScore": 4.9,
    "permanentlyClosed": false,
    "temporarilyClosed": false,
    "placeId": "ChIJV5zTtK1X7TkRD4lz8dhRIME",
    "categories": [
      "Car rental agency",
      "Car leasing service",
      "Tour agency",
      "Tour operator",
      "Travel agency"
    ],
    "reviewsCount": 139,
    "imagesCount": 29,
    "openingHours": [
      {
        "day": "Monday",
        "hours": "7‚ÄØAM to 10‚ÄØPM"
      },
      {
        "day": "Tuesday",
        "hours": "7‚ÄØAM to 10‚ÄØPM"
      },
      {
        "day": "Wednesday",
        "hours": "7‚ÄØAM to 10‚ÄØPM"
      },
      {
        "day": "Thursday",
        "hours": "7‚ÄØAM to 10‚ÄØPM"
      },
      {
        "day": "Friday",
        "hours": "7‚ÄØAM to 10‚ÄØPM"
      },
      {
        "day": "Saturday",
        "hours": "7‚ÄØAM to 10‚ÄØPM"
      },
      {
        "day": "Sunday",
        "hours": "7‚ÄØAM to 10‚ÄØPM"
      }
    ],
    "imageUrl": "https://lh3.googleusercontent.com/p/AF1QipN1bJWRoH4OS9U8cvSu6oKWZS4s0_OSgtmI76LP=w408-h306-k-no",
    "url": "https://www.google.com/maps/search/?api=1&query=Shakshi%20Tour%20and%20Travels&query_place_id=ChIJV5zTtK1X7TkRD4lz8dhRIME"
  },
  {
    "title": "Singh Cab | Car Hire | One Way Car Booking |",
    "subTitle": "‡§∏‡§ø‡§Ç‡§π ‡§ï‡•à‡§¨ | ‡§ï‡§æ‡§∞ ‡§π‡•Ä‡§∞‡•á | ‡§µ‡§® ‡§µ‡•á ‡§ï‡§æ‡§∞ ‡§¨‡•Å‡§ï‡§ø‡§Ç‡§ó |",
    "categoryName": "Car rental agency",
    "address": "Chandra Vihar Colony, Ashiana Digha Road Near New Rajiv Nagar Thana, Rd Number 2, Patna, Bihar 800025, India",
    "neighborhood": "Jagat Vihar Colony, Rukanpura",
    "street": "Chandra Vihar Colony, Ashiana Digha Road Near New Rajiv Nagar Thana, Rd Number 2",
    "city": "Patna",
    "postalCode": "800025",
    "state": "Bihar",
    "countryCode": "IN",
    "website": "https://singhcab.co.in/",
    "phone": "+917717779824",
    "phoneUnformatted": "+917717779824",
    "location": {
      "lat": 25.6238635,
      "lng": 85.0833929
    },
    "totalScore": 4.9,
    "permanentlyClosed": false,
    "temporarilyClosed": false,
    "placeId": "ChIJNcY5DxFX7TkRtkLpUCtiRJU",
    "categories": [
      "Car rental agency",
      "Car leasing service",
      "Taxi service"
    ],
    "reviewsCount": 383,
    "imagesCount": 321,
    "openingHours": [
      {
        "day": "Monday",
        "hours": "Open 24 hours"
      },
      {
        "day": "Tuesday",
        "hours": "Open 24 hours"
      },
      {
        "day": "Wednesday",
        "hours": "Open 24 hours"
      },
      {
        "day": "Thursday",
        "hours": "Open 24 hours"
      },
      {
        "day": "Friday",
        "hours": "Open 24 hours"
      },
      {
        "day": "Saturday",
        "hours": "Open 24 hours"
      },
      {
        "day": "Sunday",
        "hours": "Open 24 hours"
      }
    ],
    "imageUrl": "https://lh3.googleusercontent.com/p/AF1QipO4-5ULiQ5CKQ7uFFjfB2mpeyEr77Ow0aGWW-Kd=w408-h725-k-no",
    "url": "https://www.google.com/maps/search/?api=1&query=Singh%20Cab%20%7C%20Car%20Hire%20%7C%20One%20Way%20Car%20Booking%20%7C&query_place_id=ChIJNcY5DxFX7TkRtkLpUCtiRJU"
  },
  {
    "title": "Singh Travels-Travellers on Hire in Patna/Book luxurious travellers with us Travellers in Patna",
    "subTitle": "‡§∏‡§ø‡§Ç‡§π ‡§ü‡•ç‡§∞‡•á‡§µ‡§≤‡•ç‡§∏-‡§ü‡•ç‡§∞‡•à‡§µ‡§≤‡§∞‡•ç‡§∏ ‡§ë‡§® ‡§π‡•Ä‡§∞‡•á ‡§á‡§® ‡§™‡§ü‡§®‡§æ/‡§¨‡•Å‡§ï ‡§≤‡•Å‡§ï‡•ç‡§∏‡•Å‡§∞‡§ø‡§ì‡§â‡§∏ ‡§ü‡•ç‡§∞‡•à‡§µ‡§≤‡§∞‡•ç‡§∏ ‡§µ‡§ø‡§• ‡§Ø‡•Ç‡§è‡§∏ ‡§ü‡•ç‡§∞‡•à‡§µ‡§≤‡§∞‡•ç‡§∏ ‡§á‡§® ‡§™‡§ü‡§®‡§æ",
    "categoryName": "Car rental agency",
    "address": "Rd Number 10, Sanjay Gandhi Nagar, Kankarbagh, Hanuman Nagar, Patna, Bihar 800026, India",
    "neighborhood": "Sanjay Gandhi Nagar, Kankarbagh, Hanuman Nagar",
    "street": "Rd Number 10",
    "city": "Patna",
    "postalCode": "800026",
    "state": "Bihar",
    "countryCode": "IN",
    "location": {
      "lat": 25.5900342,
      "lng": 85.168111
    },
    "totalScore": 4.3,
    "permanentlyClosed": false,
    "temporarilyClosed": false,
    "placeId": "ChIJz8_-fZdZ7TkRWkFsCT1FkVk",
    "categories": [
      "Car rental agency",
      "Bus tour agency"
    ],
    "reviewsCount": 16,
    "imagesCount": 20,
    "openingHours": [],
    "imageUrl": "https://lh3.googleusercontent.com/gps-cs-s/AG0ilSzT7JWgi-HxxCGZ3ERoXFaO3LhB_v_LxiYoRa4tO_jTyBmfmlI_yQVsXz-WS2W5itKIyJtXGw8T_Gjazj3MNqYSql1h1VIU7d1M-ULwpjlLfa4gFkJ_VuDb1MiiKQAmpaZ09xNqIQ=w408-h408-k-no",
    "url": "https://www.google.com/maps/search/?api=1&query=Singh%20Travels-Travellers%20on%20Hire%20in%20Patna%2FBook%20luxurious%20travellers%20with%20us%20Travellers%20in%20Patna&query_place_id=ChIJz8_-fZdZ7TkRWkFsCT1FkVk"
  },
  {
    "title": "Skyline Taxi",
    "subTitle": "‡§∏‡•ç‡§ï‡§æ‡§á‡§≤‡§æ‡§á‡§® ‡§ü‡•à‡§ï‡•ç‡§∏‡•Ä",
    "categoryName": "Car rental agency",
    "address": "SSB Rd, Jagat Vihar Colony, Rukanpura, Patna, Bihar 800025, India",
    "neighborhood": "Jagat Vihar Colony, Rukanpura",
    "street": "SSB Rd",
    "city": "Patna",
    "postalCode": "800025",
    "state": "Bihar",
    "countryCode": "IN",
    "website": "https://skylinetaxi.in/",
    "phone": "+916299547413",
    "phoneUnformatted": "+916299547413",
    "location": {
      "lat": 25.6327865,
      "lng": 85.0825646
    },
    "totalScore": 5,
    "permanentlyClosed": false,
    "temporarilyClosed": false,
    "placeId": "ChIJtbLy4YPDbwkRwkgpi9lG4SE",
    "categories": [
      "Car rental agency",
      "Airport",
      "Car leasing service",
      "Taxi service",
      "Wedding service"
    ],
    "reviewsCount": 72,
    "imagesCount": 61,
    "openingHours": [],
    "imageUrl": "https://lh3.googleusercontent.com/p/AF1QipMBNx5KOvQ56vOXbFNqQH5y55oMaWdbMh0JgzPG=w408-h544-k-no",
    "url": "https://www.google.com/maps/search/?api=1&query=Skyline%20Taxi&query_place_id=ChIJtbLy4YPDbwkRwkgpi9lG4SE"
  },
  {
    "title": "SMK Ride - Taxi & Cab Service in Patna | Book Cab in Patna",
    "subTitle": "‡§∏‡•Ä‡§è‡§Æ‡§ï‡•á ‡§∞‡§æ‡§á‡§° - ‡§ü‡•à‡§ï‡•ç‡§∏‡•Ä & ‡§ï‡•à‡§¨ ‡§∏‡§∞‡•ç‡§µ‡§ø‡§∏ ‡§á‡§® ‡§™‡§ü‡§®‡§æ | ‡§¨‡•Å‡§ï ‡§ï‡•à‡§¨ ‡§á‡§® ‡§™‡§ü‡§®‡§æ",
    "categoryName": "Car rental agency",
    "address": "Healthy dairy enterprises, Risingmithila Business Private Limited, Ghurdaur Rd, near Maa kali deals Pvt. Ltd, Yadav Colony, Patna, Bihar 800011, India",
    "neighborhood": "Yadav Colony",
    "street": "Healthy dairy enterprises, Risingmithila Business Private Limited, Ghurdaur Rd, near Maa kali deals Pvt. Ltd",
    "city": "Patna",
    "postalCode": "800011",
    "state": "Bihar",
    "countryCode": "IN",
    "website": "https://www.smkride.com/car-rental/patna-city",
    "phone": "+919031618101",
    "phoneUnformatted": "+919031618101",
    "location": {
      "lat": 25.6342134,
      "lng": 85.0844314
    },
    "totalScore": 5,
    "permanentlyClosed": false,
    "temporarilyClosed": false,
    "placeId": "ChIJFfdheXVX7TkR_g-L4XOR-g8",
    "categories": [
      "Car rental agency",
      "Ambulance service",
      "Car leasing service",
      "Taxi service",
      "Minibus taxi service"
    ],
    "reviewsCount": 11,
    "imagesCount": 13,
    "openingHours": [],
    "imageUrl": "https://lh3.googleusercontent.com/p/AF1QipN7sZgtcUObnuCW_gPIWQzo6rPauS0FkXfU_EjO=w533-h240-k-no",
    "url": "https://www.google.com/maps/search/?api=1&query=SMK%20Ride%20-%20Taxi%20%26%20Cab%20Service%20in%20Patna%20%7C%20Book%20Cab%20in%20Patna&query_place_id=ChIJFfdheXVX7TkR_g-L4XOR-g8"
  },
  {
    "title": "Subhyattra Tour and Travel",
    "subTitle": "‡§∏‡•Å‡§≠‡§Ø‡§æ‡§§‡•ç‡§§‡•ç‡§∞",
    "categoryName": "Car rental agency",
    "address": "C/o Gopal shiv sadan lohar tola lane, near barahmasthan panchyat cicie bottle galie, Dariyapur, Patna, Bihar 800004, India",
    "neighborhood": "Dariyapur Gola, Dariyapur, Dujra Diara",
    "street": "C/o Gopal shiv sadan lohar tola lane, near barahmasthan panchyat cicie bottle galie",
    "city": "Patna",
    "postalCode": "800004",
    "state": "Bihar",
    "countryCode": "IN",
    "phone": "+918210095015",
    "phoneUnformatted": "+918210095015",
    "location": {
      "lat": 25.6145178,
      "lng": 85.1537565
    },
    "totalScore": 4.7,
    "permanentlyClosed": false,
    "temporarilyClosed": false,
    "placeId": "ChIJ5RH4tKRZ7TkRQYEwhpxhk2M",
    "categories": [
      "Car rental agency",
      "Car leasing service",
      "Taxi service",
      "Wedding service"
    ],
    "reviewsCount": 114,
    "imagesCount": 82,
    "openingHours": [
      {
        "day": "Monday",
        "hours": "Open 24 hours"
      },
      {
        "day": "Tuesday",
        "hours": "Open 24 hours"
      },
      {
        "day": "Wednesday",
        "hours": "Open 24 hours"
      },
      {
        "day": "Thursday",
        "hours": "Open 24 hours"
      },
      {
        "day": "Friday",
        "hours": "Open 24 hours"
      },
      {
        "day": "Saturday",
        "hours": "Open 24 hours"
      },
      {
        "day": "Sunday",
        "hours": "Open 24 hours"
      }
    ],
    "imageUrl": "https://lh3.googleusercontent.com/p/AF1QipNeuBcUV2EDiNpr7atdaFjxU_YLPBzdaHLOyXyE=w408-h272-k-no",
    "url": "https://www.google.com/maps/search/?api=1&query=Subhyattra%20Tour%20and%20Travel&query_place_id=ChIJ5RH4tKRZ7TkRQYEwhpxhk2M"
  },
  {
    "title": "Tannu tour and Travels",
    "subTitle": "Tannu tour and Traval",
    "categoryName": "Car rental agency",
    "address": "Dasratha, Dasharatha, Patna, Bihar 800032, India",
    "neighborhood": "Dasratha, Dasharatha",
    "city": "Patna",
    "postalCode": "800032",
    "state": "Bihar",
    "countryCode": "IN",
    "phone": "+919334522233",
    "phoneUnformatted": "+919334522233",
    "location": {
      "lat": 25.582058,
      "lng": 85.1222638
    },
    "totalScore": 5,
    "permanentlyClosed": false,
    "temporarilyClosed": false,
    "placeId": "ChIJrVhoGYZZ7TkRBS7uSXLq-Tk",
    "categories": [
      "Car rental agency"
    ],
    "reviewsCount": 3,
    "imagesCount": 17,
    "openingHours": [
      {
        "day": "Monday",
        "hours": "9‚ÄØAM to 7‚ÄØPM"
      },
      {
        "day": "Tuesday",
        "hours": "9‚ÄØAM to 7‚ÄØPM"
      },
      {
        "day": "Wednesday",
        "hours": "9‚ÄØAM to 7‚ÄØPM"
      },
      {
        "day": "Thursday",
        "hours": "9‚ÄØAM to 7‚ÄØPM"
      },
      {
        "day": "Friday",
        "hours": "9‚ÄØAM to 7‚ÄØPM"
      },
      {
        "day": "Saturday",
        "hours": "9‚ÄØAM to 7‚ÄØPM"
      },
      {
        "day": "Sunday",
        "hours": "9‚ÄØAM to 7‚ÄØPM"
      }
    ],
    "imageUrl": "https://lh3.googleusercontent.com/p/AF1QipNz9hvJK7g_cDdkOAKpctbtrfv8trW7_tNsJ4S9=w408-h633-k-no",
    "url": "https://www.google.com/maps/search/?api=1&query=Tannu%20tour%20and%20Travels&query_place_id=ChIJrVhoGYZZ7TkRBS7uSXLq-Tk"
  },
  {
    "title": "Tata Motors Cars Showroom - Guinea Motors, Anand Vihar",
    "subTitle": "‡§ü‡§æ‡§ü‡§æ ‡§Æ‡•ã‡§ü‡§∞‡•ç‡§∏ ‡§ï‡§æ‡§∞‡•ç‡§∏ ‡§∂‡•ã‡§∞‡•Ç‡§Æ - ‡§ó‡§ø‡§®‡•Ä ‡§Æ‡•ã‡§ü‡§∞‡•ç‡§∏, ‡§Ü‡§®‡§Ç‡§¶ ‡§µ‡§ø‡§π‡§æ‡§∞",
    "categoryName": "Car dealer",
    "address": "Ground Floor, West Boring Canal Rd, Anand Vihar, Anandpuri, Patna, Bihar 800001, India",
    "neighborhood": "Anand Vihar, Anandpuri",
    "street": "Ground Floor, West Boring Canal Rd",
    "city": "Patna",
    "postalCode": "800001",
    "state": "Bihar",
    "countryCode": "IN",
    "website": "https://dealer-locator.cars.tatamotors.com/tata-motors-cars-showroom-guinea-motors-anand-vihar-car-dealer-anand-vihar-patna-76824/Home?utm_source=locator&utm_medium=googleplaces",
    "phone": "+917045052498",
    "phoneUnformatted": "+917045052498",
    "location": {
      "lat": 25.6176809,
      "lng": 85.1209679
    },
    "totalScore": 4.4,
    "permanentlyClosed": false,
    "temporarilyClosed": false,
    "placeId": "ChIJIfApJXlZ7TkRePHUua4pH-w",
    "categories": [
      "Car dealer"
    ],
    "reviewsCount": 1069,
    "imagesCount": 395,
    "openingHours": [
      {
        "day": "Monday",
        "hours": "10‚ÄØAM to 8‚ÄØPM"
      },
      {
        "day": "Tuesday",
        "hours": "10‚ÄØAM to 8‚ÄØPM"
      },
      {
        "day": "Wednesday",
        "hours": "10‚ÄØAM to 8‚ÄØPM"
      },
      {
        "day": "Thursday",
        "hours": "10‚ÄØAM to 8‚ÄØPM"
      },
      {
        "day": "Friday",
        "hours": "10‚ÄØAM to 8‚ÄØPM"
      },
      {
        "day": "Saturday",
        "hours": "10‚ÄØAM to 8‚ÄØPM"
      },
      {
        "day": "Sunday",
        "hours": "10‚ÄØAM to 8‚ÄØPM"
      }
    ],
    "imageUrl": "https://lh3.googleusercontent.com/gps-cs-s/AG0ilSz8BrINYDo5UeUAs3txMGU2CPwRe3DBlVCcnz3qHuTbGBbTsl-cyfX_wLsT17epgcH68EPh6j69KvP9plIKD8R2fH_-mhgWGDyfNZImpExlsjYHPorp9ccrzFIGBz1cdvf5-PgKqdvJhOU=w408-h306-k-no",
    "url": "https://www.google.com/maps/search/?api=1&query=Tata%20Motors%20Cars%20Showroom%20-%20Guinea%20Motors%2C%20Anand%20Vihar&query_place_id=ChIJIfApJXlZ7TkRePHUua4pH-w"
  },
  {
    "title": "The Arrangers Services & Travels",
    "subTitle": "‡§¶ ‡§Ö‡§∞‡•á‡§Ç‡§ú‡§∞‡•ç‡§∏ ‡§∏‡§∞‡•ç‡§µ‡§ø‡§∏‡•á‡§∏ & ‡§ü‡•ç‡§∞‡•à‡§µ‡§≤‡•ç‡§∏",
    "categoryName": "Car rental agency",
    "address": "near Tabarak Ali Masjid, Bakarganj, Patna, Bihar 800004, India",
    "neighborhood": "Bakarganj",
    "street": "near Tabarak Ali Masjid",
    "city": "Patna",
    "postalCode": "800004",
    "state": "Bihar",
    "countryCode": "IN",
    "location": {
      "lat": 25.616453,
      "lng": 85.1510079
    },
    "totalScore": 4.5,
    "permanentlyClosed": false,
    "temporarilyClosed": true,
    "placeId": "ChIJx9kiz79Z7TkRRvUSYBWofMM",
    "categories": [
      "Car rental agency"
    ],
    "reviewsCount": 6,
    "imagesCount": 8,
    "openingHours": [],
    "imageUrl": "https://lh3.googleusercontent.com/p/AF1QipP1X3IOt6e410N-fEwt54FTHbaCCSDqsJABa7ex=w408-h543-k-no",
    "url": "https://www.google.com/maps/search/?api=1&query=The%20Arrangers%20Services%20%26%20Travels&query_place_id=ChIJx9kiz79Z7TkRRvUSYBWofMM"
  },
  {
    "title": "THE CAR MALL",
    "subTitle": "‡§¶ ‡§ï‡§æ‡§∞ ‡§Æ‡•â‡§≤",
    "categoryName": "Used car dealer",
    "address": "1st Floor, Infornt of Mauryalok, New Dak Bunglow Rd, Lodipur, Patna, Bihar 800001, India",
    "neighborhood": "Lodipur",
    "street": "1st Floor, Infornt of Mauryalok, New Dak Bunglow Rd",
    "city": "Patna",
    "postalCode": "800001",
    "state": "Bihar",
    "countryCode": "IN",
    "phone": "+917277751786",
    "phoneUnformatted": "+917277751786",
    "location": {
      "lat": 25.6104016,
      "lng": 85.135417
    },
    "totalScore": 3.7,
    "permanentlyClosed": false,
    "temporarilyClosed": false,
    "placeId": "ChIJGRnREABZ7TkR4R2YQKm1U-8",
    "categories": [
      "Used car dealer"
    ],
    "reviewsCount": 3,
    "imagesCount": 2,
    "openingHours": [
      {
        "day": "Monday",
        "hours": "9‚ÄØAM to 7‚ÄØPM"
      },
      {
        "day": "Tuesday",
        "hours": "9‚ÄØAM to 7‚ÄØPM"
      },
      {
        "day": "Wednesday",
        "hours": "9‚ÄØAM to 7‚ÄØPM"
      },
      {
        "day": "Thursday",
        "hours": "9‚ÄØAM to 7‚ÄØPM"
      },
      {
        "day": "Friday",
        "hours": "9‚ÄØAM to 7‚ÄØPM"
      },
      {
        "day": "Saturday",
        "hours": "9‚ÄØAM to 7‚ÄØPM"
      },
      {
        "day": "Sunday",
        "hours": "9‚ÄØAM to 7‚ÄØPM"
      }
    ],
    "imageUrl": "https://lh3.googleusercontent.com/gps-cs-s/AG0ilSxUtNf6FJbs5TsoO0-Th6m_80R37Wtv5qK11ayHfhkBto40SGu1Ea3ZqbJCqqJtlyRJqnSG-okFQ5E4H5d74mxmIskaQA1W70ylZAqZBBFxl9zflxwmoAMHr2OWlMFdsV5BmP20Pg=w408-h306-k-no",
    "url": "https://www.google.com/maps/search/?api=1&query=THE%20CAR%20MALL&query_place_id=ChIJGRnREABZ7TkR4R2YQKm1U-8"
  },
  {
    "title": "TRAVEL ‡§Ø‡§æ‡§§‡•ç‡§∞‡§æ",
    "categoryName": "Car leasing service",
    "address": "IRCTC railway travel desk, Patna Jct, near gate number 2, New Market, Fraser Road Area, Patna, Bihar 800001, India",
    "neighborhood": "New Market, Fraser Road Area",
    "street": "IRCTC railway travel desk, Patna Jct, near gate number 2",
    "city": "Patna",
    "postalCode": "800001",
    "state": "Bihar",
    "countryCode": "IN",
    "website": "http://travelyatra.net/?utm_source=gmb&utm_medium=referral",
    "phone": "+917209476096",
    "phoneUnformatted": "+917209476096",
    "location": {
      "lat": 25.6042445,
      "lng": 85.1363265
    },
    "totalScore": 5,
    "permanentlyClosed": false,
    "temporarilyClosed": false,
    "placeId": "ChIJZQl_IFZZ7TkRPGGZdz9hQms",
    "categories": [
      "Car leasing service"
    ],
    "reviewsCount": 100,
    "imagesCount": 409,
    "openingHours": [
      {
        "day": "Monday",
        "hours": "Open 24 hours"
      },
      {
        "day": "Tuesday",
        "hours": "Open 24 hours"
      },
      {
        "day": "Wednesday",
        "hours": "Open 24 hours"
      },
      {
        "day": "Thursday",
        "hours": "Open 24 hours"
      },
      {
        "day": "Friday",
        "hours": "Open 24 hours"
      },
      {
        "day": "Saturday",
        "hours": "Open 24 hours"
      },
      {
        "day": "Sunday",
        "hours": "Open 24 hours"
      }
    ],
    "imageUrl": "https://lh3.googleusercontent.com/p/AF1QipNLdswxyD5LoBVef7q_bBgc_Hvv9yp34Vch86FT=w408-h544-k-no",
    "url": "https://www.google.com/maps/search/?api=1&query=TRAVEL%20%E0%A4%AF%E0%A4%BE%E0%A4%A4%E0%A5%8D%E0%A4%B0%E0%A4%BE&query_place_id=ChIJZQl_IFZZ7TkRPGGZdz9hQms"
  },
  {
    "title": "V Travel Agency - Best Travel Agency in Patna",
    "subTitle": "‡§µ‡§ø ‡§ü‡•ç‡§∞‡•à‡§µ‡§≤ ‡§è‡§ú‡•á‡§Ç‡§∏‡•Ä - ‡§¨‡•á‡§∏‡•ç‡§ü ‡§ü‡•ç‡§∞‡•à‡§µ‡§≤ ‡§è‡§ú‡•á‡§Ç‡§∏‡•Ä ‡§á‡§® ‡§™‡§ü‡§®‡§æ",
    "categoryName": "Car leasing service",
    "address": "B-181, P C Colony Rd, Housing Board Colony, Kankarbagh, Patna, Bihar 800020, India",
    "neighborhood": "Housing Board Colony, Kankarbagh",
    "street": "B-181, P C Colony Rd",
    "city": "Patna",
    "postalCode": "800020",
    "state": "Bihar",
    "countryCode": "IN",
    "website": "https://www.vtravelagency.com/",
    "phone": "+919113109507",
    "phoneUnformatted": "+919113109507",
    "location": {
      "lat": 25.5980109,
      "lng": 85.1510168
    },
    "totalScore": 5,
    "permanentlyClosed": false,
    "temporarilyClosed": false,
    "placeId": "ChIJ2zHceo5Y7TkRy03JQOMaou0",
    "categories": [
      "Car leasing service",
      "Travel agency",
      "Taxi service"
    ],
    "reviewsCount": 113,
    "imagesCount": 102,
    "openingHours": [
      {
        "day": "Monday",
        "hours": "9‚ÄØAM to 10‚ÄØPM"
      },
      {
        "day": "Tuesday",
        "hours": "9‚ÄØAM to 10‚ÄØPM"
      },
      {
        "day": "Wednesday",
        "hours": "9‚ÄØAM to 10‚ÄØPM"
      },
      {
        "day": "Thursday",
        "hours": "9‚ÄØAM to 10‚ÄØPM"
      },
      {
        "day": "Friday",
        "hours": "9‚ÄØAM to 10‚ÄØPM"
      },
      {
        "day": "Saturday",
        "hours": "9‚ÄØAM to 10‚ÄØPM"
      },
      {
        "day": "Sunday",
        "hours": "9‚ÄØAM to 10‚ÄØPM"
      }
    ],
    "imageUrl": "https://lh3.googleusercontent.com/p/AF1QipPEjXSqleut8Usn-EeuSoMUFY4FIpaI2v0dOMdQ=w408-h408-k-no",
    "url": "https://www.google.com/maps/search/?api=1&query=V%20Travel%20Agency%20-%20Best%20Travel%20Agency%20in%20Patna&query_place_id=ChIJ2zHceo5Y7TkRy03JQOMaou0"
  },
  {
    "title": "Vaishali Honda",
    "subTitle": "‡§π‡•ã‡§Ç‡§°‡§æ",
    "categoryName": "Car dealer",
    "address": "Ground Floor, J487+W6M, Boring Rd, opposite AN College, Sri Krishna Puri, Patna, Bihar 800013, India",
    "neighborhood": "Sri Krishna Puri",
    "street": "Ground Floor, J487+W6M, Boring Rd, opposite AN College",
    "city": "Patna",
    "postalCode": "800013",
    "state": "Bihar",
    "countryCode": "IN",
    "website": "https://dealer.hondacarindia.com/vaishali-honda-hav-automobiles-pvt-ltd-car-dealer-boring-road-patna-67404/Home",
    "phone": "+918657589153",
    "phoneUnformatted": "+918657589153",
    "location": {
      "lat": 25.6176685,
      "lng": 85.1123135
    },
    "totalScore": 4.6,
    "permanentlyClosed": false,
    "temporarilyClosed": false,
    "placeId": "ChIJ5wUaRS9Y7TkR6iTXZsU-OJQ",
    "categories": [
      "Car dealer",
      "Auto dent removal service",
      "Auto repair shop",
      "Car accessories store",
      "Honda dealer"
    ],
    "reviewsCount": 1917,
    "imagesCount": 1306,
    "openingHours": [
      {
        "day": "Monday",
        "hours": "10:30‚ÄØAM to 7‚ÄØPM"
      },
      {
        "day": "Tuesday",
        "hours": "10:30‚ÄØAM to 7‚ÄØPM"
      },
      {
        "day": "Wednesday",
        "hours": "10:30‚ÄØAM to 7‚ÄØPM"
      },
      {
        "day": "Thursday",
        "hours": "10:30‚ÄØAM to 7‚ÄØPM"
      },
      {
        "day": "Friday",
        "hours": "10:30‚ÄØAM to 7‚ÄØPM"
      },
      {
        "day": "Saturday",
        "hours": "10:30‚ÄØAM to 7‚ÄØPM"
      },
      {
        "day": "Sunday",
        "hours": "10:30‚ÄØAM to 7‚ÄØPM"
      }
    ],
    "imageUrl": "https://lh3.googleusercontent.com/p/AF1QipO3y9LG88sFMq9aZxM4p3XY37W2jjC-LcilQ9r4=w408-h272-k-no",
    "url": "https://www.google.com/maps/search/?api=1&query=Vaishali%20Honda&query_place_id=ChIJ5wUaRS9Y7TkR6iTXZsU-OJQ"
  },
  {
    "title": "Vidhi Cab Service",
    "subTitle": "‡§µ‡§ø‡§ß‡§ø ‡§ï‡•à‡§¨ ‡§∏‡§∞‡•ç‡§µ‡§ø‡§∏",
    "categoryName": "Car leasing service",
    "address": "Fraser Rd, Old Jakkanpur, Lodipur, Patna, Bihar 800001, India",
    "neighborhood": "Old Jakkanpur, Lodipur",
    "street": "Fraser Rd",
    "city": "Patna",
    "postalCode": "800001",
    "state": "Bihar",
    "countryCode": "IN",
    "phone": "+917482932509",
    "phoneUnformatted": "+917482932509",
    "location": {
      "lat": 25.6112295,
      "lng": 85.1385109
    },
    "totalScore": 4.8,
    "permanentlyClosed": false,
    "temporarilyClosed": false,
    "placeId": "ChIJQfI7uwpZ7TkRzBAietoP-Fs",
    "categories": [
      "Car leasing service",
      "Taxi service"
    ],
    "reviewsCount": 187,
    "imagesCount": 93,
    "openingHours": [],
    "imageUrl": "https://lh3.googleusercontent.com/gps-cs-s/AG0ilSwefjt_26T0JU9EUv-n6QFViQLyKrKLy8F-TPokocvRzngTW2zlw-XIZEA1bKndy2qlhuV95Ov-gruBbXmSF6lJGjFPqF7VW-wfbsFX7HbIsQPFiH6-iSDX82zWneqlUoVJ1n8hvQ=w408-h306-k-no",
    "url": "https://www.google.com/maps/search/?api=1&query=Vidhi%20Cab%20Service&query_place_id=ChIJQfI7uwpZ7TkRzBAietoP-Fs"
  },
  {
    "title": "Vidrohi Car Bazar Patna",
    "subTitle": "‡§ï‡§æ‡§∞ ‡§¨‡§æ‡§ú‡§æ‡§∞",
    "categoryName": "Used car dealer",
    "address": "Basement of blackberry, showroomnear Uddyan Hospital, Bhagheswari complex, West Boring Canal Rd, near Raja Pul, Patna, Bihar 800001, India",
    "neighborhood": "Anandpuri",
    "street": "Basement of blackberry, showroomnear Uddyan Hospital, Bhagheswari complex, West Boring Canal Rd, near Raja Pul",
    "city": "Patna",
    "postalCode": "800001",
    "state": "Bihar",
    "countryCode": "IN",
    "website": "https://www.facebook.com/profile.php?id=100064108991403&mibextid=9R9pXO",
    "location": {
      "lat": 25.6202348,
      "lng": 85.1224564
    },
    "totalScore": 4,
    "permanentlyClosed": false,
    "temporarilyClosed": false,
    "placeId": "ChIJxURGyPR-DRQRkUGwe5w2ggE",
    "categories": [
      "Used car dealer"
    ],
    "reviewsCount": 409,
    "imagesCount": 90,
    "openingHours": [
      {
        "day": "Monday",
        "hours": "10‚ÄØAM to 7‚ÄØPM"
      },
      {
        "day": "Tuesday",
        "hours": "10‚ÄØAM to 7‚ÄØPM"
      },
      {
        "day": "Wednesday",
        "hours": "10‚ÄØAM to 7‚ÄØPM"
      },
      {
        "day": "Thursday",
        "hours": "10‚ÄØAM to 7‚ÄØPM"
      },
      {
        "day": "Friday",
        "hours": "10‚ÄØAM to 7‚ÄØPM"
      },
      {
        "day": "Saturday",
        "hours": "10‚ÄØAM to 7‚ÄØPM"
      },
      {
        "day": "Sunday",
        "hours": "10‚ÄØAM to 7‚ÄØPM"
      }
    ],
    "imageUrl": "https://lh3.googleusercontent.com/gps-cs-s/AG0ilSzfv4ycqrtlhwD8ZEDKFqMGS55si_XDrFX6u7-gmAgB3MhgV0wQh5ehSwWGxbI9nDsl4MV8N9KEzrlRr2VcxnPNcCjkDo9DJBjZcA_Akf2mpVisVVLtVGoBIrJ3Zd3Rlc4plPMS=w408-h323-k-no",
    "url": "https://www.google.com/maps/search/?api=1&query=Vidrohi%20Car%20Bazar%20Patna&query_place_id=ChIJxURGyPR-DRQRkUGwe5w2ggE"
  },
  {
    "title": "Vishen Travels",
    "subTitle": "‡§µ‡§ø‡§∏‡•á‡§® ‡§ü‡•ç‡§∞‡•à‡§µ‡§≤‡•ç‡§∏",
    "categoryName": "Car rental agency",
    "address": "R-Block, Veerchand Patel Road Area, Patna, Bihar 800001, India",
    "neighborhood": "R-Block, Veerchand Patel Road Area",
    "city": "Patna",
    "postalCode": "800001",
    "state": "Bihar",
    "countryCode": "IN",
    "website": "http://www.vishentravels.com/",
    "phone": "+919798092345",
    "phoneUnformatted": "+919798092345",
    "location": {
      "lat": 25.6019981,
      "lng": 85.1262465
    },
    "totalScore": 3.9,
    "permanentlyClosed": false,
    "temporarilyClosed": false,
    "placeId": "ChIJkyfW1FlX7TkRql-Zxg9I2co",
    "categories": [
      "Car rental agency",
      "Bus tour agency",
      "Car leasing service",
      "Travel agency",
      "Minibus taxi service",
      "Taxi service",
      "Tour operator"
    ],
    "reviewsCount": 75,
    "imagesCount": 61,
    "openingHours": [
      {
        "day": "Monday",
        "hours": "5‚ÄØAM to 11‚ÄØPM"
      },
      {
        "day": "Tuesday",
        "hours": "5‚ÄØAM to 11‚ÄØPM"
      },
      {
        "day": "Wednesday",
        "hours": "5‚ÄØAM to 11‚ÄØPM"
      },
      {
        "day": "Thursday",
        "hours": "5‚ÄØAM to 11‚ÄØPM"
      },
      {
        "day": "Friday",
        "hours": "5‚ÄØAM to 11‚ÄØPM"
      },
      {
        "day": "Saturday",
        "hours": "5‚ÄØAM to 11‚ÄØPM"
      },
      {
        "day": "Sunday",
        "hours": "5‚ÄØAM to 11‚ÄØPM"
      }
    ],
    "imageUrl": "https://lh3.googleusercontent.com/p/AF1QipOjE6IrOmOId8EP9xOvQfcnr8CBaHeVgj_oEgRG=w427-h240-k-no",
    "url": "https://www.google.com/maps/search/?api=1&query=Vishen%20Travels&query_place_id=ChIJkyfW1FlX7TkRql-Zxg9I2co"
  },
  {
    "title": "WEDDING N CORPORATE CAR RENTAL PATNA",
    "subTitle": "‡§µ‡•á‡§°‡§ø‡§Ç‡§ó ‡§è‡§®‡•ç ‡§ï‡•â‡§∞‡•ç‡§™‡•ã‡§∞‡•á‡§ü ‡§ï‡§æ‡§∞ ‡§∞‡•á‡§Ç‡§ü‡§≤ ‡§™‡§ü‡§®‡§æ",
    "categoryName": "Car rental agency",
    "address": "4rth floor, Shashi complex, K - 180, Kali Mandir Rd, Kankarbagh, Hanuman Nagar, Patna, Bihar 800026, India",
    "neighborhood": "Kankarbagh, Hanuman Nagar",
    "street": "4rth floor, Shashi complex, K - 180, Kali Mandir Rd",
    "city": "Patna",
    "postalCode": "800026",
    "state": "Bihar",
    "countryCode": "IN",
    "phone": "+919430085591",
    "phoneUnformatted": "+919430085591",
    "location": {
      "lat": 25.5907735,
      "lng": 85.1603102
    },
    "totalScore": 4.6,
    "permanentlyClosed": false,
    "temporarilyClosed": false,
    "placeId": "ChIJk4r7eir0FwcRmbSABDwM5as",
    "categories": [
      "Car rental agency",
      "Car leasing service",
      "Minibus taxi service",
      "Taxi service",
      "Wedding service"
    ],
    "reviewsCount": 32,
    "imagesCount": 4,
    "openingHours": [
      {
        "day": "Monday",
        "hours": "Open 24 hours"
      },
      {
        "day": "Tuesday",
        "hours": "Open 24 hours"
      },
      {
        "day": "Wednesday",
        "hours": "Open 24 hours"
      },
      {
        "day": "Thursday",
        "hours": "Open 24 hours"
      },
      {
        "day": "Friday",
        "hours": "Open 24 hours"
      },
      {
        "day": "Saturday",
        "hours": "Open 24 hours"
      },
      {
        "day": "Sunday",
        "hours": "Open 24 hours"
      }
    ],
    "imageUrl": "https://lh3.googleusercontent.com/p/AF1QipMSkfP7y7r959iO-0yP4dIHSs74edmM6nmyjtXd=w408-h306-k-no",
    "url": "https://www.google.com/maps/search/?api=1&query=WEDDING%20N%20CORPORATE%20CAR%20RENTAL%20PATNA&query_place_id=ChIJk4r7eir0FwcRmbSABDwM5as"
  }
]
