[
  {
    "title": "Annapurna Cabs – Raipur Airport Pickup & Drop",
    "subTitle": "अन्नपूर्णा टैक्सी सर्विसेस",
    "categoryName": "Car rental agency",
    "address": "beside of, Postal Colony, Tikrapara, Raipur, Mathpurena, Chhattisgarh 492001, India",
    "neighborhood": "Postal Colony, Tikrapara",
    "street": "beside of",
    "city": "Raipur, Mathpurena",
    "postalCode": "492001",
    "state": "Chhattisgarh",
    "countryCode": "IN",
    "website": "https://annapurnataxi.in/",
    "phone": "+919713904500",
    "phoneUnformatted": "+919713904500",
    "location": {
      "lat": 21.2224082,
      "lng": 81.6443481
    },
    "totalScore": 3.6,
    "permanentlyClosed": false,
    "temporarilyClosed": false,
    "placeId": "ChIJG5Gtj9PdKDoR5wptPkOSySQ",
    "categories": [
      "Car rental agency",
      "Airport shuttle service",
      "Car leasing service",
      "Taxi service"
    ],
    "reviewsCount": 10,
    "imagesCount": 19,
    "openingHours": [],
    "imageUrl": "https://media.indianluxurycars.com/google/22eeed51518e19bc6e86a260917a8d4f65b184858f446841c7ec4365f40d59cb.png",
    "url": "https://www.google.com/maps/search/?api=1&query=Annapurna%20Cabs%20%E2%80%93%20Raipur%20Airport%20Pickup%20%26%20Drop&query_place_id=ChIJG5Gtj9PdKDoR5wptPkOSySQ"
  },
  {
    "title": "Luxury Car Spa",
    "subTitle": "लक्जरी",
    "categoryName": "Car wash",
    "address": "Tagore Nagar Main Rd, opp. Surya Vihar, chowk, Pachpedi Naka, Raipur, Mathpurena, Chhattisgarh 492001, India",
    "neighborhood": "chowk, Pachpedi Naka",
    "street": "Tagore Nagar Main Rd, opp. Surya Vihar",
    "city": "Raipur, Mathpurena",
    "postalCode": "492001",
    "state": "Chhattisgarh",
    "countryCode": "IN",
    "phone": "+917714036401",
    "phoneUnformatted": "+917714036401",
    "location": {
      "lat": 21.2215557,
      "lng": 81.6484917
    },
    "totalScore": 4.5,
    "permanentlyClosed": false,
    "temporarilyClosed": false,
    "placeId": "ChIJl5YKGZPdKDoRYw78A8ZRiZk",
    "categories": [
      "Car wash"
    ],
    "reviewsCount": 4,
    "imagesCount": 71,
    "openingHours": [
      {
        "day": "Monday",
        "hours": "9:30 AM to 8 PM"
      },
      {
        "day": "Tuesday",
        "hours": "9:30 AM to 8 PM"
      },
      {
        "day": "Wednesday",
        "hours": "9:30 AM to 8 PM"
      },
      {
        "day": "Thursday",
        "hours": "9:30 AM to 8 PM"
      },
      {
        "day": "Friday",
        "hours": "9:30 AM to 8 PM"
      },
      {
        "day": "Saturday",
        "hours": "9:30 AM to 8 PM"
      },
      {
        "day": "Sunday",
        "hours": "Closed"
      }
    ],
    "imageUrl": "https://media.indianluxurycars.com/google/063ee0639720c6ff8d6f2f131df2a3ace0fa2442a6fcf33a468a9f4bca25d5ff.jpg",
    "url": "https://www.google.com/maps/search/?api=1&query=Luxury%20Car%20Spa&query_place_id=ChIJl5YKGZPdKDoRYw78A8ZRiZk"
  },
  {
    "title": "PRIHUL TRAVELS AND COMPANY",
    "subTitle": "प्रीहुल ट्रैवल्स एंड कंपनी",
    "categoryName": "Car rental agency",
    "address": "Santoshi Nagar, Raipur, Mathpurena, Chhattisgarh 492015, India",
    "neighborhood": "Santoshi Nagar",
    "city": "Raipur, Mathpurena",
    "postalCode": "492015",
    "state": "Chhattisgarh",
    "countryCode": "IN",
    "phone": "+919039229039",
    "phoneUnformatted": "+919039229039",
    "location": {
      "lat": 21.2075069,
      "lng": 81.6434727
    },
    "totalScore": 4.5,
    "permanentlyClosed": false,
    "temporarilyClosed": false,
    "placeId": "ChIJB2ryhondKDoRbiWjBLBnbaM",
    "categories": [
      "Car rental agency",
      "Airline ticket agency",
      "Auto insurance agency",
      "Bus tour agency",
      "Car leasing service",
      "Health insurance agency",
      "Insurance agency",
      "Taxi service",
      "Travel agency"
    ],
    "reviewsCount": 2,
    "imagesCount": 10,
    "openingHours": [
      {
        "day": "Monday",
        "hours": "Open 24 hours"
      },
      {
        "day": "Tuesday",
        "hours": "Open 24 hours"
      },
      {
        "day": "Wednesday",
        "hours": "Open 24 hours"
      },
      {
        "day": "Thursday",
        "hours": "Open 24 hours"
      },
      {
        "day": "Friday",
        "hours": "Open 24 hours"
      },
      {
        "day": "Saturday",
        "hours": "Open 24 hours"
      },
      {
        "day": "Sunday",
        "hours": "Open 24 hours"
      }
    ],
    "imageUrl": "https://media.indianluxurycars.com/google/79899aae6c470b86606642185b94025b619f58f3c902cfbeea3caae2ceb69eea.png",
    "url": "https://www.google.com/maps/search/?api=1&query=PRIHUL%20TRAVELS%20AND%20COMPANY&query_place_id=ChIJB2ryhondKDoRbiWjBLBnbaM"
  },
  {
    "title": "ShisCab - self drive cars in raipur",
    "subTitle": "शीस्कैब",
    "categoryName": "Car rental agency",
    "address": "Santoshi Nagar, Raipur, Mathpurena, Chhattisgarh 492015, India",
    "neighborhood": "Santoshi Nagar",
    "city": "Raipur, Mathpurena",
    "postalCode": "492015",
    "state": "Chhattisgarh",
    "countryCode": "IN",
    "website": "https://www.shiscab.com/",
    "phone": "+916260677498",
    "phoneUnformatted": "+916260677498",
    "location": {
      "lat": 21.2079513,
      "lng": 81.6431627
    },
    "totalScore": 4.8,
    "permanentlyClosed": false,
    "temporarilyClosed": false,
    "placeId": "ChIJAQAwfL7dKDoRYTUOUjMh3hk",
    "categories": [
      "Car rental agency",
      "Bus charter",
      "Car leasing service",
      "Chauffeur service",
      "Taxi service"
    ],
    "reviewsCount": 698,
    "imagesCount": 3548,
    "openingHours": [
      {
        "day": "Monday",
        "hours": "Open 24 hours"
      },
      {
        "day": "Tuesday",
        "hours": "Open 24 hours"
      },
      {
        "day": "Wednesday",
        "hours": "Open 24 hours"
      },
      {
        "day": "Thursday",
        "hours": "Open 24 hours"
      },
      {
        "day": "Friday",
        "hours": "Open 24 hours"
      },
      {
        "day": "Saturday",
        "hours": "Open 24 hours"
      },
      {
        "day": "Sunday",
        "hours": "Open 24 hours"
      }
    ],
    "imageUrl": "https://media.indianluxurycars.com/google/fd5b61f23866fee30604edc13ac0078984685333a9e40ba4d0739e6a3af64466.jpg",
    "url": "https://www.google.com/maps/search/?api=1&query=ShisCab%20-%20self%20drive%20cars%20in%20raipur&query_place_id=ChIJAQAwfL7dKDoRYTUOUjMh3hk"
  }
]
