[
  {
    "title": "999 Rental And Tours",
    "subTitle": "999 रेंटल एंड टूर्स",
    "categoryName": "Car rental agency",
    "address": "Ring Road No. 1, Changurabhata, Raipur, Chhattisgarh 492013, India",
    "neighborhood": "Changurabhata",
    "street": "Ring Road No. 1",
    "city": "Raipur",
    "postalCode": "492013",
    "state": "Chhattisgarh",
    "countryCode": "IN",
    "phone": "+917000596894",
    "phoneUnformatted": "+917000596894",
    "location": {
      "lat": 21.2253783,
      "lng": 81.6122289
    },
    "totalScore": 5,
    "permanentlyClosed": false,
    "temporarilyClosed": false,
    "placeId": "ChIJvad6_tfdKDoR53tigwDucks",
    "categories": [
      "Car rental agency"
    ],
    "reviewsCount": 42,
    "imagesCount": 5,
    "openingHours": [
      {
        "day": "Monday",
        "hours": "Open 24 hours"
      },
      {
        "day": "Tuesday",
        "hours": "Open 24 hours"
      },
      {
        "day": "Wednesday",
        "hours": "Open 24 hours"
      },
      {
        "day": "Thursday",
        "hours": "Open 24 hours"
      },
      {
        "day": "Friday",
        "hours": "Open 24 hours"
      },
      {
        "day": "Saturday",
        "hours": "Open 24 hours"
      },
      {
        "day": "Sunday",
        "hours": "Open 24 hours"
      }
    ],
    "imageUrl": "https://media.indianluxurycars.com/google/ec479e47af67db5cd9b91c512b198fe5354600351d97c93e6d291b0acf785f88.jpg",
    "url": "https://www.google.com/maps/search/?api=1&query=999%20Rental%20And%20Tours&query_place_id=ChIJvad6_tfdKDoR53tigwDucks"
  },
  {
    "title": "AapniCar - self drive cars rent in raipur",
    "subTitle": "आपनिकार - सेल्फ ड्राइव कार्स रेंट इन रायपुर",
    "categoryName": "Car rental agency",
    "address": "Ring Road No. 1, behind SKY Maruti Showroom Vrindavan Colony, Bhatagaon, Raipur, Chhattisgarh 492013, India",
    "neighborhood": "Bhatagaon",
    "street": "Ring Road No. 1, behind SKY Maruti Showroom Vrindavan Colony",
    "city": "Raipur",
    "postalCode": "492013",
    "state": "Chhattisgarh",
    "countryCode": "IN",
    "website": "https://www.aapnicar.com/",
    "phone": "+919179078999",
    "phoneUnformatted": "+919179078999",
    "location": {
      "lat": 21.2193498,
      "lng": 81.6185094
    },
    "totalScore": 4.6,
    "permanentlyClosed": false,
    "temporarilyClosed": false,
    "placeId": "ChIJNVPd8TXcKDoRxV_--J2kE9I",
    "categories": [
      "Car rental agency",
      "Car leasing service"
    ],
    "reviewsCount": 737,
    "imagesCount": 631,
    "openingHours": [
      {
        "day": "Monday",
        "hours": "Open 24 hours"
      },
      {
        "day": "Tuesday",
        "hours": "Open 24 hours"
      },
      {
        "day": "Wednesday",
        "hours": "Open 24 hours"
      },
      {
        "day": "Thursday",
        "hours": "Open 24 hours"
      },
      {
        "day": "Friday",
        "hours": "Open 24 hours"
      },
      {
        "day": "Saturday",
        "hours": "Open 24 hours"
      },
      {
        "day": "Sunday",
        "hours": "Open 24 hours"
      }
    ],
    "imageUrl": "https://media.indianluxurycars.com/google/bf6e37cc173ad2234cb222d1840948b8a0c75afd67cb3c638fd4f16f941db3e1.jpg",
    "url": "https://www.google.com/maps/search/?api=1&query=AapniCar%20-%20self%20drive%20cars%20rent%20in%20raipur&query_place_id=ChIJNVPd8TXcKDoRxV_--J2kE9I"
  },
  {
    "title": "ABS Car Rental (Self Drive Cars)",
    "subTitle": "एबीएस कार रेंटल (सेल्फ ड्राइव कार्स)",
    "categoryName": "Car rental agency",
    "address": "Raja Talab Ambedkar Chowk, near by B.P Pujari school (Swami atmanand school, Govind Nagar, Raipur, Chhattisgarh 492001, India",
    "neighborhood": "Govind Nagar",
    "street": "Raja Talab Ambedkar Chowk, near by B.P Pujari school (Swami atmanand school",
    "city": "Raipur",
    "postalCode": "492001",
    "state": "Chhattisgarh",
    "countryCode": "IN",
    "website": "https://www.instagram.com/abs_wheels.0?igsh=and1NHRudzl3c3d0",
    "phone": "+917441153245",
    "phoneUnformatted": "+917441153245",
    "location": {
      "lat": 21.2471553,
      "lng": 81.6499165
    },
    "totalScore": 5,
    "permanentlyClosed": false,
    "temporarilyClosed": false,
    "placeId": "ChIJc622pj3dKDoR5V7f-PYkQ2g",
    "categories": [
      "Car rental agency"
    ],
    "reviewsCount": 18,
    "imagesCount": 38,
    "openingHours": [
      {
        "day": "Monday",
        "hours": "Open 24 hours"
      },
      {
        "day": "Tuesday",
        "hours": "Open 24 hours"
      },
      {
        "day": "Wednesday",
        "hours": "Open 24 hours"
      },
      {
        "day": "Thursday",
        "hours": "Open 24 hours"
      },
      {
        "day": "Friday",
        "hours": "Open 24 hours"
      },
      {
        "day": "Saturday",
        "hours": "Open 24 hours"
      },
      {
        "day": "Sunday",
        "hours": "Open 24 hours"
      }
    ],
    "imageUrl": "https://media.indianluxurycars.com/google/701184b354babd445b9a96af99e91bab913ac5e14729daab4533eb59b19e5326.jpg",
    "url": "https://www.google.com/maps/search/?api=1&query=ABS%20Car%20Rental%20(Self%20Drive%20Cars)&query_place_id=ChIJc622pj3dKDoR5V7f-PYkQ2g"
  },
  {
    "title": "Anytime Travel Raipur",
    "subTitle": "अन्य्तिमे ट्रैवल रायपुर",
    "categoryName": "Car rental agency",
    "address": "behind sundarani video world, Moudhapara, Raipur, Chhattisgarh 492001, India",
    "neighborhood": "Moudhapara",
    "street": "behind sundarani video world",
    "city": "Raipur",
    "postalCode": "492001",
    "state": "Chhattisgarh",
    "countryCode": "IN",
    "website": "https://anytimetravels.in/",
    "phone": "+919171494000",
    "phoneUnformatted": "+919171494000",
    "location": {
      "lat": 21.2464074,
      "lng": 81.6356768
    },
    "totalScore": 5,
    "permanentlyClosed": false,
    "temporarilyClosed": false,
    "placeId": "ChIJqajrW1jdKDoR_mW7V1TQENc",
    "categories": [
      "Car rental agency",
      "Car leasing service",
      "Taxi service"
    ],
    "reviewsCount": 207,
    "imagesCount": 16,
    "openingHours": [
      {
        "day": "Monday",
        "hours": "Open 24 hours"
      },
      {
        "day": "Tuesday",
        "hours": "Open 24 hours"
      },
      {
        "day": "Wednesday",
        "hours": "Open 24 hours"
      },
      {
        "day": "Thursday",
        "hours": "Open 24 hours"
      },
      {
        "day": "Friday",
        "hours": "Open 24 hours"
      },
      {
        "day": "Saturday",
        "hours": "Open 24 hours"
      },
      {
        "day": "Sunday",
        "hours": "Open 24 hours"
      }
    ],
    "imageUrl": "https://media.indianluxurycars.com/google/a6af2539f82762a2cd7ed943dd993ca67f1894b51851f4cfd27f80b0bc95f2cf.jpg",
    "url": "https://www.google.com/maps/search/?api=1&query=Anytime%20Travel%20Raipur&query_place_id=ChIJqajrW1jdKDoR_mW7V1TQENc"
  },
  {
    "title": "Arhan Traveller & Taxi",
    "subTitle": "अरहान ट्रैवलर & टैक्सी",
    "categoryName": "Car leasing service",
    "address": "SLT Water Front, Talab, opp. Marine Drive, Moulipara, Telibandha, Raipur, Chhattisgarh 492001, India",
    "neighborhood": "Moulipara, Telibandha",
    "street": "SLT Water Front, Talab, opp. Marine Drive",
    "city": "Raipur",
    "postalCode": "492001",
    "state": "Chhattisgarh",
    "countryCode": "IN",
    "phone": "+917804966009",
    "phoneUnformatted": "+917804966009",
    "location": {
      "lat": 21.241082,
      "lng": 81.6609082
    },
    "totalScore": 4.9,
    "permanentlyClosed": false,
    "temporarilyClosed": false,
    "placeId": "ChIJCYsDTRLdKDoRBI2oPha3iUE",
    "categories": [
      "Car leasing service",
      "Bus tour agency",
      "Taxi service"
    ],
    "reviewsCount": 207,
    "imagesCount": 13,
    "openingHours": [],
    "imageUrl": "https://media.indianluxurycars.com/google/236e86139986a2ea0345ada45588d195ad3ac25bc66873cc6318958157358fbd.jpg",
    "url": "https://www.google.com/maps/search/?api=1&query=Arhan%20Traveller%20%26%20Taxi&query_place_id=ChIJCYsDTRLdKDoRBI2oPha3iUE"
  },
  {
    "title": "Bani travels",
    "subTitle": "बनी ट्रैवल्स",
    "categoryName": "Car rental agency",
    "address": "Infront of santosh kiraya bhandar, Bandhwa Para, Purani Basti, Raipur, Chhattisgarh 492001, India",
    "neighborhood": "Bandhwa Para, Purani Basti",
    "street": "Infront of santosh kiraya bhandar",
    "city": "Raipur",
    "postalCode": "492001",
    "state": "Chhattisgarh",
    "countryCode": "IN",
    "phone": "+919827911022",
    "phoneUnformatted": "+919827911022",
    "location": {
      "lat": 21.2338902,
      "lng": 81.6220097
    },
    "totalScore": 5,
    "permanentlyClosed": false,
    "temporarilyClosed": false,
    "placeId": "ChIJ5ZCc_iLdKDoRo0Iu3aA13hM",
    "categories": [
      "Car rental agency"
    ],
    "reviewsCount": 1,
    "imagesCount": 6,
    "openingHours": [
      {
        "day": "Monday",
        "hours": "Open 24 hours"
      },
      {
        "day": "Tuesday",
        "hours": "Open 24 hours"
      },
      {
        "day": "Wednesday",
        "hours": "Open 24 hours"
      },
      {
        "day": "Thursday",
        "hours": "Open 24 hours"
      },
      {
        "day": "Friday",
        "hours": "Open 24 hours"
      },
      {
        "day": "Saturday",
        "hours": "Open 24 hours"
      },
      {
        "day": "Sunday",
        "hours": "Open 24 hours"
      }
    ],
    "imageUrl": "https://media.indianluxurycars.com/google/b8fec6347086595de46cfdc140202fdb208beae1ffe7f4dc19bd60d820c0cd2f.jpg",
    "url": "https://www.google.com/maps/search/?api=1&query=Bani%20travels&query_place_id=ChIJ5ZCc_iLdKDoRo0Iu3aA13hM"
  },
  {
    "title": "Car Avenue",
    "subTitle": "कार एवेन्यू",
    "categoryName": "Used car dealer",
    "address": "Shop No 04, Hazrat Fateshah Market, near Siddharth Chowk, Tikrapara, Raipur, Chhattisgarh 492001, India",
    "neighborhood": "Tikrapara",
    "street": "Shop No 04, Hazrat Fateshah Market, near Siddharth Chowk",
    "city": "Raipur",
    "postalCode": "492001",
    "state": "Chhattisgarh",
    "countryCode": "IN",
    "website": "https://instagram.com/car_avenue_raipur?igshid=YmMyMTA2M2Y=",
    "phone": "+919575868888",
    "phoneUnformatted": "+919575868888",
    "location": {
      "lat": 21.2281024,
      "lng": 81.6404622
    },
    "totalScore": 4.9,
    "permanentlyClosed": false,
    "temporarilyClosed": false,
    "placeId": "ChIJ9bdlo-3dKDoR9arwQ-oWRJ0",
    "categories": [
      "Used car dealer"
    ],
    "reviewsCount": 29,
    "imagesCount": 51,
    "openingHours": [
      {
        "day": "Monday",
        "hours": "9:30 AM to 10 PM"
      },
      {
        "day": "Tuesday",
        "hours": "9:30 AM to 10 PM"
      },
      {
        "day": "Wednesday",
        "hours": "9:30 AM to 10 PM"
      },
      {
        "day": "Thursday",
        "hours": "9:30 AM to 10 PM"
      },
      {
        "day": "Friday",
        "hours": "9:30 AM to 10 PM"
      },
      {
        "day": "Saturday",
        "hours": "9:30 AM to 10 PM"
      },
      {
        "day": "Sunday",
        "hours": "9:30 AM to 3 PM"
      }
    ],
    "imageUrl": "https://media.indianluxurycars.com/google/669720f07beea6b61d112a6d41e14224d84bb6e495427d7cbe2bd89172923711.jpg",
    "url": "https://www.google.com/maps/search/?api=1&query=Car%20Avenue&query_place_id=ChIJ9bdlo-3dKDoR9arwQ-oWRJ0"
  },
  {
    "title": "Car Bazaar",
    "subTitle": "कार बाजार",
    "categoryName": "Used car dealer",
    "address": "Shop No. 11, Nagar Nigam Complex, Near State Bank ATM, Shankar Nagar, Raipur, Chhattisgarh 492004, India",
    "neighborhood": "Shankar Nagar",
    "street": "Shop No. 11, Nagar Nigam Complex, Near State Bank ATM",
    "city": "Raipur",
    "postalCode": "492004",
    "state": "Chhattisgarh",
    "countryCode": "IN",
    "phone": "+919329748494",
    "phoneUnformatted": "+919329748494",
    "location": {
      "lat": 21.2567619,
      "lng": 81.6615449
    },
    "totalScore": 4.2,
    "permanentlyClosed": false,
    "temporarilyClosed": false,
    "placeId": "ChIJrT6dfW_dKDoR4Q4u3NHIM0k",
    "categories": [
      "Used car dealer"
    ],
    "reviewsCount": 5,
    "imagesCount": 6,
    "openingHours": [
      {
        "day": "Monday",
        "hours": "9:30 AM to 6:30 PM"
      },
      {
        "day": "Tuesday",
        "hours": "9:30 AM to 6:30 PM"
      },
      {
        "day": "Wednesday",
        "hours": "9:30 AM to 6:30 PM"
      },
      {
        "day": "Thursday",
        "hours": "9:30 AM to 6:30 PM"
      },
      {
        "day": "Friday",
        "hours": "9:30 AM to 6:30 PM"
      },
      {
        "day": "Saturday",
        "hours": "9:30 AM to 6:30 PM"
      },
      {
        "day": "Sunday",
        "hours": "Closed"
      }
    ],
    "imageUrl": "https://media.indianluxurycars.com/google/1e1fbb03af4885bb6c5d747ef9d97c31aa8001f822bf749ebf71a690b99a3e22.jpg",
    "url": "https://www.google.com/maps/search/?api=1&query=Car%20Bazaar&query_place_id=ChIJrT6dfW_dKDoR4Q4u3NHIM0k"
  },
  {
    "title": "Car Concept | Second Hand Car Dealer in Raipur | Best Use Car Dealer in Raipur | Loan Agency in Raipur",
    "subTitle": "कार कॉन्सेप्ट | सेकंड हैंड कार डीलर इन रायपुर | बेस्ट उसे कार डीलर इन रायपुर | लोन एजेंसी इन रायपुर",
    "categoryName": "Used car dealer",
    "address": "6MPJ+X9C, VIP Rd, in front of Shree Ram Mandir, Vishal Nagar, Raipur, Chhattisgarh 492001, India",
    "neighborhood": "Vishal Nagar",
    "street": "6MPJ+X9C, VIP Rd, in front of Shree Ram Mandir",
    "city": "Raipur",
    "postalCode": "492001",
    "state": "Chhattisgarh",
    "countryCode": "IN",
    "phone": "+919300000888",
    "phoneUnformatted": "+919300000888",
    "location": {
      "lat": 21.2374252,
      "lng": 81.6808934
    },
    "totalScore": 4.5,
    "permanentlyClosed": false,
    "temporarilyClosed": false,
    "placeId": "ChIJ9UlxrG7dKDoRh-qWiG9fQoU",
    "categories": [
      "Used car dealer",
      "Finance broker",
      "Loan agency"
    ],
    "reviewsCount": 45,
    "imagesCount": 17,
    "openingHours": [
      {
        "day": "Monday",
        "hours": "9 AM to 9 PM"
      },
      {
        "day": "Tuesday",
        "hours": "9 AM to 9 PM"
      },
      {
        "day": "Wednesday",
        "hours": "9 AM to 9 PM"
      },
      {
        "day": "Thursday",
        "hours": "9 AM to 9 PM"
      },
      {
        "day": "Friday",
        "hours": "9 AM to 9 PM"
      },
      {
        "day": "Saturday",
        "hours": "9 AM to 9 PM"
      },
      {
        "day": "Sunday",
        "hours": "Closed"
      }
    ],
    "imageUrl": "https://media.indianluxurycars.com/google/74b0f9c38af5d0f4dc13d1805f1ea7d2075aae00e33700a42844e5e36ee10699.jpg",
    "url": "https://www.google.com/maps/search/?api=1&query=Car%20Concept%20%7C%20Second%20Hand%20Car%20Dealer%20in%20Raipur%20%7C%20Best%20Use%20Car%20Dealer%20in%20Raipur%20%7C%20Loan%20Agency%20in%20Raipur&query_place_id=ChIJ9UlxrG7dKDoRh-qWiG9fQoU"
  },
  {
    "title": "CAR EXPERT",
    "subTitle": "कार एक्सपर्ट",
    "categoryName": "Used car dealer",
    "address": "Near, Kushalpur Rd, Patel Para, Raipur, Chhattisgarh 492013, India",
    "neighborhood": "Patel Para",
    "street": "Near, Kushalpur Rd",
    "city": "Raipur",
    "postalCode": "492013",
    "state": "Chhattisgarh",
    "countryCode": "IN",
    "phone": "+916266188790",
    "phoneUnformatted": "+916266188790",
    "location": {
      "lat": 21.225036,
      "lng": 81.6143669
    },
    "totalScore": 5,
    "permanentlyClosed": false,
    "temporarilyClosed": false,
    "placeId": "ChIJrciHlM3dKDoRkJmfhnA7Vtw",
    "categories": [
      "Used car dealer"
    ],
    "reviewsCount": 3,
    "imagesCount": 11,
    "openingHours": [
      {
        "day": "Monday",
        "hours": "10 AM to 8 PM"
      },
      {
        "day": "Tuesday",
        "hours": "10 AM to 8 PM"
      },
      {
        "day": "Wednesday",
        "hours": "10 AM to 8 PM"
      },
      {
        "day": "Thursday",
        "hours": "10 AM to 8 PM"
      },
      {
        "day": "Friday",
        "hours": "10 AM to 8 PM"
      },
      {
        "day": "Saturday",
        "hours": "10 AM to 8 PM"
      },
      {
        "day": "Sunday",
        "hours": "10 AM to 8 PM"
      }
    ],
    "imageUrl": "https://media.indianluxurycars.com/google/d712ba082df5eeb7667a3bb2492ab5d7c7c3cfdb5e5ce5231537bdb60f05560c.jpg",
    "url": "https://www.google.com/maps/search/?api=1&query=CAR%20EXPERT&query_place_id=ChIJrciHlM3dKDoRkJmfhnA7Vtw"
  },
  {
    "title": "Car Sajawat",
    "subTitle": "कार सजावट",
    "categoryName": "Car accessories store",
    "address": "Ishwari Plaza, Gaurav Path, opposite Marine Drive, Moulipara, Telibandha, Raipur, Chhattisgarh 492001, India",
    "neighborhood": "Moulipara, Telibandha",
    "street": "Ishwari Plaza, Gaurav Path, opposite Marine Drive",
    "city": "Raipur",
    "postalCode": "492001",
    "state": "Chhattisgarh",
    "countryCode": "IN",
    "phone": "+919827400600",
    "phoneUnformatted": "+919827400600",
    "location": {
      "lat": 21.2415051,
      "lng": 81.6593716
    },
    "totalScore": 4.5,
    "permanentlyClosed": false,
    "temporarilyClosed": false,
    "placeId": "ChIJgc8_N1bdKDoRfQxmxAPCTZY",
    "categories": [
      "Car accessories store"
    ],
    "reviewsCount": 97,
    "imagesCount": 16,
    "openingHours": [
      {
        "day": "Monday",
        "hours": "10:30 AM to 9 PM"
      },
      {
        "day": "Tuesday",
        "hours": "10:30 AM to 9 PM"
      },
      {
        "day": "Wednesday",
        "hours": "10:30 AM to 9 PM"
      },
      {
        "day": "Thursday",
        "hours": "10:30 AM to 9 PM"
      },
      {
        "day": "Friday",
        "hours": "10:30 AM to 9 PM"
      },
      {
        "day": "Saturday",
        "hours": "10:30 AM to 9 PM"
      },
      {
        "day": "Sunday",
        "hours": "Closed"
      }
    ],
    "imageUrl": "https://media.indianluxurycars.com/google/f196f25a0d3e588968f93ad1a1d5d23162f918e90be6581dc0ff73926ea18903.jpg",
    "url": "https://www.google.com/maps/search/?api=1&query=Car%20Sajawat&query_place_id=ChIJgc8_N1bdKDoRfQxmxAPCTZY"
  },
  {
    "title": "Car Solution",
    "subTitle": "कार सॉल्युशन",
    "categoryName": "Car dealer",
    "address": "Ring Road No. 1, near Udyog Bhawan, opp. MM Silver Plaza, Kashiram Nagar, Shyam Nagar, Raipur, Chhattisgarh 492001, India",
    "neighborhood": "Kashiram Nagar, Shyam Nagar",
    "street": "Ring Road No. 1, near Udyog Bhawan, opp. MM Silver Plaza",
    "city": "Raipur",
    "postalCode": "492001",
    "state": "Chhattisgarh",
    "countryCode": "IN",
    "website": "http://www.carsolutionraipur.in/",
    "phone": "+918120310000",
    "phoneUnformatted": "+918120310000",
    "location": {
      "lat": 21.2324038,
      "lng": 81.6634305
    },
    "totalScore": 3.9,
    "permanentlyClosed": false,
    "temporarilyClosed": false,
    "placeId": "ChIJ-epYFxrdKDoRB-RpD9pQ3ZY",
    "categories": [
      "Car dealer",
      "Automation company",
      "Chauffeur service",
      "Race car dealer",
      "Smart Car dealer"
    ],
    "reviewsCount": 58,
    "imagesCount": 32,
    "openingHours": [
      {
        "day": "Monday",
        "hours": "10 AM to 8 PM"
      },
      {
        "day": "Tuesday",
        "hours": "10 AM to 8 PM"
      },
      {
        "day": "Wednesday",
        "hours": "10 AM to 8 PM"
      },
      {
        "day": "Thursday",
        "hours": "10 AM to 8 PM"
      },
      {
        "day": "Friday",
        "hours": "10 AM to 8 PM"
      },
      {
        "day": "Saturday",
        "hours": "10 AM to 8 PM"
      },
      {
        "day": "Sunday",
        "hours": "11:30 AM to 4 PM"
      }
    ],
    "imageUrl": "https://media.indianluxurycars.com/google/73c2f54e95884b9d6a1630439ef1c228e50d828f1c6c9d70a4559c98d5469ccf.jpg",
    "url": "https://www.google.com/maps/search/?api=1&query=Car%20Solution&query_place_id=ChIJ-epYFxrdKDoRB-RpD9pQ3ZY"
  },
  {
    "title": "Car Streets",
    "subTitle": "कार स्ट्रीट्स",
    "categoryName": "Used car dealer",
    "address": "Car streets, near diwan hopital, Keduwan Nagar, Radhaswami Nagar, Bhatagaon, Raipur, Chhattisgarh 492013, India",
    "neighborhood": "Keduwan Nagar, Radhaswami Nagar, Bhatagaon",
    "street": "Car streets, near diwan hopital",
    "city": "Raipur",
    "postalCode": "492013",
    "state": "Chhattisgarh",
    "countryCode": "IN",
    "website": "https://sites.google.com/view/car-streets",
    "phone": "+919009008756",
    "phoneUnformatted": "+919009008756",
    "location": {
      "lat": 21.2197473,
      "lng": 81.62108
    },
    "totalScore": 4.2,
    "permanentlyClosed": false,
    "temporarilyClosed": false,
    "placeId": "ChIJJcDNpNfdKDoRn0RKiGvFdIg",
    "categories": [
      "Used car dealer"
    ],
    "reviewsCount": 33,
    "imagesCount": 6,
    "openingHours": [
      {
        "day": "Monday",
        "hours": "10:30 AM to 8:30 PM"
      },
      {
        "day": "Tuesday",
        "hours": "10:30 AM to 8:30 PM"
      },
      {
        "day": "Wednesday",
        "hours": "10:30 AM to 8:30 PM"
      },
      {
        "day": "Thursday",
        "hours": "10:30 AM to 8:30 PM"
      },
      {
        "day": "Friday",
        "hours": "10:30 AM to 8:30 PM"
      },
      {
        "day": "Saturday",
        "hours": "10:30 AM to 8:30 PM"
      },
      {
        "day": "Sunday",
        "hours": "10:30 AM to 8:30 PM"
      }
    ],
    "imageUrl": "https://media.indianluxurycars.com/google/73f28f5d445f56159692b6abe8c4ae4a227834b60f2e14a2241e3c22d4926673.jpg",
    "url": "https://www.google.com/maps/search/?api=1&query=Car%20Streets&query_place_id=ChIJJcDNpNfdKDoRn0RKiGvFdIg"
  },
  {
    "title": "Car Studio",
    "subTitle": "कार स्टूडियो",
    "categoryName": "Used car dealer",
    "address": "6HMW+FC2, Ring Road No. 1, Rohnipuram, DDU Nagar, Amanaka, Raipur, Chhattisgarh 492013, India",
    "neighborhood": "Rohnipuram, DDU Nagar, Amanaka",
    "street": "6HMW+FC2, Ring Road No. 1",
    "city": "Raipur",
    "postalCode": "492013",
    "state": "Chhattisgarh",
    "countryCode": "IN",
    "phone": "+918435555506",
    "phoneUnformatted": "+918435555506",
    "location": {
      "lat": 21.2326375,
      "lng": 81.5971914
    },
    "totalScore": 4.9,
    "permanentlyClosed": false,
    "temporarilyClosed": false,
    "placeId": "ChIJT5h6zrvfKDoRIoEB7CWudlA",
    "categories": [
      "Used car dealer"
    ],
    "reviewsCount": 9,
    "imagesCount": 32,
    "openingHours": [
      {
        "day": "Monday",
        "hours": "10 AM to 8 PM"
      },
      {
        "day": "Tuesday",
        "hours": "10 AM to 8 PM"
      },
      {
        "day": "Wednesday",
        "hours": "10 AM to 8 PM"
      },
      {
        "day": "Thursday",
        "hours": "10 AM to 8 PM"
      },
      {
        "day": "Friday",
        "hours": "10 AM to 8 PM"
      },
      {
        "day": "Saturday",
        "hours": "10 AM to 8 PM"
      },
      {
        "day": "Sunday",
        "hours": "10 AM to 3 PM"
      }
    ],
    "imageUrl": "https://media.indianluxurycars.com/google/1efa02802c5c780a2033db64778163bfbeb88aafe216442a3f3bf7099b474017.jpg",
    "url": "https://www.google.com/maps/search/?api=1&query=Car%20Studio&query_place_id=ChIJT5h6zrvfKDoRIoEB7CWudlA"
  },
  {
    "title": "Cars Nation",
    "subTitle": "कार्स नेशन",
    "categoryName": "Used car dealer",
    "address": "6MM8+RG9, Ring Road No. 1, beside Royal Oak, near Shatabdi Nagar, Shatabdi Nagar, Telibandha, Raipur, Chhattisgarh 492001, India",
    "neighborhood": "Shatabdi Nagar, Telibandha",
    "street": "6MM8+RG9, Ring Road No. 1, beside Royal Oak, near Shatabdi Nagar",
    "city": "Raipur",
    "postalCode": "492001",
    "state": "Chhattisgarh",
    "countryCode": "IN",
    "phone": "+918817777723",
    "phoneUnformatted": "+918817777723",
    "location": {
      "lat": 21.2345387,
      "lng": 81.6663722
    },
    "totalScore": 2.5,
    "permanentlyClosed": false,
    "temporarilyClosed": false,
    "placeId": "ChIJuxU1xnDdKDoRVbzJ0MqWBEo",
    "categories": [
      "Used car dealer"
    ],
    "reviewsCount": 4,
    "imagesCount": 2,
    "openingHours": [
      {
        "day": "Monday",
        "hours": "11 AM to 8 PM"
      },
      {
        "day": "Tuesday",
        "hours": "11 AM to 8 PM"
      },
      {
        "day": "Wednesday",
        "hours": "11 AM to 8 PM"
      },
      {
        "day": "Thursday",
        "hours": "11 AM to 8 PM"
      },
      {
        "day": "Friday",
        "hours": "11 AM to 8 PM"
      },
      {
        "day": "Saturday",
        "hours": "11 AM to 8 PM"
      },
      {
        "day": "Sunday",
        "hours": "Closed"
      }
    ],
    "imageUrl": "https://media.indianluxurycars.com/google/1b75354cdad625eed9a4560d369dca727d9e53bba021a7fcd115f9a0d89d7e54.jpg",
    "url": "https://www.google.com/maps/search/?api=1&query=Cars%20Nation&query_place_id=ChIJuxU1xnDdKDoRVbzJ0MqWBEo"
  },
  {
    "title": "CHOUHAN AUTO DEAL USED CAR DEALER",
    "subTitle": "चौहान ऑटो डील यूज्ड कार डीलर",
    "categoryName": "Used car dealer",
    "address": "RAJ KUMAR COLLEGE, Great Eastern Rd, Geeta Nagar, KARBALA PARA, Samta Colony, Raipur, Chhattisgarh 492001, India",
    "neighborhood": "Geeta Nagar, KARBALA PARA, Samta Colony",
    "street": "RAJ KUMAR COLLEGE, Great Eastern Rd",
    "city": "Raipur",
    "postalCode": "492001",
    "state": "Chhattisgarh",
    "countryCode": "IN",
    "phone": "+918319363797",
    "phoneUnformatted": "+918319363797",
    "location": {
      "lat": 21.2432816,
      "lng": 81.613384
    },
    "totalScore": 5,
    "permanentlyClosed": false,
    "temporarilyClosed": false,
    "placeId": "ChIJq2B1I8_dKDoREk6YVIUNYsc",
    "categories": [
      "Used car dealer"
    ],
    "reviewsCount": 13,
    "imagesCount": 87,
    "openingHours": [
      {
        "day": "Monday",
        "hours": "10 AM to 8:30 PM"
      },
      {
        "day": "Tuesday",
        "hours": "10 AM to 8:30 PM"
      },
      {
        "day": "Wednesday",
        "hours": "10 AM to 8:30 PM"
      },
      {
        "day": "Thursday",
        "hours": "10 AM to 8:30 PM"
      },
      {
        "day": "Friday",
        "hours": "10 AM to 8:30 PM"
      },
      {
        "day": "Saturday",
        "hours": "10 AM to 8:30 PM"
      },
      {
        "day": "Sunday",
        "hours": "Closed"
      }
    ],
    "imageUrl": "https://media.indianluxurycars.com/google/28c48a07d75ce263a0576782078ed7318e5dcabdf0e8f2e7deab289387d74457.jpg",
    "url": "https://www.google.com/maps/search/?api=1&query=CHOUHAN%20AUTO%20DEAL%20USED%20CAR%20DEALER&query_place_id=ChIJq2B1I8_dKDoREk6YVIUNYsc"
  },
  {
    "title": "Dream Car Bazaar - Best Second Hand Cars Dealer | Best Used Car Shop | Best Pre-Owned Car Dealer in Raipur",
    "subTitle": "ड्रीम कार बाज़ार - बेस्ट सेकंड हैंड कार्स डीलर | बेस्ट यूज्ड कार शॉप | बेस्ट प्री-ओन्ड कार डीलर इन रायपुर",
    "categoryName": "Used car dealer",
    "address": "near Budda Talab Turning, Opposite, Beni Madhav Tiwari Marg, Tikrapara, Raipur, Chhattisgarh 492001, India",
    "neighborhood": "RDA Colony, Tikrapara",
    "street": "near Budda Talab Turning, Opposite, Beni Madhav Tiwari Marg",
    "city": "Raipur",
    "postalCode": "492001",
    "state": "Chhattisgarh",
    "countryCode": "IN",
    "website": "http://dreamcarbazaar.in/",
    "phone": "+919329350710",
    "phoneUnformatted": "+919329350710",
    "location": {
      "lat": 21.229904,
      "lng": 81.6397811
    },
    "totalScore": 4.5,
    "permanentlyClosed": false,
    "temporarilyClosed": false,
    "placeId": "ChIJjzRiJ7jdKDoRrcXVxWz9XKg",
    "categories": [
      "Used car dealer",
      "Motor vehicle dealer"
    ],
    "reviewsCount": 8,
    "imagesCount": 30,
    "openingHours": [
      {
        "day": "Monday",
        "hours": "10 AM to 8 PM"
      },
      {
        "day": "Tuesday",
        "hours": "10 AM to 8 PM"
      },
      {
        "day": "Wednesday",
        "hours": "10 AM to 8 PM"
      },
      {
        "day": "Thursday",
        "hours": "10 AM to 8 PM"
      },
      {
        "day": "Friday",
        "hours": "10 AM to 8 PM"
      },
      {
        "day": "Saturday",
        "hours": "10 AM to 8 PM"
      },
      {
        "day": "Sunday",
        "hours": "10 AM to 4 PM"
      }
    ],
    "imageUrl": "https://media.indianluxurycars.com/google/d71b2669267545587fa3164098e1d900044edc70f7ab2a2ad339829fe3803b33.jpg",
    "url": "https://www.google.com/maps/search/?api=1&query=Dream%20Car%20Bazaar%20-%20Best%20Second%20Hand%20Cars%20Dealer%20%7C%20Best%20Used%20Car%20Shop%20%7C%20Best%20Pre-Owned%20Car%20Dealer%20in%20Raipur&query_place_id=ChIJjzRiJ7jdKDoRrcXVxWz9XKg"
  },
  {
    "title": "elekars_cab",
    "subTitle": "एलेकर्स_सीएबी",
    "categoryName": "Car rental agency",
    "address": "Gol Chowk, DDU Nagar, Amanaka, Raipur, Chhattisgarh 492013, India",
    "neighborhood": "DDU Nagar, Amanaka",
    "street": "Gol Chowk",
    "city": "Raipur",
    "postalCode": "492013",
    "state": "Chhattisgarh",
    "countryCode": "IN",
    "website": "https://elekarscab.com/",
    "phone": "+919201630479",
    "phoneUnformatted": "+919201630479",
    "location": {
      "lat": 21.2368909,
      "lng": 81.6012223
    },
    "totalScore": 4.9,
    "permanentlyClosed": false,
    "temporarilyClosed": false,
    "placeId": "ChIJie3QDQffKDoRF8mFPB-UtPM",
    "categories": [
      "Car rental agency",
      "Air taxi",
      "Airport shuttle service",
      "Car leasing service",
      "Taxi service",
      "Tour agency"
    ],
    "reviewsCount": 107,
    "imagesCount": 28,
    "openingHours": [],
    "imageUrl": "https://media.indianluxurycars.com/google/f65e6d4f715ec0dac6accda43944f86fd925a214ff682b1562998b83d94490ff.jpg",
    "url": "https://www.google.com/maps/search/?api=1&query=elekars_cab&query_place_id=ChIJie3QDQffKDoRF8mFPB-UtPM"
  },
  {
    "title": "Gaurav travels Raipur",
    "subTitle": "गौरव ट्रैवल्स रायपुर",
    "categoryName": "Car rental agency",
    "address": "Mahamai Para, Raipur, Chhattisgarh 492001, India",
    "neighborhood": "Mahamai Para",
    "city": "Raipur",
    "postalCode": "492001",
    "state": "Chhattisgarh",
    "countryCode": "IN",
    "phone": "+917879025083",
    "phoneUnformatted": "+917879025083",
    "location": {
      "lat": 21.2256318,
      "lng": 81.6325263
    },
    "totalScore": 4.8,
    "permanentlyClosed": false,
    "temporarilyClosed": false,
    "placeId": "ChIJGWUt47DdKDoRb8JnFhQjUiU",
    "categories": [
      "Car rental agency"
    ],
    "reviewsCount": 9,
    "imagesCount": 23,
    "openingHours": [
      {
        "day": "Monday",
        "hours": "Open 24 hours"
      },
      {
        "day": "Tuesday",
        "hours": "Open 24 hours"
      },
      {
        "day": "Wednesday",
        "hours": "Open 24 hours"
      },
      {
        "day": "Thursday",
        "hours": "Open 24 hours"
      },
      {
        "day": "Friday",
        "hours": "Open 24 hours"
      },
      {
        "day": "Saturday",
        "hours": "Open 24 hours"
      },
      {
        "day": "Sunday",
        "hours": "Open 24 hours"
      }
    ],
    "imageUrl": "https://media.indianluxurycars.com/google/1b85e09ad0d091882bf935a5f610fe12a334e5b370684183720c3a4a872e5c50.jpg",
    "url": "https://www.google.com/maps/search/?api=1&query=Gaurav%20travels%20Raipur&query_place_id=ChIJGWUt47DdKDoRb8JnFhQjUiU"
  },
  {
    "title": "Holidays Imperial – Tour & Travel Agency",
    "subTitle": "होलीडेज इंपीरियल - टूर & ट्रैवल एजेंसी",
    "categoryName": "Car leasing service",
    "address": "Office Number 04, 05, 06, Maruti Solitaire, Khamardih Rd, Shri Ram Nagar, Anupam Nagar, Raipur, Chhattisgarh 492001, India",
    "neighborhood": "Shri Ram Nagar, Anupam Nagar",
    "street": "Office Number 04, 05, 06, Maruti Solitaire, Khamardih Rd",
    "city": "Raipur",
    "postalCode": "492001",
    "state": "Chhattisgarh",
    "countryCode": "IN",
    "website": "https://holidaysimperial.com/",
    "phone": "+919111789000",
    "phoneUnformatted": "+919111789000",
    "location": {
      "lat": 21.2565478,
      "lng": 81.675603
    },
    "totalScore": 4.9,
    "permanentlyClosed": false,
    "temporarilyClosed": false,
    "placeId": "ChIJN8TtfoPdKDoRrHcbArBGYj4",
    "categories": [
      "Car leasing service",
      "Tour operator",
      "Event planner",
      "Outdoor activity organiser",
      "Sightseeing tour agency",
      "Tourist attraction",
      "Travel agency",
      "Travel lounge",
      "Visa consulting service"
    ],
    "reviewsCount": 13,
    "imagesCount": 34,
    "openingHours": [
      {
        "day": "Monday",
        "hours": "10 AM to 8 PM"
      },
      {
        "day": "Tuesday",
        "hours": "10 AM to 8 PM"
      },
      {
        "day": "Wednesday",
        "hours": "10 AM to 8 PM"
      },
      {
        "day": "Thursday",
        "hours": "10 AM to 8 PM"
      },
      {
        "day": "Friday",
        "hours": "10 AM to 8 PM"
      },
      {
        "day": "Saturday",
        "hours": "10 AM to 8 PM"
      },
      {
        "day": "Sunday",
        "hours": "Closed"
      }
    ],
    "imageUrl": "https://media.indianluxurycars.com/google/88202e8b032b1e25505ae49036b3f0857cc5b837066780e4f04652a99a155c85.jpg",
    "url": "https://www.google.com/maps/search/?api=1&query=Holidays%20Imperial%20%E2%80%93%20Tour%20%26%20Travel%20Agency&query_place_id=ChIJN8TtfoPdKDoRrHcbArBGYj4"
  },
  {
    "title": "Indian Travels",
    "subTitle": "भारतीय ट्रेवल्स",
    "categoryName": "Car rental agency",
    "address": "Shop Number-2, Nagar Nigam Complex, Beside Escort Hospital, Rajbanda Maidan, Raipur, Chhattisgarh 492001, India",
    "neighborhood": "Moudhapara",
    "street": "Shop Number-2, Nagar Nigam Complex, Beside Escort Hospital, Rajbanda Maidan",
    "city": "Raipur",
    "postalCode": "492001",
    "state": "Chhattisgarh",
    "countryCode": "IN",
    "phone": "+918517911111",
    "phoneUnformatted": "+918517911111",
    "location": {
      "lat": 21.2488053,
      "lng": 81.6390717
    },
    "totalScore": 4.9,
    "permanentlyClosed": false,
    "temporarilyClosed": false,
    "placeId": "ChIJEVM9kZndKDoRv6flr6yvOtk",
    "categories": [
      "Car rental agency",
      "Car leasing service",
      "Sightseeing tour agency",
      "Taxi service",
      "Travel agency"
    ],
    "reviewsCount": 74,
    "imagesCount": 13,
    "openingHours": [
      {
        "day": "Monday",
        "hours": "8 AM to 8 PM"
      },
      {
        "day": "Tuesday",
        "hours": "8 AM to 8 PM"
      },
      {
        "day": "Wednesday",
        "hours": "8 AM to 8 PM"
      },
      {
        "day": "Thursday",
        "hours": "8 AM to 8 PM"
      },
      {
        "day": "Friday",
        "hours": "8 AM to 8 PM"
      },
      {
        "day": "Saturday",
        "hours": "8 AM to 8 PM"
      },
      {
        "day": "Sunday",
        "hours": "Closed"
      }
    ],
    "imageUrl": "https://media.indianluxurycars.com/google/6c21ef1948fecb729a0cb02e99e8519d44ce329adba0e51cd613ea3fdc10d638.jpg",
    "url": "https://www.google.com/maps/search/?api=1&query=Indian%20Travels&query_place_id=ChIJEVM9kZndKDoRv6flr6yvOtk"
  },
  {
    "title": "Kanha Travels One Way Taxi",
    "subTitle": "कान्हा ट्रैवल्स",
    "categoryName": "Car rental agency",
    "address": "near Nav Durga mandir, New Shanti Nagar, Vinoba bhave nagar, Indravati Colony, Raipur, Chhattisgarh 492001, India",
    "neighborhood": "New Shanti Nagar, Vinoba bhave nagar, Indravati Colony",
    "street": "near Nav Durga mandir",
    "city": "Raipur",
    "postalCode": "492001",
    "state": "Chhattisgarh",
    "countryCode": "IN",
    "website": "https://www.kanha-travels.in/",
    "phone": "+918224010101",
    "phoneUnformatted": "+918224010101",
    "location": {
      "lat": 21.244624,
      "lng": 81.6528512
    },
    "totalScore": 5,
    "permanentlyClosed": false,
    "temporarilyClosed": false,
    "placeId": "ChIJ7VtkFmzdKDoRYpGpvy8C67o",
    "categories": [
      "Car rental agency",
      "Bus ticket agency",
      "Car leasing service",
      "Taxi service",
      "Tour operator",
      "Travel agency"
    ],
    "reviewsCount": 43,
    "imagesCount": 48,
    "openingHours": [],
    "imageUrl": "https://media.indianluxurycars.com/google/4d1fbe9ae2c5318661a762552e0cc08ed84ba4882fb2572a9e567a1fa6be43b5.jpg",
    "url": "https://www.google.com/maps/search/?api=1&query=Kanha%20Travels%20One%20Way%20Taxi&query_place_id=ChIJ7VtkFmzdKDoRYpGpvy8C67o"
  },
  {
    "title": "LAKSHMI MOTORS",
    "subTitle": "लक्ष्मी मोटर्स",
    "categoryName": "Used car dealer",
    "address": "Kalsha school campus, Pandri Rd, Devendra Nagar, Raipur, Chhattisgarh 492001, India",
    "neighborhood": "Devendra Nagar",
    "street": "Kalsha school campus, Pandri Rd",
    "city": "Raipur",
    "postalCode": "492001",
    "state": "Chhattisgarh",
    "countryCode": "IN",
    "phone": "+916269990999",
    "phoneUnformatted": "+916269990999",
    "location": {
      "lat": 21.2476648,
      "lng": 81.6430849
    },
    "totalScore": 4,
    "permanentlyClosed": false,
    "temporarilyClosed": false,
    "placeId": "ChIJd47QXdXdKDoRifNlAJypoJQ",
    "categories": [
      "Used car dealer"
    ],
    "reviewsCount": 2,
    "imagesCount": 7,
    "openingHours": [
      {
        "day": "Monday",
        "hours": "9 AM to 5 PM"
      },
      {
        "day": "Tuesday",
        "hours": "9 AM to 5 PM"
      },
      {
        "day": "Wednesday",
        "hours": "9 AM to 5 PM"
      },
      {
        "day": "Thursday",
        "hours": "9 AM to 5 PM"
      },
      {
        "day": "Friday",
        "hours": "9 AM to 5 PM"
      },
      {
        "day": "Saturday",
        "hours": "9 AM to 5 PM"
      },
      {
        "day": "Sunday",
        "hours": "Closed"
      }
    ],
    "imageUrl": "https://media.indianluxurycars.com/google/3688132503cf839cc53e85b3d81b7005bf5e8451d093b013c5eb841739999154.jpg",
    "url": "https://www.google.com/maps/search/?api=1&query=LAKSHMI%20MOTORS&query_place_id=ChIJd47QXdXdKDoRifNlAJypoJQ"
  },
  {
    "title": "Lakshmi Motors - Certified Pre-Owned Cars",
    "subTitle": "लक्ष्मी मोटर्स - सर्टिफाइड प्री-ओन्ड कार्स",
    "categoryName": "Car dealer",
    "address": "hotel sharda, Fafadih, Raipur, Chhattisgarh 492001, India",
    "neighborhood": "Fafadih",
    "street": "hotel sharda",
    "city": "Raipur",
    "postalCode": "492001",
    "state": "Chhattisgarh",
    "countryCode": "IN",
    "phone": "+916269990999",
    "phoneUnformatted": "+916269990999",
    "location": {
      "lat": 21.2562926,
      "lng": 81.6371879
    },
    "totalScore": 5,
    "permanentlyClosed": false,
    "temporarilyClosed": false,
    "placeId": "ChIJk_OZIg3dKDoR2Z1fVECgm68",
    "categories": [
      "Car dealer"
    ],
    "reviewsCount": 10,
    "imagesCount": 44,
    "openingHours": [
      {
        "day": "Monday",
        "hours": "10 AM to 8 PM"
      },
      {
        "day": "Tuesday",
        "hours": "10 AM to 8 PM"
      },
      {
        "day": "Wednesday",
        "hours": "10 AM to 8 PM"
      },
      {
        "day": "Thursday",
        "hours": "10 AM to 8 PM"
      },
      {
        "day": "Friday",
        "hours": "10 AM to 8 PM"
      },
      {
        "day": "Saturday",
        "hours": "10 AM to 8 PM"
      },
      {
        "day": "Sunday",
        "hours": "10 AM to 4 PM"
      }
    ],
    "imageUrl": "https://media.indianluxurycars.com/google/5113f87253d098755552978c6577c4e31b854670aa60c0f976caf3edc98f93fa.jpg",
    "url": "https://www.google.com/maps/search/?api=1&query=Lakshmi%20Motors%20-%20Certified%20Pre-Owned%20Cars&query_place_id=ChIJk_OZIg3dKDoR2Z1fVECgm68"
  },
  {
    "title": "Laxmi Motors",
    "subTitle": "लक्ष्मी मोटर्स",
    "categoryName": "Motor vehicle dealer",
    "address": "Patwa Complex, C 13, MG Rd, Moudhapara, Raipur, Chhattisgarh 492001, India",
    "neighborhood": "Moudhapara",
    "street": "Patwa Complex, C 13, MG Rd",
    "city": "Raipur",
    "postalCode": "492001",
    "state": "Chhattisgarh",
    "countryCode": "IN",
    "phone": "+918889730008",
    "phoneUnformatted": "+918889730008",
    "location": {
      "lat": 21.244917,
      "lng": 81.635445
    },
    "totalScore": 4.1,
    "permanentlyClosed": false,
    "temporarilyClosed": false,
    "placeId": "ChIJT0HSDZfdKDoRGYsMB6iOu68",
    "categories": [
      "Motor vehicle dealer"
    ],
    "reviewsCount": 13,
    "imagesCount": 11,
    "openingHours": [
      {
        "day": "Monday",
        "hours": "10:30 AM to 8:30 PM"
      },
      {
        "day": "Tuesday",
        "hours": "10:30 AM to 8:30 PM"
      },
      {
        "day": "Wednesday",
        "hours": "10:30 AM to 8:30 PM"
      },
      {
        "day": "Thursday",
        "hours": "10:30 AM to 8:30 PM"
      },
      {
        "day": "Friday",
        "hours": "10:30 AM to 8:30 PM"
      },
      {
        "day": "Saturday",
        "hours": "10:30 AM to 8:30 PM"
      },
      {
        "day": "Sunday",
        "hours": "Closed"
      }
    ],
    "imageUrl": "https://media.indianluxurycars.com/google/71d9238f7dba4541746c5b509fbbdc360da5d0ef4a8325eb9dee4055fb315097.jpg",
    "url": "https://www.google.com/maps/search/?api=1&query=Laxmi%20Motors&query_place_id=ChIJT0HSDZfdKDoRGYsMB6iOu68"
  },
  {
    "title": "Luxe Automotive",
    "subTitle": "ल्यूक्स ऑटोमोटिव",
    "categoryName": "Car dealer",
    "address": "Land Mark :, 1, Kushalpur Rd, near Indian Coffee House, in-front of SBI Ring Road, Patel Para, Raipur, Chhattisgarh 492001, India",
    "neighborhood": "Patel Para",
    "street": "Land Mark :, 1, Kushalpur Rd, near Indian Coffee House, in-front of SBI Ring Road",
    "city": "Raipur",
    "postalCode": "492001",
    "state": "Chhattisgarh",
    "countryCode": "IN",
    "location": {
      "lat": 21.2240646,
      "lng": 81.6155457
    },
    "totalScore": 5,
    "permanentlyClosed": false,
    "temporarilyClosed": false,
    "placeId": "ChIJwVXVTwDdKDoRpLXroahDy-U",
    "categories": [
      "Car dealer"
    ],
    "reviewsCount": 9,
    "imagesCount": 10,
    "openingHours": [
      {
        "day": "Monday",
        "hours": "10 AM to 7 PM"
      },
      {
        "day": "Tuesday",
        "hours": "10 AM to 7 PM"
      },
      {
        "day": "Wednesday",
        "hours": "10 AM to 7 PM"
      },
      {
        "day": "Thursday",
        "hours": "10 AM to 7 PM"
      },
      {
        "day": "Friday",
        "hours": "10 AM to 7 PM"
      },
      {
        "day": "Saturday",
        "hours": "10 AM to 7 PM"
      },
      {
        "day": "Sunday",
        "hours": "Closed"
      }
    ],
    "imageUrl": "https://media.indianluxurycars.com/google/868d4912194fe860e4fe083274cf72a7d26c38ffd85b6c24417c3113cbf166ae.jpg",
    "url": "https://www.google.com/maps/search/?api=1&query=Luxe%20Automotive&query_place_id=ChIJwVXVTwDdKDoRpLXroahDy-U"
  },
  {
    "title": "Luxe Drive ☆SELF DRIVE CARS☆",
    "subTitle": "ल्यूक्स ड्राइव ☆सेल्फ ड्राइव कार्स☆",
    "categoryName": "Car rental agency",
    "address": "Walfort City, Ask Business Triangle, 206, Bhatagaon, Raipur, Chhattisgarh 492013, India",
    "neighborhood": "Bhatagaon",
    "street": "Walfort City, Ask Business Triangle, 206",
    "city": "Raipur",
    "postalCode": "492013",
    "state": "Chhattisgarh",
    "countryCode": "IN",
    "website": "https://luxe-drive.in/",
    "phone": "+919691093065",
    "phoneUnformatted": "+919691093065",
    "location": {
      "lat": 21.2206171,
      "lng": 81.6170689
    },
    "totalScore": 4.9,
    "permanentlyClosed": false,
    "temporarilyClosed": false,
    "placeId": "ChIJsUSS3wvdKDoReTwwiG5C9n8",
    "categories": [
      "Car rental agency"
    ],
    "reviewsCount": 68,
    "imagesCount": 37,
    "openingHours": [
      {
        "day": "Monday",
        "hours": "9 AM to 10 PM"
      },
      {
        "day": "Tuesday",
        "hours": "9 AM to 10 PM"
      },
      {
        "day": "Wednesday",
        "hours": "9 AM to 10 PM"
      },
      {
        "day": "Thursday",
        "hours": "9 AM to 10 PM"
      },
      {
        "day": "Friday",
        "hours": "9 AM to 10 PM"
      },
      {
        "day": "Saturday",
        "hours": "9 AM to 10 PM"
      },
      {
        "day": "Sunday",
        "hours": "9 AM to 10 PM"
      }
    ],
    "imageUrl": "https://media.indianluxurycars.com/google/b08e7d86d69bbb4af30e3131fa1cae28995f7b45be2a5e42306739c3a53345ce.jpg",
    "url": "https://www.google.com/maps/search/?api=1&query=Luxe%20Drive%20%E2%98%86SELF%20DRIVE%20CARS%E2%98%86&query_place_id=ChIJsUSS3wvdKDoReTwwiG5C9n8"
  },
  {
    "title": "Maruti Tour & Travels",
    "subTitle": "मारुति के दौरे और यात्रा",
    "categoryName": "Car rental agency",
    "address": "Great Eastern Rd, opposite Maruti Heights, Mohba Bazar, Raipur, Chhattisgarh 492099, India",
    "neighborhood": "Mohba Bazar",
    "street": "Great Eastern Rd, opposite Maruti Heights",
    "city": "Raipur",
    "postalCode": "492099",
    "state": "Chhattisgarh",
    "countryCode": "IN",
    "website": "https://www.raipurcabs.com/",
    "phone": "+918770608534",
    "phoneUnformatted": "+918770608534",
    "location": {
      "lat": 21.2549583,
      "lng": 81.5941585
    },
    "totalScore": 2.3,
    "permanentlyClosed": false,
    "temporarilyClosed": false,
    "placeId": "ChIJ5fxA0BreKDoRgHfOpAzT15k",
    "categories": [
      "Car rental agency",
      "Car leasing service",
      "Taxi service",
      "Tour operator",
      "Travel agency"
    ],
    "reviewsCount": 6,
    "imagesCount": 13,
    "openingHours": [
      {
        "day": "Monday",
        "hours": "Open 24 hours"
      },
      {
        "day": "Tuesday",
        "hours": "Open 24 hours"
      },
      {
        "day": "Wednesday",
        "hours": "Open 24 hours"
      },
      {
        "day": "Thursday",
        "hours": "Open 24 hours"
      },
      {
        "day": "Friday",
        "hours": "Open 24 hours"
      },
      {
        "day": "Saturday",
        "hours": "Open 24 hours"
      },
      {
        "day": "Sunday",
        "hours": "Open 24 hours"
      }
    ],
    "imageUrl": "https://media.indianluxurycars.com/google/36adef4103c92eb2545bee664620e512d33a524572f07fc23ded2f5d3b6d23b2.jpg",
    "url": "https://www.google.com/maps/search/?api=1&query=Maruti%20Tour%20%26%20Travels&query_place_id=ChIJ5fxA0BreKDoRgHfOpAzT15k"
  },
  {
    "title": "MG TRAVELS",
    "subTitle": "एमजी ट्रैवल्स",
    "categoryName": "Car rental agency",
    "address": "Infront Of Police Line Gate, kalibadi road, near sbi atm, Nehru Nagar, Budhapara, Raipur, Chhattisgarh 492001, India",
    "neighborhood": "Nehru Nagar, Budhapara",
    "street": "Infront Of Police Line Gate, kalibadi road, near sbi atm",
    "city": "Raipur",
    "postalCode": "492001",
    "state": "Chhattisgarh",
    "countryCode": "IN",
    "website": "http://www.mgtravelsraipur.com/?utm_source=google&utm_medium=wix_google_business_profile&utm_campaign=9116839763064942094",
    "phone": "+917000249698",
    "phoneUnformatted": "+917000249698",
    "location": {
      "lat": 21.2303064,
      "lng": 81.6398113
    },
    "totalScore": 4.7,
    "permanentlyClosed": false,
    "temporarilyClosed": false,
    "placeId": "ChIJS3CYSB_dKDoRjzmP0OnVP8g",
    "categories": [
      "Car rental agency",
      "Car leasing service",
      "Taxi service",
      "Tour operator",
      "Travel agency"
    ],
    "reviewsCount": 65,
    "imagesCount": 94,
    "openingHours": [],
    "imageUrl": "https://media.indianluxurycars.com/google/2de0986cbf2842088cfc2a42eb5b5355db7c083b753d453006871de8f39f1036.jpg",
    "url": "https://www.google.com/maps/search/?api=1&query=MG%20TRAVELS&query_place_id=ChIJS3CYSB_dKDoRjzmP0OnVP8g"
  },
  {
    "title": "Mink Cabs",
    "subTitle": "मिंक कैब्स",
    "categoryName": "Car rental agency",
    "address": "Near Sarkari School, Nahar Road, Opp SBI Atm, Bhatagaon, Raipur, Chhattisgarh 492013, India",
    "neighborhood": "Dhebar City, Bhatagaon",
    "street": "Near Sarkari School, Nahar Road, Opp SBI Atm, Bhatagaon",
    "city": "Raipur",
    "postalCode": "492013",
    "state": "Chhattisgarh",
    "countryCode": "IN",
    "website": "http://www.minksolutions.in/mink-cabs",
    "phone": "+919111199966",
    "phoneUnformatted": "+919111199966",
    "location": {
      "lat": 21.214883,
      "lng": 81.625347
    },
    "totalScore": 4.6,
    "permanentlyClosed": false,
    "temporarilyClosed": false,
    "placeId": "ChIJS0aq_0jcKDoRMJiCTRBYuXQ",
    "categories": [
      "Car rental agency",
      "Car leasing service",
      "Taxi service",
      "Tour agency",
      "Tour operator",
      "Travel agency"
    ],
    "reviewsCount": 75,
    "imagesCount": 6,
    "openingHours": [],
    "imageUrl": "https://media.indianluxurycars.com/google/6f71ac52a6b1674c0a4d6816fa8d46c8c813231891d0feaf4930759d649ed4d7.jpg",
    "url": "https://www.google.com/maps/search/?api=1&query=Mink%20Cabs&query_place_id=ChIJS0aq_0jcKDoRMJiCTRBYuXQ"
  },
  {
    "title": "Naina Travels",
    "subTitle": "नैना ट्रैवल्स",
    "categoryName": "Car rental agency",
    "address": "Shiv Complex, near Walter Line, Kapa, Mowa, Raipur, Chhattisgarh 492014, India",
    "neighborhood": "Kapa, Mowa",
    "street": "Shiv Complex, near Walter Line",
    "city": "Raipur",
    "postalCode": "492014",
    "state": "Chhattisgarh",
    "countryCode": "IN",
    "location": {
      "lat": 21.2644641,
      "lng": 81.6593484
    },
    "totalScore": 5,
    "permanentlyClosed": false,
    "temporarilyClosed": false,
    "placeId": "ChIJBQ-ISV7dKDoRk3G2AzINnyY",
    "categories": [
      "Car rental agency",
      "Car leasing service",
      "Taxi service"
    ],
    "reviewsCount": 10,
    "imagesCount": 2,
    "openingHours": [],
    "imageUrl": "https://media.indianluxurycars.com/google/50284bafede632c784bf6de2fc416f4becb5201fe9880c903a6780a27062a850.png",
    "url": "https://www.google.com/maps/search/?api=1&query=Naina%20Travels&query_place_id=ChIJBQ-ISV7dKDoRk3G2AzINnyY"
  },
  {
    "title": "Next Car",
    "subTitle": "नेक्स्ट कार",
    "categoryName": "Used car dealer",
    "address": "ring road no -1, Chowk, near indian oil petrol pump, Bhatagaon, Raipur, Chhattisgarh 492013, India",
    "neighborhood": "Bhatagaon",
    "street": "ring road no -1, Chowk, near indian oil petrol pump",
    "city": "Raipur",
    "postalCode": "492013",
    "state": "Chhattisgarh",
    "countryCode": "IN",
    "website": "https://youtu.be/eBBKiFmJ6cQ",
    "phone": "+917879655177",
    "phoneUnformatted": "+917879655177",
    "location": {
      "lat": 21.2187399,
      "lng": 81.6215053
    },
    "totalScore": 4.8,
    "permanentlyClosed": false,
    "temporarilyClosed": false,
    "placeId": "ChIJ8dj78srdKDoRDOFILwOjuRw",
    "categories": [
      "Used car dealer"
    ],
    "reviewsCount": 202,
    "imagesCount": 216,
    "openingHours": [
      {
        "day": "Monday",
        "hours": "10:30 AM to 7 PM"
      },
      {
        "day": "Tuesday",
        "hours": "10:30 AM to 7:30 PM"
      },
      {
        "day": "Wednesday",
        "hours": "10:30 AM to 7:30 PM"
      },
      {
        "day": "Thursday",
        "hours": "10:30 AM to 7 PM"
      },
      {
        "day": "Friday",
        "hours": "10:30 AM to 7:30 PM"
      },
      {
        "day": "Saturday",
        "hours": "10:30 AM to 7 PM"
      },
      {
        "day": "Sunday",
        "hours": "Closed"
      }
    ],
    "imageUrl": "https://media.indianluxurycars.com/google/ce53fffdb5096974f7527425b35634a558d70e4bf197d34f04a41eabb4596abf.jpg",
    "url": "https://www.google.com/maps/search/?api=1&query=Next%20Car&query_place_id=ChIJ8dj78srdKDoRDOFILwOjuRw"
  },
  {
    "title": "Nivo Motors",
    "subTitle": "नाइवो मोटर्स",
    "categoryName": "Used car dealer",
    "address": "beside Tabad Tod Biryani, Maitri Nagar, Sunder Nagar, Raipur, Chhattisgarh 492013, India",
    "neighborhood": "Maitri Nagar, Sunder Nagar",
    "street": "beside Tabad Tod Biryani",
    "city": "Raipur",
    "postalCode": "492013",
    "state": "Chhattisgarh",
    "countryCode": "IN",
    "website": "https://www.instagram.com/nivomotors/",
    "phone": "+917000859256",
    "phoneUnformatted": "+917000859256",
    "location": {
      "lat": 21.2321248,
      "lng": 81.6042104
    },
    "totalScore": 4.9,
    "permanentlyClosed": false,
    "temporarilyClosed": false,
    "placeId": "ChIJ8wT8ATvdKDoR0O0wlX27QGA",
    "categories": [
      "Used car dealer"
    ],
    "reviewsCount": 8,
    "imagesCount": 12,
    "openingHours": [
      {
        "day": "Monday",
        "hours": "10 AM to 8:30 PM"
      },
      {
        "day": "Tuesday",
        "hours": "10 AM to 8:30 PM"
      },
      {
        "day": "Wednesday",
        "hours": "10 AM to 8:30 PM"
      },
      {
        "day": "Thursday",
        "hours": "10 AM to 8:30 PM"
      },
      {
        "day": "Friday",
        "hours": "10 AM to 8:30 PM"
      },
      {
        "day": "Saturday",
        "hours": "10 AM to 8:30 PM"
      },
      {
        "day": "Sunday",
        "hours": "Closed"
      }
    ],
    "imageUrl": "https://media.indianluxurycars.com/google/0357cfe232c59d05dc32febcd386667bb61a7100ab37b14b99892e2553cc9cf3.jpg",
    "url": "https://www.google.com/maps/search/?api=1&query=Nivo%20Motors&query_place_id=ChIJ8wT8ATvdKDoR0O0wlX27QGA"
  },
  {
    "title": "Rahul Travels",
    "subTitle": "राहुल ट्रेवल्स",
    "categoryName": "Car rental agency",
    "address": "301 Shriii Hights, beside Kotak Mahindra Bank, Civil Lines, Raipur, Chhattisgarh 492001, India",
    "neighborhood": "Civil Lines",
    "street": "301 Shriii Hights, beside Kotak Mahindra Bank",
    "city": "Raipur",
    "postalCode": "492001",
    "state": "Chhattisgarh",
    "countryCode": "IN",
    "website": "https://www.rahultravels.com/oneway/Raipur%20Airport-to-Bilaspur/",
    "phone": "+919893411411",
    "phoneUnformatted": "+919893411411",
    "location": {
      "lat": 21.2420743,
      "lng": 81.648851
    },
    "totalScore": 4.4,
    "permanentlyClosed": false,
    "temporarilyClosed": false,
    "placeId": "ChIJsZX_F2XdKDoRylsOn3H6f7k",
    "categories": [
      "Car rental agency",
      "Car leasing service",
      "Taxi service"
    ],
    "reviewsCount": 12917,
    "imagesCount": 32,
    "openingHours": [],
    "imageUrl": "https://media.indianluxurycars.com/google/aaadf7ff38c43da9ee0c4cfb75ea58eb272d548609eb8b900c928d26db063aaf.jpg",
    "url": "https://www.google.com/maps/search/?api=1&query=Rahul%20Travels&query_place_id=ChIJsZX_F2XdKDoRylsOn3H6f7k"
  },
  {
    "title": "Rathore Tour & Travels",
    "subTitle": "राठौर टूर & ट्रैवल्स",
    "categoryName": "Car leasing service",
    "address": "Station Rd, Narmada Para, Balaji Nagar, Raipur, Chhattisgarh 492009, India",
    "neighborhood": "Narmada Para, Balaji Nagar",
    "street": "Station Rd",
    "city": "Raipur",
    "postalCode": "492009",
    "state": "Chhattisgarh",
    "countryCode": "IN",
    "website": "http://www.rathoretourtravels.in/",
    "phone": "+919893197484",
    "phoneUnformatted": "+919893197484",
    "location": {
      "lat": 21.2580347,
      "lng": 81.6331496
    },
    "totalScore": 4.8,
    "permanentlyClosed": false,
    "temporarilyClosed": false,
    "placeId": "ChIJO_aYxGfdKDoR0njX8ACMQJY",
    "categories": [
      "Car leasing service",
      "Airport shuttle service",
      "Bus tour agency",
      "Taxi service",
      "Sightseeing tour agency",
      "Tour agency",
      "Tour operator",
      "Transportation service",
      "Travel agency",
      "Travel clinic"
    ],
    "reviewsCount": 229,
    "imagesCount": 145,
    "openingHours": [],
    "imageUrl": "https://media.indianluxurycars.com/google/2732e7b3a9653ecbb47703e6bb12e7a15c1b0182e07555651eeea89761fc170a.png",
    "url": "https://www.google.com/maps/search/?api=1&query=Rathore%20Tour%20%26%20Travels&query_place_id=ChIJO_aYxGfdKDoR0njX8ACMQJY"
  },
  {
    "title": "RIDE RICH (self drive car rental)",
    "subTitle": "राइड रिच (सेल्फ ड्राइव कार रेंटल)",
    "categoryName": "Car leasing service",
    "address": "Office No.3049, 3rd Floor, Currency Tower, Telibandha, Raipur, Chhattisgarh 492001, India",
    "neighborhood": "Telibandha",
    "street": "Office No.3049, 3rd Floor, Currency Tower",
    "city": "Raipur",
    "postalCode": "492001",
    "state": "Chhattisgarh",
    "countryCode": "IN",
    "phone": "+919522809444",
    "phoneUnformatted": "+919522809444",
    "location": {
      "lat": 21.2387867,
      "lng": 81.6788653
    },
    "totalScore": 3.4,
    "permanentlyClosed": false,
    "temporarilyClosed": false,
    "placeId": "ChIJJQbq4nzDKDoR_F8V2dWkxlg",
    "categories": [
      "Car leasing service"
    ],
    "reviewsCount": 45,
    "imagesCount": 23,
    "openingHours": [
      {
        "day": "Monday",
        "hours": "10:30 AM to 10:30 PM"
      },
      {
        "day": "Tuesday",
        "hours": "10:30 AM to 10:30 PM"
      },
      {
        "day": "Wednesday",
        "hours": "10:30 AM to 10:30 PM"
      },
      {
        "day": "Thursday",
        "hours": "10:30 AM to 10:30 PM"
      },
      {
        "day": "Friday",
        "hours": "10:30 AM to 10:30 PM"
      },
      {
        "day": "Saturday",
        "hours": "10:30 AM to 10:30 PM"
      },
      {
        "day": "Sunday",
        "hours": "10:30 AM to 10:30 PM"
      }
    ],
    "imageUrl": "https://media.indianluxurycars.com/google/19fdeecca4ad569461570beadd2c42f85d8d7d414062ab9ca5ff5485bf443098.jpg",
    "url": "https://www.google.com/maps/search/?api=1&query=RIDE%20RICH%20(self%20drive%20car%20rental)&query_place_id=ChIJJQbq4nzDKDoR_F8V2dWkxlg"
  },
  {
    "title": "Ritesh Car Rental Tour and Travels",
    "subTitle": "रितेश कार रेंटल टूर एंड ट्रैवल्स",
    "categoryName": "Car rental agency",
    "address": "328, गुढियारी, रोड, Mahesh Colony, गुढीयारी, Shrinagar, Raipur, Chhattisgarh 492009, India",
    "neighborhood": "Mahesh Colony, गुढीयारी, Shrinagar",
    "street": "328, गुढियारी, रोड",
    "city": "Raipur",
    "postalCode": "492009",
    "state": "Chhattisgarh",
    "countryCode": "IN",
    "website": "http://www.riteshcarrent.com/",
    "phone": "+919165100690",
    "phoneUnformatted": "+919165100690",
    "location": {
      "lat": 21.2617033,
      "lng": 81.6321759
    },
    "totalScore": 5,
    "permanentlyClosed": false,
    "temporarilyClosed": false,
    "placeId": "ChIJzYJT0hnnKDoRY4aZmrVRI0w",
    "categories": [
      "Car rental agency"
    ],
    "reviewsCount": 5,
    "imagesCount": 6,
    "openingHours": [
      {
        "day": "Monday",
        "hours": "Open 24 hours"
      },
      {
        "day": "Tuesday",
        "hours": "Open 24 hours"
      },
      {
        "day": "Wednesday",
        "hours": "Open 24 hours"
      },
      {
        "day": "Thursday",
        "hours": "Open 24 hours"
      },
      {
        "day": "Friday",
        "hours": "Open 24 hours"
      },
      {
        "day": "Saturday",
        "hours": "Open 24 hours"
      },
      {
        "day": "Sunday",
        "hours": "Open 24 hours"
      }
    ],
    "imageUrl": "https://media.indianluxurycars.com/google/f2a969f61b92a679b66d20c8bacd3d241bb2c4a00dba0aad72394f974a22262d.jpg",
    "url": "https://www.google.com/maps/search/?api=1&query=Ritesh%20Car%20Rental%20Tour%20and%20Travels&query_place_id=ChIJzYJT0hnnKDoRY4aZmrVRI0w"
  },
  {
    "title": "S. N Motors - Second Hand Car Dealer In Raipur , Car Dealer In Raipur , Second Hand Cars In Raipur",
    "subTitle": "एस.एन. मोटर्स",
    "categoryName": "Car dealer",
    "address": "Ravi Shankar University Gate, Amanaka, Raipur, Chhattisgarh 492010, India",
    "neighborhood": "Amanaka",
    "street": "Ravi Shankar University Gate",
    "city": "Raipur",
    "postalCode": "492010",
    "state": "Chhattisgarh",
    "countryCode": "IN",
    "phone": "+919691111116",
    "phoneUnformatted": "+919691111116",
    "location": {
      "lat": 21.2521233,
      "lng": 81.5985545
    },
    "totalScore": 4,
    "permanentlyClosed": false,
    "temporarilyClosed": false,
    "placeId": "ChIJkXYUKZXdKDoR44HDshPgqqw",
    "categories": [
      "Car dealer"
    ],
    "reviewsCount": 7,
    "imagesCount": 24,
    "openingHours": [
      {
        "day": "Monday",
        "hours": "10:30 AM to 9 PM"
      },
      {
        "day": "Tuesday",
        "hours": "10:30 AM to 9 PM"
      },
      {
        "day": "Wednesday",
        "hours": "10:30 AM to 9 PM"
      },
      {
        "day": "Thursday",
        "hours": "10:30 AM to 9 PM"
      },
      {
        "day": "Friday",
        "hours": "10:30 AM to 9 PM"
      },
      {
        "day": "Saturday",
        "hours": "10:30 AM to 9 PM"
      },
      {
        "day": "Sunday",
        "hours": "Closed"
      }
    ],
    "imageUrl": "https://media.indianluxurycars.com/google/70c11d3b10691de15ff00c820088af32a14222b10f38fed536a7f881c0c9ff90.jpg",
    "url": "https://www.google.com/maps/search/?api=1&query=S.%20N%20Motors%20-%20Second%20Hand%20Car%20Dealer%20In%20Raipur%20%2C%20Car%20Dealer%20In%20Raipur%20%2C%20Second%20Hand%20Cars%20In%20Raipur&query_place_id=ChIJkXYUKZXdKDoR44HDshPgqqw"
  },
  {
    "title": "Trippy cars - Self Drive Car Rental in Raipur",
    "subTitle": "ट्रिपी कार्स",
    "categoryName": "Car rental agency",
    "address": "Krishna Talkies Chowk, Samta Colony Main Rd, Nagar Nigam Colony, Amapara, Raipur, Chhattisgarh 492001, India",
    "neighborhood": "Nagar Nigam Colony, Amapara",
    "street": "Krishna Talkies Chowk, Samta Colony Main Rd",
    "city": "Raipur",
    "postalCode": "492001",
    "state": "Chhattisgarh",
    "countryCode": "IN",
    "website": "http://trippycar.com/",
    "phone": "+918882226226",
    "phoneUnformatted": "+918882226226",
    "location": {
      "lat": 21.2464201,
      "lng": 81.6245849
    },
    "totalScore": 4.1,
    "permanentlyClosed": false,
    "temporarilyClosed": false,
    "placeId": "ChIJx12He-ndKDoRycwCNjDjqwI",
    "categories": [
      "Car rental agency",
      "Car leasing service"
    ],
    "reviewsCount": 504,
    "imagesCount": 85,
    "openingHours": [
      {
        "day": "Monday",
        "hours": "9:30 AM to 9:30 PM"
      },
      {
        "day": "Tuesday",
        "hours": "9:30 AM to 9:30 PM"
      },
      {
        "day": "Wednesday",
        "hours": "9:30 AM to 9:30 PM"
      },
      {
        "day": "Thursday",
        "hours": "9:30 AM to 9:30 PM"
      },
      {
        "day": "Friday",
        "hours": "9:30 AM to 7:30 PM"
      },
      {
        "day": "Saturday",
        "hours": "9:30 AM to 7:30 PM"
      },
      {
        "day": "Sunday",
        "hours": "9:30 AM to 7:30 PM"
      }
    ],
    "imageUrl": "https://media.indianluxurycars.com/google/51a5f599ac25fdfc2088bc903151f4f1ab0f3f851768c9088bfe66b4f9713804.jpg",
    "url": "https://www.google.com/maps/search/?api=1&query=Trippy%20cars%20-%20Self%20Drive%20Car%20Rental%20in%20Raipur&query_place_id=ChIJx12He-ndKDoRycwCNjDjqwI"
  },
  {
    "title": "Vardhman Cars | Second Hand Car Dealer in Raipur | Best Use Car Dealer in Raipur | Pre-owned car | Used cars in Raipur",
    "subTitle": "वर्धमान कार्स | सेकंड हैंड कार डीलर इन रायपुर | बेस्ट उसे कार डीलर इन रायपुर | प्री-ओन्ड कार | यूज्ड कार्स इन रायपुर",
    "categoryName": "Car dealer",
    "address": "Ring Road No. 1, beside Sky Automobiles, near Walfort City, Bhatagaon, Raipur, Chhattisgarh 492013, India",
    "neighborhood": "Bhatagaon",
    "street": "Ring Road No. 1, beside Sky Automobiles, near Walfort City",
    "city": "Raipur",
    "postalCode": "492013",
    "state": "Chhattisgarh",
    "countryCode": "IN",
    "phone": "+919826391809",
    "phoneUnformatted": "+919826391809",
    "location": {
      "lat": 21.2201995,
      "lng": 81.6191619
    },
    "totalScore": 4,
    "permanentlyClosed": false,
    "temporarilyClosed": false,
    "placeId": "ChIJ-8QKN-TcKDoRPn-9fywViOw",
    "categories": [
      "Car dealer",
      "Used car dealer"
    ],
    "reviewsCount": 111,
    "imagesCount": 96,
    "openingHours": [
      {
        "day": "Monday",
        "hours": "10 AM to 8:30 PM"
      },
      {
        "day": "Tuesday",
        "hours": "10 AM to 8:30 PM"
      },
      {
        "day": "Wednesday",
        "hours": "10 AM to 8:30 PM"
      },
      {
        "day": "Thursday",
        "hours": "10 AM to 8:30 PM"
      },
      {
        "day": "Friday",
        "hours": "10 AM to 8:30 PM"
      },
      {
        "day": "Saturday",
        "hours": "10 AM to 8:30 PM"
      },
      {
        "day": "Sunday",
        "hours": "10 AM to 3 PM"
      }
    ],
    "imageUrl": "https://media.indianluxurycars.com/google/57d0d98338dc58ce059592376daee6b4cc7fbeb0457b3a4a622cfe798def406e.jpg",
    "url": "https://www.google.com/maps/search/?api=1&query=Vardhman%20Cars%20%7C%20Second%20Hand%20Car%20Dealer%20in%20Raipur%20%7C%20Best%20Use%20Car%20Dealer%20in%20Raipur%20%7C%20Pre-owned%20car%20%7C%20Used%20cars%20in%20Raipur&query_place_id=ChIJ-8QKN-TcKDoRPn-9fywViOw"
  },
  {
    "title": "VENKATESH CAR ACCESSORIES",
    "subTitle": "वेंकटेश कार एसेसरिज",
    "categoryName": "Car accessories store",
    "address": "Sindhi Bazar, Moudhapara, Raipur, Chhattisgarh 492001, India",
    "neighborhood": "Sindhi Bazar, Moudhapara",
    "city": "Raipur",
    "postalCode": "492001",
    "state": "Chhattisgarh",
    "countryCode": "IN",
    "phone": "+917714068500",
    "phoneUnformatted": "+917714068500",
    "location": {
      "lat": 21.2447428,
      "lng": 81.6346932
    },
    "totalScore": 4.1,
    "permanentlyClosed": false,
    "temporarilyClosed": false,
    "placeId": "ChIJ4zhJEP_dKDoRe3HxatN4dtM",
    "categories": [
      "Car accessories store"
    ],
    "reviewsCount": 465,
    "imagesCount": 78,
    "openingHours": [
      {
        "day": "Monday",
        "hours": "11 AM to 9 PM"
      },
      {
        "day": "Tuesday",
        "hours": "11 AM to 9 PM"
      },
      {
        "day": "Wednesday",
        "hours": "11 AM to 9 PM"
      },
      {
        "day": "Thursday",
        "hours": "11 AM to 9 PM"
      },
      {
        "day": "Friday",
        "hours": "11 AM to 9 PM"
      },
      {
        "day": "Saturday",
        "hours": "11 AM to 9 PM"
      },
      {
        "day": "Sunday",
        "hours": "Closed"
      }
    ],
    "imageUrl": "https://media.indianluxurycars.com/google/83674c023e4bfc53032333920f6b30f0012332b7d5dc2d85d5eb6e89f736cf64.jpg",
    "url": "https://www.google.com/maps/search/?api=1&query=VENKATESH%20CAR%20ACCESSORIES&query_place_id=ChIJ4zhJEP_dKDoRe3HxatN4dtM"
  },
  {
    "title": "VIBHUTI CAR RAIPUR | Used Car In Raipur",
    "subTitle": "विभूति कार",
    "categoryName": "Used car dealer",
    "address": "7M46+PHR, Main Rd, opp. arogya hospital, Shankar Nagar, Raipur, Chhattisgarh 492004, India",
    "neighborhood": "Shankar Nagar",
    "street": "7M46+PHR, Main Rd, opp. arogya hospital",
    "city": "Raipur",
    "postalCode": "492004",
    "state": "Chhattisgarh",
    "countryCode": "IN",
    "phone": "+919300377027",
    "phoneUnformatted": "+919300377027",
    "location": {
      "lat": 21.256861,
      "lng": 81.661384
    },
    "totalScore": 3.7,
    "permanentlyClosed": false,
    "temporarilyClosed": false,
    "placeId": "ChIJoyZNh2XdKDoRzou9MNjBAWE",
    "categories": [
      "Used car dealer",
      "Car dealer"
    ],
    "reviewsCount": 31,
    "imagesCount": 6,
    "openingHours": [
      {
        "day": "Monday",
        "hours": "9:30 AM to 8:30 PM"
      },
      {
        "day": "Tuesday",
        "hours": "9:30 AM to 8:30 PM"
      },
      {
        "day": "Wednesday",
        "hours": "9:30 AM to 8:30 PM"
      },
      {
        "day": "Thursday",
        "hours": "9:30 AM to 8:30 PM"
      },
      {
        "day": "Friday",
        "hours": "9:30 AM to 8:30 PM"
      },
      {
        "day": "Saturday",
        "hours": "9:30 AM to 8:30 PM"
      },
      {
        "day": "Sunday",
        "hours": "Closed"
      }
    ],
    "imageUrl": "https://media.indianluxurycars.com/google/35d7b7c7fad1a3527ad31af69b0fe2cffd2a4cbe0f52e3e59a322e12c329d8aa.jpg",
    "url": "https://www.google.com/maps/search/?api=1&query=VIBHUTI%20CAR%20RAIPUR%20%7C%20Used%20Car%20In%20Raipur&query_place_id=ChIJoyZNh2XdKDoRzou9MNjBAWE"
  }
]
