[
  {
    "title": "BHAVYA MOTORS INDIA (Pre-owned car) - Second Hand Cars in Raipur | Second Hand Car Dealer | Used cars in Raipur",
    "subTitle": "भव्य मोटर्स इंडिया (प्री-ओन्ड कार) - सेकंड हैंड कार्स इन रायपुर | सेकंड हैंड कार डीलर | यूज्ड कार्स इन रायपुर",
    "categoryName": "Used car dealer",
    "address": "colors mall, Pachpedi naka Besides, New Dhamtari Rd, Raipur, Chhattisgarh 492001, India",
    "neighborhood": "Amrapali Society, Gurumukh Singh Nagar",
    "street": "colors mall, Pachpedi naka Besides, New Dhamtari Rd",
    "city": "Raipur, Tikrapara",
    "postalCode": "492001",
    "state": "Chhattisgarh",
    "countryCode": "IN",
    "website": "https://www.facebook.com/bhavyamotorspreownedcars/",
    "phone": "+919111130022",
    "phoneUnformatted": "+919111130022",
    "location": {
      "lat": 21.2163647,
      "lng": 81.6566695
    },
    "totalScore": 4.5,
    "permanentlyClosed": false,
    "temporarilyClosed": false,
    "placeId": "ChIJZxIcDsbcKDoRAsNgVhOglgE",
    "categories": [
      "Used car dealer",
      "Car dealer"
    ],
    "reviewsCount": 443,
    "imagesCount": 283,
    "openingHours": [
      {
        "day": "Monday",
        "hours": "10 AM to 10 PM"
      },
      {
        "day": "Tuesday",
        "hours": "10 AM to 10 PM"
      },
      {
        "day": "Wednesday",
        "hours": "10 AM to 10 PM"
      },
      {
        "day": "Thursday",
        "hours": "10 AM to 10 PM"
      },
      {
        "day": "Friday",
        "hours": "10 AM to 10 PM"
      },
      {
        "day": "Saturday",
        "hours": "10 AM to 10 PM"
      },
      {
        "day": "Sunday",
        "hours": "10 AM to 10 PM"
      }
    ],
    "imageUrl": "https://media.indianluxurycars.com/google/73b4646350a404dddf0acf040867d03c609f1a0a48fa27859fedc6a82ebf9107.jpg",
    "url": "https://www.google.com/maps/search/?api=1&query=BHAVYA%20MOTORS%20INDIA%20(Pre-owned%20car)%20-%20Second%20Hand%20Cars%20in%20Raipur%20%7C%20Second%20Hand%20Car%20Dealer%20%7C%20Used%20cars%20in%20Raipur&query_place_id=ChIJZxIcDsbcKDoRAsNgVhOglgE"
  },
  {
    "title": "Car Exotica Raipur|Best used car Dealer",
    "subTitle": "कार एक्सोटिका रायपुर|बेस्ट यूज्ड कार डीलर",
    "categoryName": "Used car dealer",
    "address": "taru Singh Chowk, opposite to Khusi wedding Mall, Shyam Nagar, Raipur, Tikrapara, Chhattisgarh 492001, India",
    "neighborhood": "Shyam Nagar",
    "street": "taru Singh Chowk, opposite to Khusi wedding Mall",
    "city": "Raipur, Tikrapara",
    "postalCode": "492001",
    "state": "Chhattisgarh",
    "countryCode": "IN",
    "phone": "+919418512222",
    "phoneUnformatted": "+919418512222",
    "location": {
      "lat": 21.2314555,
      "lng": 81.6577056
    },
    "totalScore": 4.4,
    "permanentlyClosed": false,
    "temporarilyClosed": false,
    "placeId": "ChIJ3YZ4jrvdKDoRH1CqvJ9fAAY",
    "categories": [
      "Used car dealer"
    ],
    "reviewsCount": 7,
    "imagesCount": 56,
    "openingHours": [
      {
        "day": "Monday",
        "hours": "10 AM to 8 PM"
      },
      {
        "day": "Tuesday",
        "hours": "10 AM to 8 PM"
      },
      {
        "day": "Wednesday",
        "hours": "10 AM to 8 PM"
      },
      {
        "day": "Thursday",
        "hours": "10 AM to 8 PM"
      },
      {
        "day": "Friday",
        "hours": "10 AM to 8 PM"
      },
      {
        "day": "Saturday",
        "hours": "10 AM to 8 PM"
      },
      {
        "day": "Sunday",
        "hours": "10 AM to 8 PM"
      }
    ],
    "imageUrl": "https://media.indianluxurycars.com/google/a9dd98cd5433a47e21ff19d7ea0238b168b288328e449d3d2aa76fcc0fdbdbb1.jpg",
    "url": "https://www.google.com/maps/search/?api=1&query=Car%20Exotica%20Raipur%7CBest%20used%20car%20Dealer&query_place_id=ChIJ3YZ4jrvdKDoRH1CqvJ9fAAY"
  },
  {
    "title": "Car rental service in raipur",
    "subTitle": "कार रेंटल सर्विस इन रायपुर",
    "categoryName": "Car rental agency",
    "address": "Shreeji kalptaru Colony, Amlihdih, Mahaveer Nagar, Raipur, Tikrapara, Chhattisgarh 492001, India",
    "neighborhood": "Shreeji kalptaru Colony, Amlihdih, Mahaveer Nagar",
    "city": "Raipur, Tikrapara",
    "postalCode": "492001",
    "state": "Chhattisgarh",
    "countryCode": "IN",
    "phone": "+917771999373",
    "phoneUnformatted": "+917771999373",
    "location": {
      "lat": 21.2219544,
      "lng": 81.6722919
    },
    "totalScore": 5,
    "permanentlyClosed": false,
    "temporarilyClosed": false,
    "placeId": "ChIJzYg_lR3dKDoRVPuHQ6a__Lo",
    "categories": [
      "Car rental agency"
    ],
    "reviewsCount": 16,
    "imagesCount": 18,
    "openingHours": [
      {
        "day": "Monday",
        "hours": "Open 24 hours"
      },
      {
        "day": "Tuesday",
        "hours": "Open 24 hours"
      },
      {
        "day": "Wednesday",
        "hours": "Open 24 hours"
      },
      {
        "day": "Thursday",
        "hours": "Open 24 hours"
      },
      {
        "day": "Friday",
        "hours": "Open 24 hours"
      },
      {
        "day": "Saturday",
        "hours": "Open 24 hours"
      },
      {
        "day": "Sunday",
        "hours": "Open 24 hours"
      }
    ],
    "imageUrl": "https://media.indianluxurycars.com/google/e8535d64e1cde330aeee238ee898daeb51a70184b2ceee13a099987e7dd13853.jpg",
    "url": "https://www.google.com/maps/search/?api=1&query=Car%20rental%20service%20in%20raipur&query_place_id=ChIJzYg_lR3dKDoRVPuHQ6a__Lo"
  },
  {
    "title": "JAGDAMBA TOURS & CARS RENTAL",
    "subTitle": "जगदंबा टूर्स & कार्स रेंटल",
    "categoryName": "Car rental agency",
    "address": "Shop No- 331, 3rd Floor, Progressive Point, near Fruit Mandi, RishabhNagar and Pawan Vihar Colony, Lalpur, Raipur, Tikrapara, Chhattisgarh 492015, India",
    "neighborhood": "RishabhNagar and Pawan Vihar Colony, Lalpur",
    "street": "Shop No- 331, 3rd Floor, Progressive Point, near Fruit Mandi",
    "city": "Raipur, Tikrapara",
    "postalCode": "492015",
    "state": "Chhattisgarh",
    "countryCode": "IN",
    "location": {
      "lat": 21.212755,
      "lng": 81.6633358
    },
    "permanentlyClosed": false,
    "temporarilyClosed": false,
    "placeId": "ChIJbfcUOIbdKDoRdlIbQgtSj6s",
    "categories": [
      "Car rental agency",
      "Car leasing service",
      "Tour agency",
      "Tour operator"
    ],
    "imagesCount": 6,
    "openingHours": [
      {
        "day": "Monday",
        "hours": "10:30 AM to 8 PM"
      },
      {
        "day": "Tuesday",
        "hours": "10:30 AM to 8 PM"
      },
      {
        "day": "Wednesday",
        "hours": "10:30 AM to 8 PM"
      },
      {
        "day": "Thursday",
        "hours": "10:30 AM to 8 PM"
      },
      {
        "day": "Friday",
        "hours": "10:30 AM to 8 PM"
      },
      {
        "day": "Saturday",
        "hours": "10:30 AM to 8 PM"
      },
      {
        "day": "Sunday",
        "hours": "10:30 AM to 8 PM"
      }
    ],
    "imageUrl": "https://media.indianluxurycars.com/google/fcf09835f60b4bf518c71f01bf16ff2c48bc58741bc99f6d98fc916388bc41ef.jpg",
    "url": "https://www.google.com/maps/search/?api=1&query=JAGDAMBA%20TOURS%20%26%20CARS%20RENTAL&query_place_id=ChIJbfcUOIbdKDoRdlIbQgtSj6s"
  },
  {
    "title": "Just Drive (Self Driven Cars and Cars on rent)",
    "subTitle": "जस्ट ड्राइव (सेल्फ ड्रिवन कार्स एंड कार्स ऑन रेंट)",
    "categoryName": "Car rental agency",
    "address": "Pachpedi Naka, Raipur, Tikrapara, Chhattisgarh 492001, India",
    "neighborhood": "Pachpedi Naka",
    "city": "Raipur, Tikrapara",
    "postalCode": "492001",
    "state": "Chhattisgarh",
    "countryCode": "IN",
    "phone": "+917771099111",
    "phoneUnformatted": "+917771099111",
    "location": {
      "lat": 21.2155213,
      "lng": 81.6545829
    },
    "totalScore": 5,
    "permanentlyClosed": false,
    "temporarilyClosed": false,
    "placeId": "ChIJ-ZxpUyzdKDoRhM8zixTlxlE",
    "categories": [
      "Car rental agency",
      "Car leasing service"
    ],
    "reviewsCount": 166,
    "imagesCount": 206,
    "openingHours": [
      {
        "day": "Monday",
        "hours": "Open 24 hours"
      },
      {
        "day": "Tuesday",
        "hours": "Open 24 hours"
      },
      {
        "day": "Wednesday",
        "hours": "Open 24 hours"
      },
      {
        "day": "Thursday",
        "hours": "Open 24 hours"
      },
      {
        "day": "Friday",
        "hours": "Open 24 hours"
      },
      {
        "day": "Saturday",
        "hours": "Open 24 hours"
      },
      {
        "day": "Sunday",
        "hours": "Open 24 hours"
      }
    ],
    "imageUrl": "https://media.indianluxurycars.com/google/b1ef889731cefa3047e7c064a919903deb792db3b0c6db195cd5c31400f15bda.jpg",
    "url": "https://www.google.com/maps/search/?api=1&query=Just%20Drive%20(Self%20Driven%20Cars%20and%20Cars%20on%20rent)&query_place_id=ChIJ-ZxpUyzdKDoRhM8zixTlxlE"
  },
  {
    "title": "Mahadeva Automobiles",
    "subTitle": "महादेवा ऑटोमोबिल्स",
    "categoryName": "Used car dealer",
    "address": "New dhamtari road, NH 30, near ramkrishna care hospital, Raipur, Chhattisgarh 492001, India",
    "neighborhood": "Pachpedi Naka",
    "street": "New dhamtari road, NH 30, near ramkrishna care hospital",
    "city": "Raipur, Tikrapara",
    "postalCode": "492001",
    "state": "Chhattisgarh",
    "countryCode": "IN",
    "website": "https://instagram.com/mahadevaautomobiles?igshid=18axzszec6sqv",
    "phone": "+918120380000",
    "phoneUnformatted": "+918120380000",
    "location": {
      "lat": 21.2170955,
      "lng": 81.6543624
    },
    "totalScore": 5,
    "permanentlyClosed": false,
    "temporarilyClosed": false,
    "placeId": "ChIJZeQiX9rdKDoRh2KX-n5RfEM",
    "categories": [
      "Used car dealer"
    ],
    "reviewsCount": 11,
    "imagesCount": 13,
    "openingHours": [],
    "imageUrl": "https://media.indianluxurycars.com/google/9071242eb09c06145220adf339764ab82d001f5b399b768bce20770f76a14f7e.jpg",
    "url": "https://www.google.com/maps/search/?api=1&query=Mahadeva%20Automobiles&query_place_id=ChIJZeQiX9rdKDoRh2KX-n5RfEM"
  },
  {
    "title": "Maruti Suzuki ARENA (Sparsh Automobiles, Raipur, Dhamtari Road)",
    "subTitle": "मारुति सुजुकी एरेना (स्पर्श ऑटोमोबाइल्स, रायपुर, धमतरी रोड)",
    "categoryName": "Car dealer",
    "address": "Sparsh Automobiles, Dhamtari Rd, near colors mall, Amrapali Society, Pachpedi Naka, Raipur, Tikrapara, Chhattisgarh 492001, India",
    "neighborhood": "Amrapali Society, Pachpedi Naka",
    "street": "Sparsh Automobiles, Dhamtari Rd, near colors mall",
    "city": "Raipur, Tikrapara",
    "postalCode": "492001",
    "state": "Chhattisgarh",
    "countryCode": "IN",
    "website": "http://arenaofdhamtariroad.com/?utm_source=gmb&utm_medium=google",
    "phone": "+918062514285",
    "phoneUnformatted": "+918062514285",
    "location": {
      "lat": 21.2170561,
      "lng": 81.6552764
    },
    "totalScore": 3.9,
    "permanentlyClosed": false,
    "temporarilyClosed": false,
    "placeId": "ChIJn3Gjx5PdKDoRshwrE1KsShE",
    "categories": [
      "Car dealer"
    ],
    "reviewsCount": 1091,
    "imagesCount": 301,
    "openingHours": [
      {
        "day": "Monday",
        "hours": "10 AM to 7 PM"
      },
      {
        "day": "Tuesday",
        "hours": "10 AM to 7 PM"
      },
      {
        "day": "Wednesday",
        "hours": "10 AM to 7 PM"
      },
      {
        "day": "Thursday",
        "hours": "10 AM to 7 PM"
      },
      {
        "day": "Friday",
        "hours": "10 AM to 7 PM"
      },
      {
        "day": "Saturday",
        "hours": "10 AM to 7 PM"
      },
      {
        "day": "Sunday",
        "hours": "10 AM to 7 PM"
      }
    ],
    "imageUrl": "https://media.indianluxurycars.com/google/7cb85df9fa089164ce43b7c2bd51f0b156cc8dd20533643a94c3ec387ec62f4a.jpg",
    "url": "https://www.google.com/maps/search/?api=1&query=Maruti%20Suzuki%20ARENA%20(Sparsh%20Automobiles%2C%20Raipur%2C%20Dhamtari%20Road)&query_place_id=ChIJn3Gjx5PdKDoRshwrE1KsShE"
  },
  {
    "title": "RAGHUWANSH CAR RENTALS, SELF DRIVE CARS AND TRANSPORT",
    "subTitle": "रघुवंश कार रेंटल्स, सेल्फ ड्राइव कार्स एंड ट्रांसपोर्ट",
    "categoryName": "Car rental agency",
    "address": "512, New Rajendra Nagar, Raipur, Tikrapara, Chhattisgarh 492001, India",
    "neighborhood": "New Rajendra Nagar",
    "street": "512",
    "city": "Raipur, Tikrapara",
    "postalCode": "492001",
    "state": "Chhattisgarh",
    "countryCode": "IN",
    "website": "https://www.instagram.com/raghuwanshcarrentals?igsh=dGN3aHhtbDYxbGo2",
    "location": {
      "lat": 21.2248612,
      "lng": 81.6638107
    },
    "totalScore": 5,
    "permanentlyClosed": false,
    "temporarilyClosed": false,
    "placeId": "ChIJs9zSpiDdKDoRcHabQpWqjwg",
    "categories": [
      "Car rental agency"
    ],
    "reviewsCount": 74,
    "imagesCount": 33,
    "openingHours": [
      {
        "day": "Monday",
        "hours": "Open 24 hours"
      },
      {
        "day": "Tuesday",
        "hours": "Open 24 hours"
      },
      {
        "day": "Wednesday",
        "hours": "Open 24 hours"
      },
      {
        "day": "Thursday",
        "hours": "Open 24 hours"
      },
      {
        "day": "Friday",
        "hours": "Open 24 hours"
      },
      {
        "day": "Saturday",
        "hours": "Open 24 hours"
      },
      {
        "day": "Sunday",
        "hours": "Open 24 hours"
      }
    ],
    "imageUrl": "https://media.indianluxurycars.com/google/65421a845190cf0c4ffc97c6cbfae9f647226cedda2ccd83ef2a4185035587ee.jpg",
    "url": "https://www.google.com/maps/search/?api=1&query=RAGHUWANSH%20CAR%20RENTALS%2C%20SELF%20DRIVE%20CARS%20AND%20TRANSPORT&query_place_id=ChIJs9zSpiDdKDoRcHabQpWqjwg"
  },
  {
    "title": "Rent N Drive",
    "subTitle": "रेंट एन् ड्राइव",
    "categoryName": "Car rental agency",
    "address": "Canal Rd, New Purena, Amlihdih, Mahaveer Nagar, Raipur, Tikrapara, Chhattisgarh 492001, India",
    "neighborhood": "New Purena, Amlihdih, Mahaveer Nagar",
    "street": "Canal Rd",
    "city": "Raipur, Tikrapara",
    "postalCode": "492001",
    "state": "Chhattisgarh",
    "countryCode": "IN",
    "website": "https://www.instagram.com/raipur.selfdrive.cars?igsh=MXZjbDBjbXhhcmFodw==",
    "location": {
      "lat": 21.2241315,
      "lng": 81.665454
    },
    "permanentlyClosed": false,
    "temporarilyClosed": false,
    "placeId": "ChIJdclhnoLdKDoR90DzQh6dAqw",
    "categories": [
      "Car rental agency"
    ],
    "imagesCount": 1,
    "openingHours": [
      {
        "day": "Monday",
        "hours": "Open 24 hours"
      },
      {
        "day": "Tuesday",
        "hours": "Open 24 hours"
      },
      {
        "day": "Wednesday",
        "hours": "Open 24 hours"
      },
      {
        "day": "Thursday",
        "hours": "Open 24 hours"
      },
      {
        "day": "Friday",
        "hours": "Open 24 hours"
      },
      {
        "day": "Saturday",
        "hours": "Open 24 hours"
      },
      {
        "day": "Sunday",
        "hours": "Open 24 hours"
      }
    ],
    "imageUrl": "https://media.indianluxurycars.com/google/376de8b730952c5198c1ec676877966e787bea8ce3dfa6a7f1f160c9b744fe0e.jpg",
    "url": "https://www.google.com/maps/search/?api=1&query=Rent%20N%20Drive&query_place_id=ChIJdclhnoLdKDoR90DzQh6dAqw"
  },
  {
    "title": "Satguru Travels and Taxi Services",
    "subTitle": "सत्गुरु ट्रैवल्स एंड टैक्सी सर्विसेस",
    "categoryName": "Car rental agency",
    "address": "Unnamed Road, Gabhrapara, RishabhNagar and Pawan Vihar Colony, New Rajendra Nagar, Raipur, Chhattisgarh 492001, India",
    "neighborhood": "Gabhrapara, RishabhNagar and Pawan Vihar Colony, New Rajendra Nagar",
    "street": "Unnamed Road",
    "city": "Raipur, Tikrapara",
    "postalCode": "492001",
    "state": "Chhattisgarh",
    "countryCode": "IN",
    "location": {
      "lat": 21.2152553,
      "lng": 81.6661878
    },
    "totalScore": 4.8,
    "permanentlyClosed": false,
    "temporarilyClosed": false,
    "placeId": "ChIJP_6X3y3dKDoRtmqksOZPo8M",
    "categories": [
      "Car rental agency"
    ],
    "reviewsCount": 37,
    "imagesCount": 40,
    "openingHours": [
      {
        "day": "Monday",
        "hours": "Open 24 hours"
      },
      {
        "day": "Tuesday",
        "hours": "Open 24 hours"
      },
      {
        "day": "Wednesday",
        "hours": "Open 24 hours"
      },
      {
        "day": "Thursday",
        "hours": "Open 24 hours"
      },
      {
        "day": "Friday",
        "hours": "Open 24 hours"
      },
      {
        "day": "Saturday",
        "hours": "Open 24 hours"
      },
      {
        "day": "Sunday",
        "hours": "Open 24 hours"
      }
    ],
    "imageUrl": "https://media.indianluxurycars.com/google/089f1572996fefe4135dc8353326e5915af3f5e69c572ec22eb59ef6b104fcc9.jpg",
    "url": "https://www.google.com/maps/search/?api=1&query=Satguru%20Travels%20and%20Taxi%20Services&query_place_id=ChIJP_6X3y3dKDoRtmqksOZPo8M"
  },
  {
    "title": "VANYA TOUR & TRAVELS",
    "subTitle": "वन्य टूर & ट्रैवल्स",
    "categoryName": "Car rental agency",
    "address": "near Shri Sai Saubhagya Dham Sewa Samiti, New Purena, Mahaveer Nagar, Raipur, Tikrapara, Chhattisgarh 492001, India",
    "neighborhood": "New Purena, Mahaveer Nagar",
    "street": "near Shri Sai Saubhagya Dham Sewa Samiti",
    "city": "Raipur, Tikrapara",
    "postalCode": "492001",
    "state": "Chhattisgarh",
    "countryCode": "IN",
    "phone": "+918109330056",
    "phoneUnformatted": "+918109330056",
    "location": {
      "lat": 21.2273307,
      "lng": 81.6638236
    },
    "totalScore": 4.9,
    "permanentlyClosed": false,
    "temporarilyClosed": false,
    "placeId": "ChIJjVKkrRndKDoR8zR14kdmIMo",
    "categories": [
      "Car rental agency"
    ],
    "reviewsCount": 118,
    "imagesCount": 44,
    "openingHours": [
      {
        "day": "Monday",
        "hours": "8 AM to 10 PM"
      },
      {
        "day": "Tuesday",
        "hours": "8 AM to 10 PM"
      },
      {
        "day": "Wednesday",
        "hours": "8 AM to 10 PM"
      },
      {
        "day": "Thursday",
        "hours": "8 AM to 10 PM"
      },
      {
        "day": "Friday",
        "hours": "8 AM to 10 PM"
      },
      {
        "day": "Saturday",
        "hours": "8 AM to 10 PM"
      },
      {
        "day": "Sunday",
        "hours": "8 AM to 10 PM"
      }
    ],
    "imageUrl": "https://media.indianluxurycars.com/google/4bf8f37449aceb396a296346bdd7dc258104390e76ec7db00c16166e9e5a6c75.jpg",
    "url": "https://www.google.com/maps/search/?api=1&query=VANYA%20TOUR%20%26%20TRAVELS&query_place_id=ChIJjVKkrRndKDoR8zR14kdmIMo"
  }
]
