[
  {
    "title": "ADLER TOURS & SAFARIS PVT LTD",
    "subTitle": "‡™è‡™°‡™≤‡™∞ ‡™ü‡´Å‡™∞‡´ç‡™∏ & ‡™∏‡™´‡™æ‡™∞‡´Ä‡™∏",
    "categoryName": "Car rental agency",
    "address": "13, Mangla Main Rd, Kalyan Society, Manhar Plot, Bhakti Nagar, Rajkot, Gujarat 360002, India",
    "neighborhood": "Kalyan Society, Manhar Plot, Bhakti Nagar",
    "street": "13, Mangla Main Rd",
    "city": "Rajkot",
    "postalCode": "360002",
    "state": "Gujarat",
    "countryCode": "IN",
    "website": "http://www.adler-tours.com/",
    "phone": "+912812465237",
    "phoneUnformatted": "+912812465237",
    "location": {
      "lat": 22.2864786,
      "lng": 70.7943754
    },
    "totalScore": 4.9,
    "permanentlyClosed": false,
    "temporarilyClosed": false,
    "placeId": "ChIJywEAEBHKWTkRT_oazSH2zJ0",
    "categories": [
      "Car rental agency",
      "Airline ticket agency",
      "Car leasing service",
      "Travel agency",
      "Passport agent",
      "Road cycling",
      "Taxi service",
      "Tour operator",
      "Visa consulting service"
    ],
    "reviewsCount": 59,
    "imagesCount": 245,
    "openingHours": [
      {
        "day": "Monday",
        "hours": "9:30‚ÄØAM to 9‚ÄØPM"
      },
      {
        "day": "Tuesday",
        "hours": "9:30‚ÄØAM to 9‚ÄØPM"
      },
      {
        "day": "Wednesday",
        "hours": "9:30‚ÄØAM to 9‚ÄØPM"
      },
      {
        "day": "Thursday",
        "hours": "9:30‚ÄØAM to 9‚ÄØPM"
      },
      {
        "day": "Friday",
        "hours": "9:30‚ÄØAM to 9‚ÄØPM"
      },
      {
        "day": "Saturday",
        "hours": "9:30‚ÄØAM to 9‚ÄØPM"
      },
      {
        "day": "Sunday",
        "hours": "9‚ÄØAM to 2‚ÄØPM"
      }
    ],
    "imageUrl": "https://media.indianluxurycars.com/google/e8126b5545bb52d05119a43dbebad15c9200c081e5c8d31886466635718f2f13.jpg",
    "url": "https://www.google.com/maps/search/?api=1&query=ADLER%20TOURS%20%26%20SAFARIS%20PVT%20LTD&query_place_id=ChIJywEAEBHKWTkRT_oazSH2zJ0"
  },
  {
    "title": "Audi Rajkot Sales & Services",
    "categoryName": "Audi dealer",
    "address": "Kuvadva, Rajkot - Morbi Hwy, near Patel Vihar Garden Restaurant, Anandpar, Rajkot, Gujarat 360003, India",
    "neighborhood": "Anandpar",
    "street": "Kuvadva, Rajkot - Morbi Hwy, near Patel Vihar Garden Restaurant",
    "city": "Rajkot",
    "postalCode": "360003",
    "state": "Gujarat",
    "countryCode": "IN",
    "website": "https://dealers.myaudi.in/audi-rajkot-sales-services-audi-dealer-anandpar-rajkot-122030/Home",
    "phone": "+917878788137",
    "phoneUnformatted": "+917878788137",
    "location": {
      "lat": 22.3211257,
      "lng": 70.8439286
    },
    "totalScore": 4.4,
    "permanentlyClosed": false,
    "temporarilyClosed": false,
    "placeId": "ChIJT4jDmW-2WTkRdOMsMoIBMTw",
    "categories": [
      "Audi dealer",
      "Auto dent removal service",
      "Auto repair shop",
      "Car accessories store",
      "Car dealer"
    ],
    "reviewsCount": 479,
    "imagesCount": 245,
    "openingHours": [
      {
        "day": "Monday",
        "hours": "10‚ÄØAM to 7‚ÄØPM"
      },
      {
        "day": "Tuesday",
        "hours": "10‚ÄØAM to 7‚ÄØPM"
      },
      {
        "day": "Wednesday",
        "hours": "10‚ÄØAM to 7‚ÄØPM"
      },
      {
        "day": "Thursday",
        "hours": "10‚ÄØAM to 7‚ÄØPM"
      },
      {
        "day": "Friday",
        "hours": "10‚ÄØAM to 7‚ÄØPM"
      },
      {
        "day": "Saturday",
        "hours": "10‚ÄØAM to 7‚ÄØPM"
      },
      {
        "day": "Sunday",
        "hours": "11‚ÄØAM to 5‚ÄØPM"
      }
    ],
    "imageUrl": "https://media.indianluxurycars.com/google/5fbd89e01570ea03c94322be9345761099152cfdc7a7733b249942921f25e84c.jpg",
    "url": "https://www.google.com/maps/search/?api=1&query=Audi%20Rajkot%20Sales%20%26%20Services&query_place_id=ChIJT4jDmW-2WTkRdOMsMoIBMTw"
  },
  {
    "title": "bhadetaxi",
    "subTitle": "‡™≠‡™æ‡™¶‡´á‡™§‡™æ‡™ï‡´ç‡™∑‡´Ä",
    "categoryName": "Car rental agency",
    "address": "infinity building fourth floor office, 404, 150 Feet Ring Rd, Rajkot, Gujarat 360006, India",
    "neighborhood": "Vasundhara Omkar Society, Manharpura 1, Madhapar",
    "street": "infinity building fourth floor office, 404, 150 Feet Ring Rd",
    "city": "Rajkot",
    "postalCode": "360006",
    "state": "Gujarat",
    "countryCode": "IN",
    "website": "https://bhadetaxi.com/",
    "phone": "+919898702270",
    "phoneUnformatted": "+919898702270",
    "location": {
      "lat": 22.3237531,
      "lng": 70.767666
    },
    "totalScore": 5,
    "permanentlyClosed": false,
    "temporarilyClosed": false,
    "placeId": "ChIJAQDAyqHJWTkRWoYe5Z6pJQ8",
    "categories": [
      "Car rental agency",
      "Taxi service"
    ],
    "reviewsCount": 7,
    "imagesCount": 4,
    "openingHours": [],
    "imageUrl": "https://media.indianluxurycars.com/google/0d9c72b4c7b3689f04f11649e608937e2c0d9616df00ae7dffc945d0c61aad8c.jpg",
    "url": "https://www.google.com/maps/search/?api=1&query=bhadetaxi&query_place_id=ChIJAQDAyqHJWTkRWoYe5Z6pJQ8"
  },
  {
    "title": "Car rental in rajkot (Comfort Trip)",
    "subTitle": "‡™∞‡™æ‡™ú‡™ï‡´ã‡™ü ‡™ï‡™æ‡™∞ ‡™≠‡™æ‡™°‡™æ",
    "categoryName": "Car rental agency",
    "address": "Street No. 1, Shyam Nagar, Bharti Nagar, Gandhigram, Rajkot, Gujarat 360007, India",
    "neighborhood": "Shyam Nagar, Bharti Nagar, Gandhigram",
    "street": "Street No. 1",
    "city": "Rajkot",
    "postalCode": "360007",
    "state": "Gujarat",
    "countryCode": "IN",
    "website": "https://thecomforttrip.com/",
    "phone": "+919974833330",
    "phoneUnformatted": "+919974833330",
    "location": {
      "lat": 22.3114039,
      "lng": 70.7707087
    },
    "totalScore": 4.6,
    "permanentlyClosed": false,
    "temporarilyClosed": false,
    "placeId": "ChIJx2Xdk5vJWTkRjC6yGQnP9QM",
    "categories": [
      "Car rental agency",
      "Taxi service"
    ],
    "reviewsCount": 80,
    "imagesCount": 168,
    "openingHours": [],
    "imageUrl": "https://media.indianluxurycars.com/google/087be5c159586e002ed84a78d153e176a0370d8173fbc0b23d7a82aa1ad9c578.jpg",
    "url": "https://www.google.com/maps/search/?api=1&query=Car%20rental%20in%20rajkot%20(Comfort%20Trip)&query_place_id=ChIJx2Xdk5vJWTkRjC6yGQnP9QM"
  },
  {
    "title": "CHARVIK TAXI SERVICE",
    "categoryName": "Car rental agency",
    "address": "Landmark Complex, 115, Astron Chowk, Sardarnagar, Rajkot, Gujarat 360001, India",
    "neighborhood": "Astron Chowk, Sardarnagar",
    "street": "Landmark Complex, 115",
    "city": "Rajkot",
    "postalCode": "360001",
    "state": "Gujarat",
    "countryCode": "IN",
    "location": {
      "lat": 22.2913422,
      "lng": 70.7884361
    },
    "permanentlyClosed": false,
    "temporarilyClosed": false,
    "placeId": "ChIJoY8ldBDLWTkR3gDnKQaGbfY",
    "categories": [
      "Car rental agency",
      "Car leasing service",
      "Taxi service"
    ],
    "imagesCount": 5,
    "openingHours": [],
    "imageUrl": "https://media.indianluxurycars.com/google/0a4eb7e919d25f21487b70dbc7d9d3d1640501c22f47a48619addfec769730a8.jpg",
    "url": "https://www.google.com/maps/search/?api=1&query=CHARVIK%20TAXI%20SERVICE&query_place_id=ChIJoY8ldBDLWTkR3gDnKQaGbfY"
  },
  {
    "title": "Darshvi Tour&Travels",
    "categoryName": "Car rental agency",
    "address": "Office No/02, Anil Chamber, Dhebar Chowk, Karanpara, Rajkot, Gujarat 360001, India",
    "neighborhood": "Dhebar Chowk, Karanpara",
    "street": "Office No/02, Anil Chamber",
    "city": "Rajkot",
    "postalCode": "360001",
    "state": "Gujarat",
    "countryCode": "IN",
    "website": "https://darshvitourandtravels.com/",
    "phone": "+919375132111",
    "phoneUnformatted": "+919375132111",
    "location": {
      "lat": 22.295232,
      "lng": 70.802992
    },
    "totalScore": 4.9,
    "permanentlyClosed": false,
    "temporarilyClosed": false,
    "placeId": "ChIJASyXUePLWTkR9o920Vm95oQ",
    "categories": [
      "Car rental agency",
      "Bus tour agency",
      "Car leasing service",
      "Travel agency",
      "Minibus taxi service",
      "Taxi service",
      "Tour operator",
      "Van rental agency"
    ],
    "reviewsCount": 56,
    "imagesCount": 20,
    "openingHours": [
      {
        "day": "Monday",
        "hours": "8‚ÄØAM to 9‚ÄØPM"
      },
      {
        "day": "Tuesday",
        "hours": "8‚ÄØAM to 9‚ÄØPM"
      },
      {
        "day": "Wednesday",
        "hours": "8‚ÄØAM to 9‚ÄØPM"
      },
      {
        "day": "Thursday",
        "hours": "8‚ÄØAM to 9‚ÄØPM"
      },
      {
        "day": "Friday",
        "hours": "8‚ÄØAM to 9‚ÄØPM"
      },
      {
        "day": "Saturday",
        "hours": "8‚ÄØAM to 9‚ÄØPM"
      },
      {
        "day": "Sunday",
        "hours": "8‚ÄØAM to 9‚ÄØPM"
      }
    ],
    "imageUrl": "https://media.indianluxurycars.com/google/17a0bd9f38e2a5c6304aa08487938141dca9696e91b857eecf31e6f8ff6e13b0.jpg",
    "url": "https://www.google.com/maps/search/?api=1&query=Darshvi%20Tour%26Travels&query_place_id=ChIJASyXUePLWTkR9o920Vm95oQ"
  },
  {
    "title": "Dwarkadhish Tours & Travels Rajkot Car Rental Hire Services",
    "subTitle": "‡™¶‡´ç‡™µ‡™æ‡™∞‡™ï‡™æ‡™ß‡´Ä‡™∂ ‡™ü‡´Å‡™∞‡´ç‡™∏ & ‡™ü‡´ç‡™∞‡™æ‡™µ‡´á‡™≤‡´ç‡™∏ ‡™∞‡™æ‡™ú‡™ï‡´ã‡™ü ‡™ï‡™æ‡™∞ ‡™∞‡´á‡™Ç‡™ü‡™≤ ‡™π‡´Ä‡™∞‡´á ‡™∏‡™∞‡´ç‡™µ‡™ø‡™∏‡´Ä‡™∏",
    "categoryName": "Car leasing service",
    "address": "Patel Colony Street-2, Mayani Chowk, Chandreshnagar Nagar Main Road, Rajkot, Gujarat 360004, India",
    "neighborhood": "Patel Colony, Machani Nagar, Chandreshnagar",
    "street": "Patel Colony Street-2, Mayani Chowk, Chandreshnagar Nagar Main Road",
    "city": "Rajkot",
    "postalCode": "360004",
    "state": "Gujarat",
    "countryCode": "IN",
    "website": "http://www.dwarkadhishtourstravels.com/",
    "phone": "+919033545202",
    "phoneUnformatted": "+919033545202",
    "location": {
      "lat": 22.2742678,
      "lng": 70.7839776
    },
    "totalScore": 4.9,
    "permanentlyClosed": false,
    "temporarilyClosed": false,
    "placeId": "ChIJa2XSE0HKWTkRfqMVr-hiXiw",
    "categories": [
      "Car leasing service",
      "Taxi service"
    ],
    "reviewsCount": 17,
    "imagesCount": 119,
    "openingHours": [
      {
        "day": "Monday",
        "hours": "Open 24 hours"
      },
      {
        "day": "Tuesday",
        "hours": "Open 24 hours"
      },
      {
        "day": "Wednesday",
        "hours": "Open 24 hours"
      },
      {
        "day": "Thursday",
        "hours": "Open 24 hours"
      },
      {
        "day": "Friday",
        "hours": "Open 24 hours"
      },
      {
        "day": "Saturday",
        "hours": "12‚ÄØAM to 11:59‚ÄØPM"
      },
      {
        "day": "Sunday",
        "hours": "Open 24 hours"
      }
    ],
    "imageUrl": "https://media.indianluxurycars.com/google/1d18848e222a46a98927de7b54122fab7739866a1411dad2c834689cc925320c.jpg",
    "url": "https://www.google.com/maps/search/?api=1&query=Dwarkadhish%20Tours%20%26%20Travels%20Rajkot%20Car%20Rental%20Hire%20Services&query_place_id=ChIJa2XSE0HKWTkRfqMVr-hiXiw"
  },
  {
    "title": "Golden travels",
    "categoryName": "Car leasing service",
    "address": "Gondal Rd, opp. PDM College, Gunatit Nagar, Sardar Nagar, Rajkot, Gujarat 360004, India",
    "neighborhood": "Gunatit Nagar, Sardar Nagar",
    "street": "Gondal Rd, opp. PDM College",
    "city": "Rajkot",
    "postalCode": "360004",
    "state": "Gujarat",
    "countryCode": "IN",
    "website": "https://www.goldentravelsrajkot.com/",
    "location": {
      "lat": 22.2673285,
      "lng": 70.8003122
    },
    "totalScore": 3.9,
    "permanentlyClosed": false,
    "temporarilyClosed": false,
    "placeId": "ChIJs5boawDLWTkReqJGNwlb54U",
    "categories": [
      "Car leasing service"
    ],
    "reviewsCount": 7,
    "imagesCount": 2,
    "openingHours": [
      {
        "day": "Monday",
        "hours": "Open 24 hours"
      },
      {
        "day": "Tuesday",
        "hours": "Open 24 hours"
      },
      {
        "day": "Wednesday",
        "hours": "Open 24 hours"
      },
      {
        "day": "Thursday",
        "hours": "Open 24 hours"
      },
      {
        "day": "Friday",
        "hours": "Open 24 hours"
      },
      {
        "day": "Saturday",
        "hours": "Open 24 hours"
      },
      {
        "day": "Sunday",
        "hours": "Open 24 hours"
      }
    ],
    "imageUrl": "https://media.indianluxurycars.com/google/7190258d3859350cf9df889f6ca8e04ac96adcbcfd6496bc73d696546d91f349.jpg",
    "url": "https://www.google.com/maps/search/?api=1&query=Golden%20travels&query_place_id=ChIJs5boawDLWTkReqJGNwlb54U"
  },
  {
    "title": "Indian Tempo Traveller",
    "categoryName": "Car rental agency",
    "address": "101, Himmat Palace, Kishorsinhji Main Road, opp. Santosh Dairy Farm, nr. Palace Road, Vardhman Nagar, Rajkot, Gujarat 360001, India",
    "neighborhood": "Vardhman Nagar",
    "street": "101, Himmat Palace, Kishorsinhji Main Road, opp. Santosh Dairy Farm, nr. Palace Road",
    "city": "Rajkot",
    "postalCode": "360001",
    "state": "Gujarat",
    "countryCode": "IN",
    "phone": "+919824231506",
    "phoneUnformatted": "+919824231506",
    "location": {
      "lat": 22.292604,
      "lng": 70.8082273
    },
    "totalScore": 5,
    "permanentlyClosed": false,
    "temporarilyClosed": false,
    "placeId": "ChIJVdgIn7XLWTkRTDUNsvKl3FM",
    "categories": [
      "Car rental agency",
      "Temp agency",
      "Tour agency",
      "Travel agency"
    ],
    "reviewsCount": 1,
    "imagesCount": 10,
    "openingHours": [
      {
        "day": "Monday",
        "hours": "Open 24 hours"
      },
      {
        "day": "Tuesday",
        "hours": "Open 24 hours"
      },
      {
        "day": "Wednesday",
        "hours": "Open 24 hours"
      },
      {
        "day": "Thursday",
        "hours": "Open 24 hours"
      },
      {
        "day": "Friday",
        "hours": "Open 24 hours"
      },
      {
        "day": "Saturday",
        "hours": "Open 24 hours"
      },
      {
        "day": "Sunday",
        "hours": "Open 24 hours"
      }
    ],
    "imageUrl": "https://media.indianluxurycars.com/google/ae71ecf0c1c5f5178643bb8e7c756c6aae7a197332de1776daa135980ff98fab.jpg",
    "url": "https://www.google.com/maps/search/?api=1&query=Indian%20Tempo%20Traveller&query_place_id=ChIJVdgIn7XLWTkRTDUNsvKl3FM"
  },
  {
    "title": "JALARAM CABS",
    "subTitle": "‡™ú‡™≤‡™æ‡™∞‡™æ‡™Æ ‡™ï‡™¨",
    "categoryName": "Car rental agency",
    "address": "150 Feet Ring Rd, Jagannath Plot, Rajkot, Gujarat 360005, India",
    "neighborhood": "Jagannath Plot",
    "street": "150 Feet Ring Rd",
    "city": "Rajkot",
    "postalCode": "360005",
    "state": "Gujarat",
    "countryCode": "IN",
    "website": "https://business.google.com/v/jalaram-cabs/03042501966341809593/d04c/_",
    "phone": "+919824245403",
    "phoneUnformatted": "+919824245403",
    "location": {
      "lat": 22.2803768,
      "lng": 70.7755443
    },
    "totalScore": 4.9,
    "permanentlyClosed": false,
    "temporarilyClosed": false,
    "placeId": "ChIJT5Wul6HLWTkRWcrY7T5Y3O8",
    "categories": [
      "Car rental agency",
      "Car leasing service",
      "Taxi service"
    ],
    "reviewsCount": 259,
    "imagesCount": 10,
    "openingHours": [],
    "imageUrl": "https://media.indianluxurycars.com/google/372c913f01286fdf5dc2465bae6a93511532b262e3214ac982e314dfc17923e2.png",
    "url": "https://www.google.com/maps/search/?api=1&query=JALARAM%20CABS&query_place_id=ChIJT5Wul6HLWTkRWcrY7T5Y3O8"
  },
  {
    "title": "Kuldevi krupa taxi service",
    "categoryName": "Car rental agency",
    "address": "Navajakat naka pase, Green land circle, bal gopal hotel, Rajkot - Morbi Hwy, near Bal gopal hotel, Jai Nandan Nagar, Rajkot, Gujarat 360003, India",
    "neighborhood": "Jai Nandan Nagar",
    "street": "Navajakat naka pase, Green land circle, bal gopal hotel, Rajkot - Morbi Hwy, near Bal gopal hotel",
    "city": "Rajkot",
    "postalCode": "360003",
    "state": "Gujarat",
    "countryCode": "IN",
    "phone": "+918200916054",
    "phoneUnformatted": "+918200916054",
    "location": {
      "lat": 22.322271,
      "lng": 70.8230594
    },
    "totalScore": 4.3,
    "permanentlyClosed": false,
    "temporarilyClosed": false,
    "placeId": "ChIJVUiN4ES3WTkRIh30-p5I0D0",
    "categories": [
      "Car rental agency",
      "Car leasing service",
      "Taxi service",
      "Tour agency",
      "Tour operator",
      "Travel agency"
    ],
    "reviewsCount": 3,
    "imagesCount": 1,
    "openingHours": [
      {
        "day": "Monday",
        "hours": "Open 24 hours"
      },
      {
        "day": "Tuesday",
        "hours": "Open 24 hours"
      },
      {
        "day": "Wednesday",
        "hours": "Open 24 hours"
      },
      {
        "day": "Thursday",
        "hours": "Open 24 hours"
      },
      {
        "day": "Friday",
        "hours": "Open 24 hours"
      },
      {
        "day": "Saturday",
        "hours": "Open 24 hours"
      },
      {
        "day": "Sunday",
        "hours": "Open 24 hours"
      }
    ],
    "imageUrl": "https://media.indianluxurycars.com/google/b692aa7559dcfae7677decc5eed846bfc3689829cbdbec98abca768c1421bbf4.jpg",
    "url": "https://www.google.com/maps/search/?api=1&query=Kuldevi%20krupa%20taxi%20service&query_place_id=ChIJVUiN4ES3WTkRIh30-p5I0D0"
  },
  {
    "title": "Lucky Self Drive Car",
    "categoryName": "Car leasing service",
    "address": "Ganga Hall Chowk, Near Khodal Petroleum, Amin Marg, Near, 150 Feet Ring Rd, Rajkot, Gujarat 360001, India",
    "neighborhood": "Bharatvan Society, Dena Bank Society, Madhur Nagar",
    "street": "Ganga Hall Chowk, Near Khodal Petroleum, Amin Marg, Near, 150 Feet Ring Rd",
    "city": "Rajkot",
    "postalCode": "360001",
    "state": "Gujarat",
    "countryCode": "IN",
    "phone": "+918128105348",
    "phoneUnformatted": "+918128105348",
    "location": {
      "lat": 22.2846778,
      "lng": 70.7774193
    },
    "totalScore": 4.9,
    "permanentlyClosed": false,
    "temporarilyClosed": false,
    "placeId": "ChIJ4WkL13fJWTkRWjeixoMvTEc",
    "categories": [
      "Car leasing service"
    ],
    "reviewsCount": 368,
    "imagesCount": 127,
    "openingHours": [
      {
        "day": "Monday",
        "hours": "Open 24 hours"
      },
      {
        "day": "Tuesday",
        "hours": "Open 24 hours"
      },
      {
        "day": "Wednesday",
        "hours": "Open 24 hours"
      },
      {
        "day": "Thursday",
        "hours": "Open 24 hours"
      },
      {
        "day": "Friday",
        "hours": "Open 24 hours"
      },
      {
        "day": "Saturday",
        "hours": "Open 24 hours"
      },
      {
        "day": "Sunday",
        "hours": "Open 24 hours"
      }
    ],
    "imageUrl": "https://media.indianluxurycars.com/google/c999703ab44917568f95b710fad48370f2de489070585c617efbf74125b9e0af.jpg",
    "url": "https://www.google.com/maps/search/?api=1&query=Lucky%20Self%20Drive%20Car&query_place_id=ChIJ4WkL13fJWTkRWjeixoMvTEc"
  },
  {
    "title": "Luxury's car decor",
    "categoryName": "Car accessories store",
    "address": "Luxury's car decor shop No.5 Novas Complex bombay hotel chowk, Gondal Rd, nr. sadhana bhel, Rajkot, 360002, India",
    "neighborhood": "Vijay Plot, Bhakti Nagar",
    "street": "Luxury's car decor shop No.5 Novas Complex bombay hotel chowk, Gondal Rd, nr. sadhana bhel",
    "city": "Rajkot",
    "postalCode": "360002",
    "state": "Gujarat",
    "countryCode": "IN",
    "website": "https://www.instagram.com/luxurys_car_decor?igsh=MXhtcGp0cTUzbXB6eQ==",
    "phone": "+918849162095",
    "phoneUnformatted": "+918849162095",
    "location": {
      "lat": 22.285034,
      "lng": 70.80008
    },
    "totalScore": 5,
    "permanentlyClosed": false,
    "temporarilyClosed": false,
    "placeId": "ChIJg3uMQ-jLWTkRuFVT6QEZy2M",
    "categories": [
      "Car accessories store"
    ],
    "reviewsCount": 8,
    "imagesCount": 12,
    "openingHours": [
      {
        "day": "Monday",
        "hours": "9‚ÄØAM to 9‚ÄØPM"
      },
      {
        "day": "Tuesday",
        "hours": "9‚ÄØAM to 9‚ÄØPM"
      },
      {
        "day": "Wednesday",
        "hours": "9‚ÄØAM to 9‚ÄØPM"
      },
      {
        "day": "Thursday",
        "hours": "9‚ÄØAM to 9‚ÄØPM"
      },
      {
        "day": "Friday",
        "hours": "9‚ÄØAM to 9‚ÄØPM"
      },
      {
        "day": "Saturday",
        "hours": "9‚ÄØAM to 9‚ÄØPM"
      },
      {
        "day": "Sunday",
        "hours": "9‚ÄØAM to 2‚ÄØPM"
      }
    ],
    "imageUrl": "https://media.indianluxurycars.com/google/258265026dccb398cef715337d283d451a7b7e59e315c19476771953a0abfe00.jpg",
    "url": "https://www.google.com/maps/search/?api=1&query=Luxury's%20car%20decor&query_place_id=ChIJg3uMQ-jLWTkRuFVT6QEZy2M"
  },
  {
    "title": "Maa Ashapura Car Rental",
    "categoryName": "Car rental agency",
    "address": "322, Mahalaxmi Complex KKV Hall, Kalawad Rd, Rajkot, Gujarat 360005, India",
    "neighborhood": "Bharatvan Society, Nalanda Society",
    "street": "322, Mahalaxmi Complex KKV Hall, Kalawad Rd",
    "city": "Rajkot",
    "postalCode": "360005",
    "state": "Gujarat",
    "countryCode": "IN",
    "phone": "+919173090909",
    "phoneUnformatted": "+919173090909",
    "location": {
      "lat": 22.2863935,
      "lng": 70.7726755
    },
    "totalScore": 4.9,
    "permanentlyClosed": false,
    "temporarilyClosed": false,
    "placeId": "ChIJqRovuK_LWTkRTW6UeEkbRsE",
    "categories": [
      "Car rental agency",
      "Car leasing service",
      "Taxi service"
    ],
    "reviewsCount": 90,
    "imagesCount": 17,
    "openingHours": [],
    "imageUrl": "https://media.indianluxurycars.com/google/a64e3bef58c3180f0a6f25921f3865a414070e7e0df454643488595e5ef3ee01.jpg",
    "url": "https://www.google.com/maps/search/?api=1&query=Maa%20Ashapura%20Car%20Rental&query_place_id=ChIJqRovuK_LWTkRTW6UeEkbRsE"
  },
  {
    "title": "Mahadev Self-Car&Rental's",
    "categoryName": "Car rental agency",
    "address": "Jakaat Naaka, Mahadev Self-Car&Rental'S Axar Park-2, Near, Juno Morbi Rd, opp. Satnam Hardwear Old, Rajkot, Gujarat 360003, India",
    "neighborhood": "Jai Nandan Nagar",
    "street": "Jakaat Naaka, Mahadev Self-Car&Rental'S Axar Park-2, Near, Juno Morbi Rd, opp. Satnam Hardwear Old",
    "city": "Rajkot",
    "postalCode": "360003",
    "state": "Gujarat",
    "countryCode": "IN",
    "location": {
      "lat": 22.3222983,
      "lng": 70.822819
    },
    "totalScore": 4.3,
    "permanentlyClosed": false,
    "temporarilyClosed": false,
    "placeId": "ChIJA3sgBIK3WTkRr7F89zS6mWs",
    "categories": [
      "Car rental agency"
    ],
    "reviewsCount": 7,
    "imagesCount": 13,
    "openingHours": [
      {
        "day": "Monday",
        "hours": "Open 24 hours"
      },
      {
        "day": "Tuesday",
        "hours": "Open 24 hours"
      },
      {
        "day": "Wednesday",
        "hours": "Open 24 hours"
      },
      {
        "day": "Thursday",
        "hours": "Open 24 hours"
      },
      {
        "day": "Friday",
        "hours": "Open 24 hours"
      },
      {
        "day": "Saturday",
        "hours": "Open 24 hours"
      },
      {
        "day": "Sunday",
        "hours": "Open 24 hours"
      }
    ],
    "imageUrl": "https://media.indianluxurycars.com/google/6250791453e4aa9c246407d1a9b98f9407b6d0fe409a363cd4b4e682f97f0137.jpg",
    "url": "https://www.google.com/maps/search/?api=1&query=Mahadev%20Self-Car%26Rental's&query_place_id=ChIJA3sgBIK3WTkRr7F89zS6mWs"
  },
  {
    "title": "Mamadev Taxi and Cab Service Rajkot",
    "categoryName": "Car rental agency",
    "address": "Chamunda Krupa, Plot No-154/B, 2, Street No.4, opp. Radhika Dairy, near Railways Junction, Railnagar, Rajkot, Gujarat 360001, India",
    "neighborhood": "Railnagar",
    "street": "Chamunda Krupa, Plot No-154/B, 2, Street No.4, opp. Radhika Dairy, near Railways Junction",
    "city": "Rajkot",
    "postalCode": "360001",
    "state": "Gujarat",
    "countryCode": "IN",
    "website": "https://mamadevtaxiservice.com/",
    "phone": "+919909013060",
    "phoneUnformatted": "+919909013060",
    "location": {
      "lat": 22.324189,
      "lng": 70.7931727
    },
    "totalScore": 4.9,
    "permanentlyClosed": false,
    "temporarilyClosed": false,
    "placeId": "ChIJWQnbKTjJWTkR78_0OGJd19I",
    "categories": [
      "Car rental agency",
      "Bus tour agency",
      "Car leasing service",
      "Taxi service",
      "Tour operator",
      "Travel agency"
    ],
    "reviewsCount": 196,
    "imagesCount": 57,
    "openingHours": [],
    "imageUrl": "https://media.indianluxurycars.com/google/9aedbd626d19f97e800855556db3b7f659b7dff89cf29c4bcd693d1df4583255.jpg",
    "url": "https://www.google.com/maps/search/?api=1&query=Mamadev%20Taxi%20and%20Cab%20Service%20Rajkot&query_place_id=ChIJWQnbKTjJWTkR78_0OGJd19I"
  },
  {
    "title": "Milan Motors",
    "subTitle": "‡™Æ‡™ø‡™≤‡™® ‡™Æ‡´ã‡™ü‡™∞‡´ç‡™∏",
    "categoryName": "Used car dealer",
    "address": "Vijay Plot Street Number 13, opp. Dharti Honda, Vijay Plot, Bhakti Nagar, Rajkot, Gujarat 360002, India",
    "neighborhood": "Vijay Plot, Bhakti Nagar",
    "street": "Vijay Plot Street Number 13, opp. Dharti Honda",
    "city": "Rajkot",
    "postalCode": "360002",
    "state": "Gujarat",
    "countryCode": "IN",
    "phone": "+919427962209",
    "phoneUnformatted": "+919427962209",
    "location": {
      "lat": 22.286336,
      "lng": 70.798788
    },
    "totalScore": 4.6,
    "permanentlyClosed": false,
    "temporarilyClosed": false,
    "placeId": "ChIJv_5s_BHKWTkRB93JH9OFUg0",
    "categories": [
      "Used car dealer"
    ],
    "reviewsCount": 60,
    "imagesCount": 15,
    "openingHours": [
      {
        "day": "Monday",
        "hours": "10‚ÄØAM to 8‚ÄØPM"
      },
      {
        "day": "Tuesday",
        "hours": "10‚ÄØAM to 8‚ÄØPM"
      },
      {
        "day": "Wednesday",
        "hours": "10‚ÄØAM to 8‚ÄØPM"
      },
      {
        "day": "Thursday",
        "hours": "10‚ÄØAM to 8‚ÄØPM"
      },
      {
        "day": "Friday",
        "hours": "10‚ÄØAM to 8‚ÄØPM"
      },
      {
        "day": "Saturday",
        "hours": "10‚ÄØAM to 8‚ÄØPM"
      },
      {
        "day": "Sunday",
        "hours": "10‚ÄØAM to 1:30‚ÄØPM"
      }
    ],
    "imageUrl": "https://media.indianluxurycars.com/google/6af90e537e0a1fd711ba5f6789e2c0e9cb17a8bcc26a3656d50b4197713239d9.jpg",
    "url": "https://www.google.com/maps/search/?api=1&query=Milan%20Motors&query_place_id=ChIJv_5s_BHKWTkRB93JH9OFUg0"
  },
  {
    "title": "One Way Travel",
    "categoryName": "Car rental agency",
    "address": "Sadar, Rajkot, Gujarat 360001, India",
    "neighborhood": "Sadar",
    "city": "Rajkot",
    "postalCode": "360001",
    "state": "Gujarat",
    "countryCode": "IN",
    "website": "http://www.onewaytravel.in/",
    "phone": "+918000171799",
    "phoneUnformatted": "+918000171799",
    "location": {
      "lat": 22.3020856,
      "lng": 70.7976343
    },
    "totalScore": 4.8,
    "permanentlyClosed": false,
    "temporarilyClosed": false,
    "placeId": "ChIJg1MiB0vLWTkRzkhLceYG2Ck",
    "categories": [
      "Car rental agency",
      "Car leasing service",
      "Taxi service"
    ],
    "reviewsCount": 65,
    "imagesCount": 7,
    "openingHours": [],
    "imageUrl": "https://media.indianluxurycars.com/google/46eacb0c73c865a69ebba43e70dae08b177aa4bc7cdd1388fc0030041ee4c8bb.jpg",
    "url": "https://www.google.com/maps/search/?api=1&query=One%20Way%20Travel&query_place_id=ChIJg1MiB0vLWTkRzkhLceYG2Ck"
  },
  {
    "title": "R J Premium Cars",
    "categoryName": "Car rental agency",
    "address": "Jammy Tower, Gondal Rd, near Makkam Chowk, Udhyog Nagar Colony, Bhakti Nagar, Rajkot, Gujarat 360002, India",
    "neighborhood": "Udhyog Nagar Colony, Bhakti Nagar",
    "street": "Jammy Tower, Gondal Rd, near Makkam Chowk",
    "city": "Rajkot",
    "postalCode": "360002",
    "state": "Gujarat",
    "countryCode": "IN",
    "location": {
      "lat": 22.2817436,
      "lng": 70.7993968
    },
    "permanentlyClosed": false,
    "temporarilyClosed": false,
    "placeId": "ChIJsaT1mRLKWTkRRtz69mDMBpQ",
    "categories": [
      "Car rental agency"
    ],
    "imagesCount": 1,
    "openingHours": [],
    "imageUrl": "https://media.indianluxurycars.com/google/2587fe73e0f271b2e57ccc33a5e1ceb7e73ef0b49126c9a0fe2251be29b9ebc3.jpg",
    "url": "https://www.google.com/maps/search/?api=1&query=R%20J%20Premium%20Cars&query_place_id=ChIJsaT1mRLKWTkRRtz69mDMBpQ"
  },
  {
    "title": "Rajkot Aaryan Taxi I Rajkot Taxi Service | One taxi service",
    "categoryName": "Car rental agency",
    "address": "150 Feet Ring Road, Govind Ratna Park Street No. 1, opp. balaji medical, Near Balaji Hall, same, Rajkot, Gujarat 360004, India",
    "neighborhood": "Near Balaji Hall, Dharam Nagar, same",
    "street": "150 Feet Ring Road, Govind Ratna Park Street No. 1, opp. balaji medical",
    "city": "Rajkot",
    "postalCode": "360004",
    "state": "Gujarat",
    "countryCode": "IN",
    "website": "http://www.rajkotaaryantaxi.com/",
    "phone": "+918154802624",
    "phoneUnformatted": "+918154802624",
    "location": {
      "lat": 22.2710763,
      "lng": 70.7801221
    },
    "totalScore": 5,
    "permanentlyClosed": false,
    "temporarilyClosed": false,
    "placeId": "ChIJsa0xdPEgFmIRuhvnwazW4us",
    "categories": [
      "Car rental agency",
      "Car leasing service",
      "Taxi service"
    ],
    "reviewsCount": 77,
    "imagesCount": 23,
    "openingHours": [],
    "imageUrl": "https://media.indianluxurycars.com/google/90174f036a617e780ca298b2443d7c5290219221b7ed910dc384b6fe77f9080f.png",
    "url": "https://www.google.com/maps/search/?api=1&query=Rajkot%20Aaryan%20Taxi%20I%20Rajkot%20Taxi%20Service%20%7C%20One%20taxi%20service&query_place_id=ChIJsa0xdPEgFmIRuhvnwazW4us"
  },
  {
    "title": "Rajkot Airport Taxi Service | Rajkot Taxi Service | Rajkot Hirasar Airport Taxi | Rajkot Taxi",
    "categoryName": "Car rental agency",
    "address": "Devpara chowk, near, Kothariya Main Rd, Bhakti Nagar, Rajkot, Gujarat 360002, India",
    "neighborhood": "Bhakti Nagar",
    "street": "Devpara chowk, near, Kothariya Main Rd",
    "city": "Rajkot",
    "postalCode": "360002",
    "state": "Gujarat",
    "countryCode": "IN",
    "website": "https://rajkotairporttaxi.com/",
    "phone": "+918490007018",
    "phoneUnformatted": "+918490007018",
    "location": {
      "lat": 22.2735971,
      "lng": 70.8125745
    },
    "totalScore": 5,
    "permanentlyClosed": false,
    "temporarilyClosed": false,
    "placeId": "ChIJR6mb1xoSxG8RZ04HrWLIPag",
    "categories": [
      "Car rental agency",
      "Air taxi",
      "Car leasing service",
      "Taxi service",
      "Minibus taxi service",
      "Taxicab Stand",
      "Tour operator"
    ],
    "reviewsCount": 77,
    "imagesCount": 58,
    "openingHours": [],
    "imageUrl": "https://media.indianluxurycars.com/google/a68f7edca57b7f24fd10cce1e2f91ab70a0bc2123e91f186257a802b8370c820.jpg",
    "url": "https://www.google.com/maps/search/?api=1&query=Rajkot%20Airport%20Taxi%20Service%20%7C%20Rajkot%20Taxi%20Service%20%7C%20Rajkot%20Hirasar%20Airport%20Taxi%20%7C%20Rajkot%20Taxi&query_place_id=ChIJR6mb1xoSxG8RZ04HrWLIPag"
  },
  {
    "title": "Rajkot Janki Taxi Services",
    "subTitle": "‡™∞‡™æ‡™ú‡™ï‡´ã‡™ü ‡™ú‡™æ‡™®‡™ï‡´Ä ‡™ü‡´á‡™ï‡´ç‡™∏‡´Ä ‡™∏‡™∞‡´ç‡™µ‡™ø‡™∏‡´Ä‡™∏",
    "categoryName": "Car rental agency",
    "address": "Rajdeep Pan, 2 hasan wadi, Sahkar Main Rd, Trishul Chowk, Rajkot, Gujarat 360002, India",
    "neighborhood": "Trishul Chowk, Atika Industrial Area, Bhakti Nagar",
    "street": "Rajdeep Pan, 2 hasan wadi, Sahkar Main Rd",
    "city": "Rajkot",
    "postalCode": "360002",
    "state": "Gujarat",
    "countryCode": "IN",
    "website": "http://rajkotjankitaxi.com/",
    "phone": "+919974344574",
    "phoneUnformatted": "+919974344574",
    "location": {
      "lat": 22.2683299,
      "lng": 70.8043895
    },
    "totalScore": 4.4,
    "permanentlyClosed": false,
    "temporarilyClosed": false,
    "placeId": "ChIJv7pQxM_LWTkRdTAPUg2tUUo",
    "categories": [
      "Car rental agency",
      "Car leasing service",
      "Taxi service",
      "Chauffeur service",
      "Minibus taxi service"
    ],
    "reviewsCount": 16,
    "imagesCount": 7,
    "openingHours": [],
    "imageUrl": "https://media.indianluxurycars.com/google/a0f197725841dfc901d0f1a8f2d03f1996268a48c0972d149b7acc2b2d62c410.jpg",
    "url": "https://www.google.com/maps/search/?api=1&query=Rajkot%20Janki%20Taxi%20Services&query_place_id=ChIJv7pQxM_LWTkRdTAPUg2tUUo"
  },
  {
    "title": "RAJKOT PROPERTY HUB & SKYLINE MOTORS",
    "categoryName": "Construction company",
    "address": "STREET 10, 1, Street No. 17, near MAVDI CHOKDI, Rajkot, Gujarat 360004, India",
    "neighborhood": "Somana Society, Chandreshnagar",
    "street": "STREET 10, 1, Street No. 17, near MAVDI CHOKDI",
    "city": "Rajkot",
    "postalCode": "360004",
    "state": "Gujarat",
    "countryCode": "IN",
    "phone": "+919009002119",
    "phoneUnformatted": "+919009002119",
    "location": {
      "lat": 22.2669118,
      "lng": 70.7857077
    },
    "totalScore": 4.9,
    "permanentlyClosed": false,
    "temporarilyClosed": false,
    "placeId": "ChIJaYZELnvLWTkRxYsTDdEwZRM",
    "categories": [
      "Construction company",
      "Auto broker",
      "Car dealer",
      "Car wash",
      "Commercial real estate agency",
      "Industrial real estate agency",
      "Property investment company",
      "Property management company",
      "Real estate consultant",
      "Real estate rental agency"
    ],
    "reviewsCount": 18,
    "imagesCount": 14,
    "openingHours": [
      {
        "day": "Monday",
        "hours": "Open 24 hours"
      },
      {
        "day": "Tuesday",
        "hours": "Open 24 hours"
      },
      {
        "day": "Wednesday",
        "hours": "Open 24 hours"
      },
      {
        "day": "Thursday",
        "hours": "Open 24 hours"
      },
      {
        "day": "Friday",
        "hours": "Open 24 hours"
      },
      {
        "day": "Saturday",
        "hours": "Open 24 hours"
      },
      {
        "day": "Sunday",
        "hours": "Open 24 hours"
      }
    ],
    "imageUrl": "https://media.indianluxurycars.com/google/399cce8d6f91c91cea720214b32212308e3349490055067dbfa5ecb8c04da3c9.jpg",
    "url": "https://www.google.com/maps/search/?api=1&query=RAJKOT%20PROPERTY%20HUB%20%26%20SKYLINE%20MOTORS&query_place_id=ChIJaYZELnvLWTkRxYsTDdEwZRM"
  },
  {
    "title": "Rajkot Taxi",
    "subTitle": "‡™∞‡™æ‡™ú‡™ï‡´ã‡™ü ‡™ü‡´á‡™ï‡´ç‡™∏‡´Ä",
    "categoryName": "Car rental agency",
    "address": "Twilight Soft Drinks,, Bhutkhana Chowk,, Dhebar Road,, near S.T. Bus Station, Rajkot, Gujarat 360002, India",
    "neighborhood": "Vijay Plot, Bhakti Nagar",
    "street": "Twilight Soft Drinks,, Bhutkhana Chowk,, Dhebar Road,, near S.T. Bus Station",
    "city": "Rajkot",
    "postalCode": "360002",
    "state": "Gujarat",
    "countryCode": "IN",
    "website": "http://rajkottaxi.in/",
    "phone": "+919909791097",
    "phoneUnformatted": "+919909791097",
    "location": {
      "lat": 22.289448,
      "lng": 70.801053
    },
    "totalScore": 4.9,
    "permanentlyClosed": false,
    "temporarilyClosed": false,
    "placeId": "ChIJqQWcxQ_KWTkRfiQmvrfEExU",
    "categories": [
      "Car rental agency",
      "Bus tour agency",
      "Car leasing service",
      "Taxi service",
      "Minibus taxi service",
      "Tour agency",
      "Tour operator",
      "Travel agency"
    ],
    "reviewsCount": 690,
    "imagesCount": 96,
    "openingHours": [],
    "imageUrl": "https://media.indianluxurycars.com/google/2f096f34d368809a223cecf77e9faa8bc3d5f1bff3d188c617cb0aeb00192002.png",
    "url": "https://www.google.com/maps/search/?api=1&query=Rajkot%20Taxi&query_place_id=ChIJqQWcxQ_KWTkRfiQmvrfEExU"
  },
  {
    "title": "Rajkot texi* 5-Star cab üöñ RAMDEV TOUR'S TRAVELS",
    "categoryName": "Car leasing service",
    "address": "Limda Chowk, Panchnath Plot, Sadar, Rajkot, Gujarat 360001, India",
    "neighborhood": "Limda Chowk, Panchnath Plot, Sadar",
    "city": "Rajkot",
    "postalCode": "360001",
    "state": "Gujarat",
    "countryCode": "IN",
    "phone": "+919484885111",
    "phoneUnformatted": "+919484885111",
    "location": {
      "lat": 22.2964691,
      "lng": 70.7984227
    },
    "totalScore": 5,
    "permanentlyClosed": false,
    "temporarilyClosed": false,
    "placeId": "ChIJPScyfNfLWTkRqmlhOCATG14",
    "categories": [
      "Car leasing service",
      "Air taxi",
      "Taxi service",
      "Minibus taxi service",
      "Parking lot"
    ],
    "reviewsCount": 42,
    "imagesCount": 6,
    "openingHours": [],
    "imageUrl": "https://media.indianluxurycars.com/google/870911d0f4093a8a384809c74640c581650a87e933612bdb837fe96e71d3366d.jpg",
    "url": "https://www.google.com/maps/search/?api=1&query=Rajkot%20texi*%205-Star%20cab%20%F0%9F%9A%96%20RAMDEV%20TOUR'S%20TRAVELS&query_place_id=ChIJPScyfNfLWTkRqmlhOCATG14"
  },
  {
    "title": "RC Cabs",
    "categoryName": "Car rental agency",
    "address": "Kothariya Main Rd, near Maruti Nagar Main Road, Vikrant Nagar Society, Bhakti Nagar, Rajkot, Gujarat 360002, India",
    "neighborhood": "Vikrant Nagar Society, Bhakti Nagar",
    "street": "Kothariya Main Rd, near Maruti Nagar Main Road",
    "city": "Rajkot",
    "postalCode": "360002",
    "state": "Gujarat",
    "countryCode": "IN",
    "website": "https://rccabs.in/",
    "phone": "+918000229000",
    "phoneUnformatted": "+918000229000",
    "location": {
      "lat": 22.2622216,
      "lng": 70.8134418
    },
    "totalScore": 5,
    "permanentlyClosed": false,
    "temporarilyClosed": false,
    "placeId": "ChIJNxLA4ucVCaYRij0KlYugUp4",
    "categories": [
      "Car rental agency",
      "Taxi service"
    ],
    "reviewsCount": 98,
    "imagesCount": 37,
    "openingHours": [],
    "imageUrl": "https://media.indianluxurycars.com/google/537e1386bd8697135e5825b8f5a00b596a62c6ba3e7f8affba8a263225827b3a.jpg",
    "url": "https://www.google.com/maps/search/?api=1&query=RC%20Cabs&query_place_id=ChIJNxLA4ucVCaYRij0KlYugUp4"
  },
  {
    "title": "Riddhi Siddhi Self Drive Car Rental",
    "categoryName": "Car leasing service",
    "address": "over bridge, Nr Madhapar Circle Sundaram City Nr over bridge, Circle, near Madhapar, Rajkot, Gujarat 360001, India",
    "neighborhood": "Manharpur",
    "street": "over bridge, Nr Madhapar Circle Sundaram City Nr over bridge, Circle, near Madhapar",
    "city": "Rajkot",
    "postalCode": "360001",
    "state": "Gujarat",
    "countryCode": "IN",
    "phone": "+919106612845",
    "phoneUnformatted": "+919106612845",
    "location": {
      "lat": 22.3375389,
      "lng": 70.7786177
    },
    "totalScore": 5,
    "permanentlyClosed": false,
    "temporarilyClosed": false,
    "placeId": "ChIJb4ylYOjJWTkRHE58yU4bOhA",
    "categories": [
      "Car leasing service"
    ],
    "reviewsCount": 123,
    "imagesCount": 44,
    "openingHours": [
      {
        "day": "Monday",
        "hours": "Open 24 hours"
      },
      {
        "day": "Tuesday",
        "hours": "Open 24 hours"
      },
      {
        "day": "Wednesday",
        "hours": "Open 24 hours"
      },
      {
        "day": "Thursday",
        "hours": "Open 24 hours"
      },
      {
        "day": "Friday",
        "hours": "Open 24 hours"
      },
      {
        "day": "Saturday",
        "hours": "Open 24 hours"
      },
      {
        "day": "Sunday",
        "hours": "Open 24 hours"
      }
    ],
    "imageUrl": "https://media.indianluxurycars.com/google/b11f40744e30e381f0453ebe1deb7a5c8454bc00f5aa00fd54eb3c4f092318ab.jpg",
    "url": "https://www.google.com/maps/search/?api=1&query=Riddhi%20Siddhi%20Self%20Drive%20Car%20Rental&query_place_id=ChIJb4ylYOjJWTkRHE58yU4bOhA"
  },
  {
    "title": "Royal Wedding Cars",
    "subTitle": "‡™∞‡´ã‡™Ø‡™≤ ‡™µ‡´á‡™°‡™ø‡™Ç‡™ó ‡™ï‡™æ‡™∞‡´ç‡™∏",
    "categoryName": "Car rental agency",
    "address": "336, POPATBHAI SORATHIA BHAVAN, SADAR BAZAR, Rajkot, Gujarat 360001, India",
    "neighborhood": "Panchnath Plot, Sadar",
    "street": "336, POPATBHAI SORATHIA BHAVAN, SADAR BAZAR",
    "city": "Rajkot",
    "postalCode": "360001",
    "state": "Gujarat",
    "countryCode": "IN",
    "website": "http://royalweddingcar.in/",
    "phone": "+916353997266",
    "phoneUnformatted": "+916353997266",
    "location": {
      "lat": 22.298579,
      "lng": 70.7979
    },
    "totalScore": 4.2,
    "permanentlyClosed": false,
    "temporarilyClosed": true,
    "placeId": "ChIJJezz7RzKWTkR19CpdHAyS7o",
    "categories": [
      "Car rental agency"
    ],
    "reviewsCount": 22,
    "imagesCount": 129,
    "openingHours": [],
    "imageUrl": "https://media.indianluxurycars.com/google/a82ceecc68f21ac42ce4a67974f4c8fc217d4cdb1886375b27d2e865d0b7297d.jpg",
    "url": "https://www.google.com/maps/search/?api=1&query=Royal%20Wedding%20Cars&query_place_id=ChIJJezz7RzKWTkR19CpdHAyS7o"
  },
  {
    "title": "Santosh Tours",
    "categoryName": "Car rental agency",
    "address": "Santosh Travels near Siddhi Vinayak Residansi shop -12, stree -1, Rail Nagar, Rajkot, Gujarat 360001, India",
    "neighborhood": "Rail Nagar, Railnagar",
    "street": "Santosh Travels near Siddhi Vinayak Residansi shop -12, stree -1",
    "city": "Rajkot",
    "postalCode": "360001",
    "state": "Gujarat",
    "countryCode": "IN",
    "website": "https://www.santoshtourstravels.com/",
    "phone": "+919824851114",
    "phoneUnformatted": "+919824851114",
    "location": {
      "lat": 22.3267534,
      "lng": 70.7921812
    },
    "totalScore": 5,
    "permanentlyClosed": false,
    "temporarilyClosed": true,
    "placeId": "ChIJb4yoF3zJWTkR9dnPV5GI5aQ",
    "categories": [
      "Car rental agency",
      "Airport shuttle service",
      "Bus charter",
      "Car leasing service",
      "Taxi service",
      "Minibus taxi service"
    ],
    "reviewsCount": 21,
    "imagesCount": 4,
    "openingHours": [],
    "imageUrl": "https://media.indianluxurycars.com/google/c150557982f72a9f947f73000ad2308c6d4997e70a659e543119b1ebfd5f85ad.jpg",
    "url": "https://www.google.com/maps/search/?api=1&query=Santosh%20Tours&query_place_id=ChIJb4yoF3zJWTkR9dnPV5GI5aQ"
  },
  {
    "title": "shiv car decor",
    "subTitle": "‡™∂‡™ø‡™µ ‡™ï‡™æ‡™∞ ‡™∏‡™ú‡™æ‡™µ‡™ü",
    "categoryName": "Car accessories store",
    "address": "makkam chowknr.passport office, Gondal Rd, opp. relience petrol pump, Rajkot, Gujarat 360002, India",
    "neighborhood": "Udhyog Nagar Colony, Bhakti Nagar",
    "street": "makkam chowknr.passport office, Gondal Rd, opp. relience petrol pump",
    "city": "Rajkot",
    "postalCode": "360002",
    "state": "Gujarat",
    "countryCode": "IN",
    "phone": "+919978861333",
    "phoneUnformatted": "+919978861333",
    "location": {
      "lat": 22.2798213,
      "lng": 70.799382
    },
    "totalScore": 4.9,
    "permanentlyClosed": false,
    "temporarilyClosed": false,
    "placeId": "ChIJM64-rRLKWTkRhKUgG8IWZsE",
    "categories": [
      "Car accessories store"
    ],
    "reviewsCount": 25,
    "imagesCount": 105,
    "openingHours": [
      {
        "day": "Monday",
        "hours": "9‚ÄØAM to 9‚ÄØPM"
      },
      {
        "day": "Tuesday",
        "hours": "9‚ÄØAM to 9‚ÄØPM"
      },
      {
        "day": "Wednesday",
        "hours": "9‚ÄØAM to 9‚ÄØPM"
      },
      {
        "day": "Thursday",
        "hours": "9‚ÄØAM to 9‚ÄØPM"
      },
      {
        "day": "Friday",
        "hours": "9‚ÄØAM to 9‚ÄØPM"
      },
      {
        "day": "Saturday",
        "hours": "9‚ÄØAM to 9‚ÄØPM"
      },
      {
        "day": "Sunday",
        "hours": "9‚ÄØAM to 9‚ÄØPM"
      }
    ],
    "imageUrl": "https://media.indianluxurycars.com/google/016457085ebe15bb1db479cb60db0ed140c3c5783fd7ff60a6dbff996c8d3125.jpg",
    "url": "https://www.google.com/maps/search/?api=1&query=shiv%20car%20decor&query_place_id=ChIJM64-rRLKWTkRhKUgG8IWZsE"
  },
  {
    "title": "Shiv Motors",
    "subTitle": "‡™∂‡™ø‡™µ ‡™Æ‡´ã‡™ü‡™∞‡´ç‡™∏",
    "categoryName": "Car dealer",
    "address": "Indraprasth Main Road, Tagore Rd, behind Hemu Gadhvi Hall Road, opposite Railway Track, Kotecha Nagar, Rajkot, Gujarat 360001, India",
    "neighborhood": "Kotecha Nagar",
    "street": "Indraprasth Main Road, Tagore Rd, behind Hemu Gadhvi Hall Road, opposite Railway Track",
    "city": "Rajkot",
    "postalCode": "360001",
    "state": "Gujarat",
    "countryCode": "IN",
    "website": "http://www.shivmotors.corporateonline.in/ContactUs.php",
    "phone": "+919227662851",
    "phoneUnformatted": "+919227662851",
    "location": {
      "lat": 22.2889108,
      "lng": 70.7867827
    },
    "totalScore": 4.1,
    "permanentlyClosed": false,
    "temporarilyClosed": false,
    "placeId": "ChIJC4L0eBLKWTkRTSfkn7R6kj0",
    "categories": [
      "Car dealer",
      "Used car dealer"
    ],
    "reviewsCount": 53,
    "imagesCount": 3,
    "openingHours": [
      {
        "day": "Monday",
        "hours": "9‚ÄØAM to 8‚ÄØPM"
      },
      {
        "day": "Tuesday",
        "hours": "9‚ÄØAM to 8‚ÄØPM"
      },
      {
        "day": "Wednesday",
        "hours": "9‚ÄØAM to 8‚ÄØPM"
      },
      {
        "day": "Thursday",
        "hours": "9‚ÄØAM to 8‚ÄØPM"
      },
      {
        "day": "Friday",
        "hours": "9‚ÄØAM to 8‚ÄØPM"
      },
      {
        "day": "Saturday",
        "hours": "Closed"
      },
      {
        "day": "Sunday",
        "hours": "9:30‚ÄØAM to 8:30‚ÄØPM"
      }
    ],
    "imageUrl": "https://media.indianluxurycars.com/google/10fdfb0b240bba5295c0f38ac8ae9790a54e436606f8f4e91f9cd7f3b9c6f2d0.jpg",
    "url": "https://www.google.com/maps/search/?api=1&query=Shiv%20Motors&query_place_id=ChIJC4L0eBLKWTkRTSfkn7R6kj0"
  },
  {
    "title": "SUVIDHA TRAVELS",
    "categoryName": "Car rental agency",
    "address": "Block No:-9, Bhomeshwar Plot, Rajkot, Gujarat 360006, India",
    "neighborhood": "Bhomeshwar Plot",
    "street": "Block No:-9",
    "city": "Rajkot",
    "postalCode": "360006",
    "state": "Gujarat",
    "countryCode": "IN",
    "phone": "+917434813398",
    "phoneUnformatted": "+917434813398",
    "location": {
      "lat": 22.310733,
      "lng": 70.7873416
    },
    "totalScore": 5,
    "permanentlyClosed": false,
    "temporarilyClosed": false,
    "placeId": "ChIJ37OIjNXJWTkRmZ9SyeO63O4",
    "categories": [
      "Car rental agency"
    ],
    "reviewsCount": 4,
    "imagesCount": 33,
    "openingHours": [
      {
        "day": "Monday",
        "hours": "9‚ÄØAM to 5‚ÄØPM"
      },
      {
        "day": "Tuesday",
        "hours": "9‚ÄØAM to 5‚ÄØPM"
      },
      {
        "day": "Wednesday",
        "hours": "9‚ÄØAM to 5‚ÄØPM"
      },
      {
        "day": "Thursday",
        "hours": "9‚ÄØAM to 5‚ÄØPM"
      },
      {
        "day": "Friday",
        "hours": "9‚ÄØAM to 5‚ÄØPM"
      },
      {
        "day": "Saturday",
        "hours": "9‚ÄØAM to 5‚ÄØPM"
      },
      {
        "day": "Sunday",
        "hours": "9‚ÄØAM to 5‚ÄØPM"
      }
    ],
    "imageUrl": "https://media.indianluxurycars.com/google/7a1af07ded5f5219c621c6aa7b13d2b5d2db064100b7cc675badbee6a7b537dc.jpg",
    "url": "https://www.google.com/maps/search/?api=1&query=SUVIDHA%20TRAVELS&query_place_id=ChIJ37OIjNXJWTkRmZ9SyeO63O4"
  },
  {
    "title": "Tata Motors Cars Showroom - Jai Ganesh, 150ft Ring Road",
    "categoryName": "Car dealer",
    "address": "RK Empire, 150 Feet Ring Rd, near Mandi Chowk, Vinayak Nagar, Rajkot, Gujarat 360004, India",
    "neighborhood": "Vinayak Nagar",
    "street": "RK Empire, 150 Feet Ring Rd, near Mandi Chowk",
    "city": "Rajkot",
    "postalCode": "360004",
    "state": "Gujarat",
    "countryCode": "IN",
    "website": "https://dealer-locator.cars.tatamotors.com/tata-motors-cars-showroom-jai-ganesh-150ft-ring-road-car-dealer-150-feet-ring-road-rajkot-124359/Home?utm_source=locator&utm_medium=googleplaces",
    "phone": "+919619487090",
    "phoneUnformatted": "+919619487090",
    "location": {
      "lat": 22.2630512,
      "lng": 70.7867703
    },
    "totalScore": 4.7,
    "permanentlyClosed": false,
    "temporarilyClosed": false,
    "placeId": "ChIJ5UPoturLWTkRm_ddPa8RxLU",
    "categories": [
      "Car dealer",
      "Auto parts store",
      "Auto repair shop",
      "Car accessories store"
    ],
    "reviewsCount": 1313,
    "imagesCount": 210,
    "openingHours": [
      {
        "day": "Monday",
        "hours": "10‚ÄØAM to 9‚ÄØPM"
      },
      {
        "day": "Tuesday",
        "hours": "10‚ÄØAM to 9‚ÄØPM"
      },
      {
        "day": "Wednesday",
        "hours": "10‚ÄØAM to 9‚ÄØPM"
      },
      {
        "day": "Thursday",
        "hours": "10‚ÄØAM to 9‚ÄØPM"
      },
      {
        "day": "Friday",
        "hours": "10‚ÄØAM to 9‚ÄØPM"
      },
      {
        "day": "Saturday",
        "hours": "10‚ÄØAM to 9‚ÄØPM"
      },
      {
        "day": "Sunday",
        "hours": "10‚ÄØAM to 9‚ÄØPM"
      }
    ],
    "imageUrl": "https://media.indianluxurycars.com/google/3e0153ef56712ec5816c41c52396d84d104da25e50117dd64b93159d4a3ff382.jpg",
    "url": "https://www.google.com/maps/search/?api=1&query=Tata%20Motors%20Cars%20Showroom%20-%20Jai%20Ganesh%2C%20150ft%20Ring%20Road&query_place_id=ChIJ5UPoturLWTkRm_ddPa8RxLU"
  },
  {
    "title": "Tezz Taxi | Taxi One Way Cab | Rajkot Hirasar Airport Taxi Service",
    "categoryName": "Car rental agency",
    "address": "Shop-3, B/H, Nirmala School, Yogiraj Appartment -E, Sojitra Nagar, Rajkot, Gujarat 360007, India",
    "neighborhood": "Sojitra Nagar, Gulab Nagar",
    "street": "Shop-3, B/H, Nirmala School, Yogiraj Appartment -E",
    "city": "Rajkot",
    "postalCode": "360007",
    "state": "Gujarat",
    "countryCode": "IN",
    "website": "http://tezzshaktitravels.com/",
    "phone": "+919696153153",
    "phoneUnformatted": "+919696153153",
    "location": {
      "lat": 22.2977301,
      "lng": 70.7776907
    },
    "totalScore": 4.9,
    "permanentlyClosed": false,
    "temporarilyClosed": false,
    "placeId": "ChIJtyI0YMPJWTkRRPPnSFNanNU",
    "categories": [
      "Car rental agency",
      "Car leasing service",
      "Taxi service",
      "Minibus taxi service",
      "Transportation service"
    ],
    "reviewsCount": 916,
    "imagesCount": 59,
    "openingHours": [],
    "imageUrl": "https://media.indianluxurycars.com/google/297264c0f96453c430193352ca6a1fa485791bcbdad1b7f32b9a3f9385450e4b.jpg",
    "url": "https://www.google.com/maps/search/?api=1&query=Tezz%20Taxi%20%7C%20Taxi%20One%20Way%20Cab%20%7C%20Rajkot%20Hirasar%20Airport%20Taxi%20Service&query_place_id=ChIJtyI0YMPJWTkRRPPnSFNanNU"
  },
  {
    "title": "Uma Tours and Travels",
    "categoryName": "Car leasing service",
    "address": "215, Mahalaxmi Complex, Kalawad Rd, opposite Saint Mary`s School, near KKV Hall, Suryoday Society, Nalanda Society, Rajkot, Gujarat 360001, India",
    "neighborhood": "Suryoday Society, Nalanda Society",
    "street": "215, Mahalaxmi Complex, Kalawad Rd, opposite Saint Mary`s School, near KKV Hall",
    "city": "Rajkot",
    "postalCode": "360001",
    "state": "Gujarat",
    "countryCode": "IN",
    "website": "http://www.umatour.com/",
    "phone": "+919305893058",
    "phoneUnformatted": "+919305893058",
    "location": {
      "lat": 22.2865385,
      "lng": 70.7729071
    },
    "totalScore": 4.8,
    "permanentlyClosed": false,
    "temporarilyClosed": false,
    "placeId": "ChIJZazGsDHKWTkR3KYIj4PH12o",
    "categories": [
      "Car leasing service",
      "Airline ticket agency",
      "Tour operator",
      "Passport agent",
      "Passport office",
      "Tour agency",
      "Train ticket agency",
      "Visa consulting service"
    ],
    "reviewsCount": 344,
    "imagesCount": 88,
    "openingHours": [
      {
        "day": "Monday",
        "hours": "9‚ÄØAM to 7‚ÄØPM"
      },
      {
        "day": "Tuesday",
        "hours": "9‚ÄØAM to 7‚ÄØPM"
      },
      {
        "day": "Wednesday",
        "hours": "9‚ÄØAM to 7‚ÄØPM"
      },
      {
        "day": "Thursday",
        "hours": "9‚ÄØAM to 7‚ÄØPM"
      },
      {
        "day": "Friday",
        "hours": "9‚ÄØAM to 7‚ÄØPM"
      },
      {
        "day": "Saturday",
        "hours": "9‚ÄØAM to 7‚ÄØPM"
      },
      {
        "day": "Sunday",
        "hours": "Closed"
      }
    ],
    "imageUrl": "https://media.indianluxurycars.com/google/a5e2a6a1362b97a537a7469a997dbe9be9ed0ef20a5d17c58dcdb8988ed82624.jpg",
    "url": "https://www.google.com/maps/search/?api=1&query=Uma%20Tours%20and%20Travels&query_place_id=ChIJZazGsDHKWTkR3KYIj4PH12o"
  },
  {
    "title": "ùó©ùóúùó¶ùóõùó©ùó•ùóîùóù ùóßùó¢ùó®ùó•ùó¶ & ùóßùó•ùóîùó©ùóòùóüùó¶",
    "categoryName": "Car leasing service",
    "address": "Government Quarters, D-63 A, Shroff Rd, behind Dharm Cinema, Naval Nagar, Sadar, Rajkot, Gujarat 360001, India",
    "neighborhood": "Naval Nagar, Sadar",
    "street": "Government Quarters, D-63 A, Shroff Rd, behind Dharm Cinema",
    "city": "Rajkot",
    "postalCode": "360001",
    "state": "Gujarat",
    "countryCode": "IN",
    "website": "https://www.instagram.com/vishvrajtourstravels.rajkot/",
    "phone": "+917016161530",
    "phoneUnformatted": "+917016161530",
    "location": {
      "lat": 22.3030897,
      "lng": 70.7978776
    },
    "totalScore": 4.8,
    "permanentlyClosed": false,
    "temporarilyClosed": false,
    "placeId": "ChIJNbwVTGDJWTkRPX-1qMReY0c",
    "categories": [
      "Car leasing service",
      "Taxi service"
    ],
    "reviewsCount": 266,
    "imagesCount": 9,
    "openingHours": [],
    "imageUrl": "https://media.indianluxurycars.com/google/89fef7050de23310928d8d1ce341966875e3f21294fdfbae8e81bf6b6ba74e62.jpg",
    "url": "https://www.google.com/maps/search/?api=1&query=%F0%9D%97%A9%F0%9D%97%9C%F0%9D%97%A6%F0%9D%97%9B%F0%9D%97%A9%F0%9D%97%A5%F0%9D%97%94%F0%9D%97%9D%20%F0%9D%97%A7%F0%9D%97%A2%F0%9D%97%A8%F0%9D%97%A5%F0%9D%97%A6%20%26%20%F0%9D%97%A7%F0%9D%97%A5%F0%9D%97%94%F0%9D%97%A9%F0%9D%97%98%F0%9D%97%9F%F0%9D%97%A6&query_place_id=ChIJNbwVTGDJWTkRPX-1qMReY0c"
  },
  {
    "title": "Yashvi tour's and travels",
    "categoryName": "Car rental agency",
    "address": "Limda Chowk, Panchnath Plot, Sadar, Rajkot, Gujarat 360001, India",
    "neighborhood": "Limda Chowk, Panchnath Plot, Sadar",
    "city": "Rajkot",
    "postalCode": "360001",
    "state": "Gujarat",
    "countryCode": "IN",
    "website": "https://sites.google.com/view/%20yashvi-tours-travels",
    "phone": "+918306655550",
    "phoneUnformatted": "+918306655550",
    "location": {
      "lat": 22.2964691,
      "lng": 70.7984227
    },
    "totalScore": 5,
    "permanentlyClosed": false,
    "temporarilyClosed": false,
    "placeId": "ChIJaexjQwDLWTkR8QWDMTMXtaY",
    "categories": [
      "Car rental agency",
      "Taxi service"
    ],
    "reviewsCount": 2,
    "imagesCount": 10,
    "openingHours": [],
    "imageUrl": "https://media.indianluxurycars.com/google/3acb9a5d5b319e70a46485a052a9cdaf107a120d0739f9c6598ba6cf7ec2f0b1.jpg",
    "url": "https://www.google.com/maps/search/?api=1&query=Yashvi%20tour's%20and%20travels&query_place_id=ChIJaexjQwDLWTkR8QWDMTMXtaY"
  }
]
