[
  {
    "title": "ADDON STORE",
    "categoryName": "Car stereo store",
    "address": "76/3A1, Chennai bypass road, opposite to Cluny Vidya Nikethan school, Erumapalayam, Salem, Tamil Nadu 636015, India",
    "neighborhood": "Erumapalayam",
    "street": "76/3A1, Chennai bypass road, opposite to Cluny Vidya Nikethan school",
    "city": "Salem",
    "postalCode": "636015",
    "state": "Tamil Nadu",
    "countryCode": "IN",
    "phone": "+917695888378",
    "phoneUnformatted": "+917695888378",
    "location": {
      "lat": 11.6303388,
      "lng": 78.1670562
    },
    "totalScore": 4.7,
    "permanentlyClosed": false,
    "temporarilyClosed": false,
    "placeId": "ChIJ47DdnPXvqzsR7GO_MB64xOo",
    "categories": [
      "Car stereo store",
      "Car wash"
    ],
    "reviewsCount": 38,
    "imagesCount": 48,
    "openingHours": [
      {
        "day": "Monday",
        "hours": "9:30 AM to 7:30 PM"
      },
      {
        "day": "Tuesday",
        "hours": "9:30 AM to 7:30 PM"
      },
      {
        "day": "Wednesday",
        "hours": "9:30 AM to 7:30 PM"
      },
      {
        "day": "Thursday",
        "hours": "9:30 AM to 7:30 PM"
      },
      {
        "day": "Friday",
        "hours": "9:30 AM to 7:30 PM"
      },
      {
        "day": "Saturday",
        "hours": "9:30 AM to 7:30 PM"
      },
      {
        "day": "Sunday",
        "hours": "9:30 AM to 2:30 PM"
      }
    ],
    "imageUrl": "https://media.indianluxurycars.com/google/bac64533815e24273d60d1472de9b3ad238aabc2cd179f96b60f25545de39238.jpg",
    "url": "https://www.google.com/maps/search/?api=1&query=ADDON%20STORE&query_place_id=ChIJ47DdnPXvqzsR7GO_MB64xOo"
  },
  {
    "title": "Annai cars",
    "subTitle": "அன்னை கார்ஸ்",
    "categoryName": "Used car dealer",
    "address": "J4HJ+RGF, P M P Nagar, Kondalampatti, Salem, Tamil Nadu 636010, India",
    "neighborhood": "P M P Nagar, Kondalampatti",
    "street": "J4HJ+RGF",
    "city": "Salem",
    "postalCode": "636010",
    "state": "Tamil Nadu",
    "countryCode": "IN",
    "phone": "+919894496189",
    "phoneUnformatted": "+919894496189",
    "location": {
      "lat": 11.6295715,
      "lng": 78.1312822
    },
    "totalScore": 4.6,
    "permanentlyClosed": false,
    "temporarilyClosed": false,
    "placeId": "ChIJNfKqaALvqzsR05QIK2rOyiQ",
    "categories": [
      "Used car dealer"
    ],
    "reviewsCount": 8,
    "imagesCount": 6,
    "openingHours": [
      {
        "day": "Monday",
        "hours": "9:30 AM to 7:30 PM"
      },
      {
        "day": "Tuesday",
        "hours": "9:30 AM to 7:30 PM"
      },
      {
        "day": "Wednesday",
        "hours": "9:30 AM to 7:30 PM"
      },
      {
        "day": "Thursday",
        "hours": "9:30 AM to 7:30 PM"
      },
      {
        "day": "Friday",
        "hours": "9:30 AM to 7:30 PM"
      },
      {
        "day": "Saturday",
        "hours": "9:30 AM to 7:30 PM"
      },
      {
        "day": "Sunday",
        "hours": "10 AM to 6 PM"
      }
    ],
    "imageUrl": "https://media.indianluxurycars.com/google/e8223af20e61a6a5e93d7ffbd020287c7bc3b1831407023e0b3da8725fb7200a.jpg",
    "url": "https://www.google.com/maps/search/?api=1&query=Annai%20cars&query_place_id=ChIJNfKqaALvqzsR05QIK2rOyiQ"
  },
  {
    "title": "Ashirvatham used cars sales",
    "subTitle": "ஆஷிர்வாதம் ஸ்ட் கார்ஸ் சேல்ஸ்",
    "categoryName": "Used car dealer",
    "address": "272 Gandhi nagar, Solampallam, Old Suramangalam, Salem, Tamil Nadu 636005, India",
    "neighborhood": "LVB Steel Nagar, Solampallam, Old Suramangalam",
    "street": "272 Gandhi nagar",
    "city": "Salem",
    "postalCode": "636005",
    "state": "Tamil Nadu",
    "countryCode": "IN",
    "location": {
      "lat": 11.6741441,
      "lng": 78.1017912
    },
    "totalScore": 4.7,
    "permanentlyClosed": false,
    "temporarilyClosed": false,
    "placeId": "ChIJGZpfFc37qzsReqKxAh42M2c",
    "categories": [
      "Used car dealer"
    ],
    "reviewsCount": 22,
    "imagesCount": 22,
    "openingHours": [
      {
        "day": "Monday",
        "hours": "8 AM to 7:30 PM"
      },
      {
        "day": "Tuesday",
        "hours": "8 AM to 7:30 PM"
      },
      {
        "day": "Wednesday",
        "hours": "8 AM to 7:30 PM"
      },
      {
        "day": "Thursday",
        "hours": "8 AM to 7:30 PM"
      },
      {
        "day": "Friday",
        "hours": "8 AM to 7:30 PM"
      },
      {
        "day": "Saturday",
        "hours": "8 AM to 7:30 PM"
      },
      {
        "day": "Sunday",
        "hours": "11 AM to 7:30 PM"
      }
    ],
    "imageUrl": "https://media.indianluxurycars.com/google/0952ad0624a33c51abb51133ee91680b4d778d3aacd5bab9e2b5cce6642cca7e.jpg",
    "url": "https://www.google.com/maps/search/?api=1&query=Ashirvatham%20used%20cars%20sales&query_place_id=ChIJGZpfFc37qzsReqKxAh42M2c"
  },
  {
    "title": "AVM Travels",
    "subTitle": "ஏ.வி.எம் டிராவல்ஸ்",
    "categoryName": "Car rental agency",
    "address": "76, Sankari Main Rd, Kathayammal Nagar, Nethimedu, Salem, Tamil Nadu 636002, India",
    "neighborhood": "Kathayammal Nagar, Nethimedu",
    "street": "76, Sankari Main Rd",
    "city": "Salem",
    "postalCode": "636002",
    "state": "Tamil Nadu",
    "countryCode": "IN",
    "phone": "+918870588807",
    "phoneUnformatted": "+918870588807",
    "location": {
      "lat": 11.6416652,
      "lng": 78.1373828
    },
    "totalScore": 4.1,
    "permanentlyClosed": false,
    "temporarilyClosed": false,
    "placeId": "ChIJT_VgmeDvqzsR8e9ncmwcybU",
    "categories": [
      "Car rental agency",
      "Airport shuttle service",
      "Bus charter",
      "Travel agency",
      "Minibus taxi service",
      "Taxi service",
      "Transportation service",
      "Van rental agency"
    ],
    "reviewsCount": 39,
    "imagesCount": 23,
    "openingHours": [
      {
        "day": "Monday",
        "hours": "Open 24 hours"
      },
      {
        "day": "Tuesday",
        "hours": "Open 24 hours"
      },
      {
        "day": "Wednesday",
        "hours": "Open 24 hours"
      },
      {
        "day": "Thursday",
        "hours": "Open 24 hours"
      },
      {
        "day": "Friday",
        "hours": "Open 24 hours"
      },
      {
        "day": "Saturday",
        "hours": "Open 24 hours"
      },
      {
        "day": "Sunday",
        "hours": "Open 24 hours"
      }
    ],
    "imageUrl": "https://media.indianluxurycars.com/google/a35060fd493db07ffc8803722f5d087425ae1ef23d6198195a71b5836a394630.jpg",
    "url": "https://www.google.com/maps/search/?api=1&query=AVM%20Travels&query_place_id=ChIJT_VgmeDvqzsR8e9ncmwcybU"
  },
  {
    "title": "Best Self Drive Cars Salem",
    "categoryName": "Car rental agency",
    "address": "16/476, Rajaji St, near Keerthana Theatre, Tharma Nagar, Mullai Nagar, Suramangalam, Salem, Tamil Nadu 636005, India",
    "neighborhood": "Tharma Nagar, Mullai Nagar, Suramangalam",
    "street": "16/476, Rajaji St, near Keerthana Theatre",
    "city": "Salem",
    "postalCode": "636005",
    "state": "Tamil Nadu",
    "countryCode": "IN",
    "phone": "+919500808888",
    "phoneUnformatted": "+919500808888",
    "location": {
      "lat": 11.6702435,
      "lng": 78.1176481
    },
    "totalScore": 4.8,
    "permanentlyClosed": false,
    "temporarilyClosed": false,
    "placeId": "ChIJ-YHRTFjxqzsR-erO2ploaL8",
    "categories": [
      "Car rental agency"
    ],
    "reviewsCount": 230,
    "imagesCount": 48,
    "openingHours": [
      {
        "day": "Monday",
        "hours": "Open 24 hours"
      },
      {
        "day": "Tuesday",
        "hours": "Open 24 hours"
      },
      {
        "day": "Wednesday",
        "hours": "Open 24 hours"
      },
      {
        "day": "Thursday",
        "hours": "Open 24 hours"
      },
      {
        "day": "Friday",
        "hours": "Open 24 hours"
      },
      {
        "day": "Saturday",
        "hours": "Open 24 hours"
      },
      {
        "day": "Sunday",
        "hours": "Open 24 hours"
      }
    ],
    "imageUrl": "https://media.indianluxurycars.com/google/84b93238c13b8a2a3e02fc48d4aadffcafb2fc3a6071ab846cbbb12441f3dc60.jpg",
    "url": "https://www.google.com/maps/search/?api=1&query=Best%20Self%20Drive%20Cars%20Salem&query_place_id=ChIJ-YHRTFjxqzsR-erO2ploaL8"
  },
  {
    "title": "CARS",
    "subTitle": "மாடர்ன் கார்ஸ்",
    "categoryName": "Car dealer",
    "address": "Anna Park, backside, Sankar Nagar, Salem, Tamil Nadu 636007, India",
    "neighborhood": "backside, Sankar Nagar",
    "street": "Anna Park",
    "city": "Salem",
    "postalCode": "636007",
    "state": "Tamil Nadu",
    "countryCode": "IN",
    "phone": "+918072044354",
    "phoneUnformatted": "+918072044354",
    "location": {
      "lat": 11.6628609,
      "lng": 78.15514
    },
    "totalScore": 1,
    "permanentlyClosed": false,
    "temporarilyClosed": false,
    "placeId": "ChIJ8zqsG2fxqzsRiTf8kwkoSy8",
    "categories": [
      "Car dealer"
    ],
    "reviewsCount": 3,
    "imagesCount": 1,
    "openingHours": [
      {
        "day": "Monday",
        "hours": "9:01 AM to 8 PM"
      },
      {
        "day": "Tuesday",
        "hours": "9:01 AM to 8 PM"
      },
      {
        "day": "Wednesday",
        "hours": "9:01 AM to 8 PM"
      },
      {
        "day": "Thursday",
        "hours": "9:01 AM to 8 PM"
      },
      {
        "day": "Friday",
        "hours": "9:01 AM to 8 PM"
      },
      {
        "day": "Saturday",
        "hours": "9:01 AM to 8 PM"
      },
      {
        "day": "Sunday",
        "hours": "10 AM to 1 PM"
      }
    ],
    "imageUrl": "https://media.indianluxurycars.com/google/1d2e03591a13a8583b799d4d2592777e0ac2e5494e2a3492657c1a935eb9ece4.jpg",
    "url": "https://www.google.com/maps/search/?api=1&query=CARS&query_place_id=ChIJ8zqsG2fxqzsRiTf8kwkoSy8"
  },
  {
    "title": "CLAASSICAL TOURS N TRAVELS",
    "subTitle": "கிளாஸ்சிக்கல் டூர்ஸ் என் டிராவல்ஸ்",
    "categoryName": "Car rental agency",
    "address": "Kannagi complex, Bus Stop, Omalur Main Rd, above Lakshmi coffee bar, Kurangu Chavadi, Salem, Tamil Nadu 636004, India",
    "neighborhood": "Kurangu Chavadi",
    "street": "Kannagi complex, Bus Stop, Omalur Main Rd, above Lakshmi coffee bar",
    "city": "Salem",
    "postalCode": "636004",
    "state": "Tamil Nadu",
    "countryCode": "IN",
    "website": "http://facebook.com/CLAASSICALTOURS",
    "phone": "+919994574598",
    "phoneUnformatted": "+919994574598",
    "location": {
      "lat": 11.6821655,
      "lng": 78.12724
    },
    "totalScore": 4.7,
    "permanentlyClosed": false,
    "temporarilyClosed": false,
    "placeId": "ChIJpdXNuGPwqzsRFpp_E92pdis",
    "categories": [
      "Car rental agency",
      "Bus tour agency",
      "Car leasing service",
      "Travel agency",
      "Outdoor activity organiser",
      "Sightseeing tour agency",
      "Tour agency",
      "Tour operator",
      "Tourist information center",
      "Van rental agency"
    ],
    "reviewsCount": 665,
    "imagesCount": 110,
    "openingHours": [
      {
        "day": "Monday",
        "hours": "9 AM to 9 PM"
      },
      {
        "day": "Tuesday",
        "hours": "9 AM to 9 PM"
      },
      {
        "day": "Wednesday",
        "hours": "9 AM to 9 PM"
      },
      {
        "day": "Thursday",
        "hours": "9 AM to 9 PM"
      },
      {
        "day": "Friday",
        "hours": "9 AM to 9 PM"
      },
      {
        "day": "Saturday",
        "hours": "9 AM to 9 PM"
      },
      {
        "day": "Sunday",
        "hours": "10 AM to 8 PM"
      }
    ],
    "imageUrl": "https://media.indianluxurycars.com/google/bc08069000133ce2f0db52233631830a428e9df7f695f93fab2a4c410714cd0f.jpg",
    "url": "https://www.google.com/maps/search/?api=1&query=CLAASSICAL%20TOURS%20N%20TRAVELS&query_place_id=ChIJpdXNuGPwqzsRFpp_E92pdis"
  },
  {
    "title": "Elite Self Drive Cars salem - Self Drive cars in salem - Car rental salem",
    "categoryName": "Car rental agency",
    "address": "19/71, Perumal Kovil Rd, Swarnapuri, Salem, Tamil Nadu 636004, India",
    "neighborhood": "Swarnapuri",
    "street": "19/71, Perumal Kovil Rd",
    "city": "Salem",
    "postalCode": "636004",
    "state": "Tamil Nadu",
    "countryCode": "IN",
    "phone": "+919092020908",
    "phoneUnformatted": "+919092020908",
    "location": {
      "lat": 11.6746566,
      "lng": 78.1389889
    },
    "totalScore": 5,
    "permanentlyClosed": false,
    "temporarilyClosed": false,
    "placeId": "ChIJjYE99mLxqzsRHz_9zk9bOlU",
    "categories": [
      "Car rental agency",
      "Car leasing service"
    ],
    "reviewsCount": 30,
    "imagesCount": 21,
    "openingHours": [
      {
        "day": "Monday",
        "hours": "Open 24 hours"
      },
      {
        "day": "Tuesday",
        "hours": "Open 24 hours"
      },
      {
        "day": "Wednesday",
        "hours": "Open 24 hours"
      },
      {
        "day": "Thursday",
        "hours": "Open 24 hours"
      },
      {
        "day": "Friday",
        "hours": "Open 24 hours"
      },
      {
        "day": "Saturday",
        "hours": "Open 24 hours"
      },
      {
        "day": "Sunday",
        "hours": "8 AM to 10 PM"
      }
    ],
    "imageUrl": "https://media.indianluxurycars.com/google/fba13d0537dc281ace94632674b8ff7a84bd22716b0d0a8599cdf5aff78371e1.jpg",
    "url": "https://www.google.com/maps/search/?api=1&query=Elite%20Self%20Drive%20Cars%20salem%20-%20Self%20Drive%20cars%20in%20salem%20-%20Car%20rental%20salem&query_place_id=ChIJjYE99mLxqzsRHz_9zk9bOlU"
  },
  {
    "title": "Global Cars",
    "subTitle": "குளோபல் கார்கள்",
    "categoryName": "Car dealer",
    "address": "Omalur Main Rd, Peramanur, Salem, Tamil Nadu 636009, India",
    "neighborhood": "Peramanur",
    "street": "Omalur Main Rd",
    "city": "Salem",
    "postalCode": "636009",
    "state": "Tamil Nadu",
    "countryCode": "IN",
    "phone": "+919629050617",
    "phoneUnformatted": "+919629050617",
    "location": {
      "lat": 11.6608673,
      "lng": 78.1488688
    },
    "totalScore": 3.5,
    "permanentlyClosed": false,
    "temporarilyClosed": false,
    "placeId": "ChIJRajo6zbwqzsRUtJ53smSZw0",
    "categories": [
      "Car dealer"
    ],
    "reviewsCount": 15,
    "imagesCount": 84,
    "openingHours": [
      {
        "day": "Monday",
        "hours": "Open 24 hours"
      },
      {
        "day": "Tuesday",
        "hours": "Open 24 hours"
      },
      {
        "day": "Wednesday",
        "hours": "Open 24 hours"
      },
      {
        "day": "Thursday",
        "hours": "Open 24 hours"
      },
      {
        "day": "Friday",
        "hours": "Open 24 hours"
      },
      {
        "day": "Saturday",
        "hours": "Open 24 hours"
      },
      {
        "day": "Sunday",
        "hours": "Open 24 hours"
      }
    ],
    "imageUrl": "https://media.indianluxurycars.com/google/3e869e0e1e47f107b321b67a3a46f5a83b110c8ff74b40f885d49e4446e08f21.jpg",
    "url": "https://www.google.com/maps/search/?api=1&query=Global%20Cars&query_place_id=ChIJRajo6zbwqzsRUtJ53smSZw0"
  },
  {
    "title": "Indian Self Drive Cars Salem",
    "categoryName": "Car rental agency",
    "address": "13/440, Rajaji St, near Keerthana Theatre, Tharma Nagar, Mullai Nagar, Junction, Salem, Tamil Nadu 636005, India",
    "neighborhood": "Tharma Nagar, Mullai Nagar, Junction",
    "street": "13/440, Rajaji St, near Keerthana Theatre",
    "city": "Salem",
    "postalCode": "636005",
    "state": "Tamil Nadu",
    "countryCode": "IN",
    "website": "https://tn30selfdrivecarssalem.com/",
    "phone": "+919092943030",
    "phoneUnformatted": "+919092943030",
    "location": {
      "lat": 11.6702334,
      "lng": 78.1175969
    },
    "totalScore": 4.9,
    "permanentlyClosed": false,
    "temporarilyClosed": false,
    "placeId": "ChIJe1QVplvxqzsRmACLQXQxnms",
    "categories": [
      "Car rental agency"
    ],
    "reviewsCount": 71,
    "imagesCount": 54,
    "openingHours": [
      {
        "day": "Monday",
        "hours": "Open 24 hours"
      },
      {
        "day": "Tuesday",
        "hours": "Open 24 hours"
      },
      {
        "day": "Wednesday",
        "hours": "Open 24 hours"
      },
      {
        "day": "Thursday",
        "hours": "Open 24 hours"
      },
      {
        "day": "Friday",
        "hours": "Open 24 hours"
      },
      {
        "day": "Saturday",
        "hours": "Open 24 hours"
      },
      {
        "day": "Sunday",
        "hours": "Open 24 hours"
      }
    ],
    "imageUrl": "https://media.indianluxurycars.com/google/ef0f026bea44226b8a2a39a122363e33dfb3c3c553547e8ca2f6e3c094bebba8.jpg",
    "url": "https://www.google.com/maps/search/?api=1&query=Indian%20Self%20Drive%20Cars%20Salem&query_place_id=ChIJe1QVplvxqzsRmACLQXQxnms"
  },
  {
    "title": "Itsmytrippy Rental Cars in Salem | Self Drive Cars in Salem",
    "categoryName": "Car rental agency",
    "address": "First Floor, DVDL Complex, 88/7, Suramangalam Main Rd, opposite St. Joseph school, Thiruvakavundanur, Salem, Tamil Nadu 636005, India",
    "neighborhood": "Thiruvakavundanur",
    "street": "First Floor, DVDL Complex, 88/7, Suramangalam Main Rd, opposite St. Joseph school",
    "city": "Salem",
    "postalCode": "636005",
    "state": "Tamil Nadu",
    "countryCode": "IN",
    "website": "https://itsmytrippy.com/",
    "phone": "+919944227636",
    "phoneUnformatted": "+919944227636",
    "location": {
      "lat": 11.6690967,
      "lng": 78.1207461
    },
    "totalScore": 4.9,
    "permanentlyClosed": false,
    "temporarilyClosed": false,
    "placeId": "ChIJQ3LIIhTxqzsR1UqEY3JWqD4",
    "categories": [
      "Car rental agency",
      "Car leasing service",
      "Taxi service",
      "Transportation service"
    ],
    "reviewsCount": 456,
    "imagesCount": 122,
    "openingHours": [
      {
        "day": "Monday",
        "hours": "Open 24 hours"
      },
      {
        "day": "Tuesday",
        "hours": "Open 24 hours"
      },
      {
        "day": "Wednesday",
        "hours": "Open 24 hours"
      },
      {
        "day": "Thursday",
        "hours": "Open 24 hours"
      },
      {
        "day": "Friday",
        "hours": "Open 24 hours"
      },
      {
        "day": "Saturday",
        "hours": "Open 24 hours"
      },
      {
        "day": "Sunday",
        "hours": "Open 24 hours"
      }
    ],
    "imageUrl": "https://media.indianluxurycars.com/google/2473dc360d377f35de82f0dcaafdefae4340d351f72eb95826309417d1cd4cda.jpg",
    "url": "https://www.google.com/maps/search/?api=1&query=Itsmytrippy%20Rental%20Cars%20in%20Salem%20%7C%20Self%20Drive%20Cars%20in%20Salem&query_place_id=ChIJQ3LIIhTxqzsR1UqEY3JWqD4"
  },
  {
    "title": "MG Motor PPS Motor Showroom",
    "categoryName": "MG dealer",
    "address": "No. 151/1, NH-44, Bangalore Highway, Mamangam, Salem, Tamil Nadu 636302, India",
    "neighborhood": "Mamangam",
    "street": "No. 151/1, NH-44, Bangalore Highway",
    "city": "Salem",
    "postalCode": "636302",
    "state": "Tamil Nadu",
    "countryCode": "IN",
    "website": "https://dealers.mgmotor.co.in/mg-motor-pps-motor-showroom-car-dealer-mamangam-salem-371868/Home",
    "phone": "+917995550009",
    "phoneUnformatted": "+917995550009",
    "location": {
      "lat": 11.6930089,
      "lng": 78.1124309
    },
    "totalScore": 4.9,
    "permanentlyClosed": false,
    "temporarilyClosed": false,
    "placeId": "ChIJhXOMOznxqzsRSHRBOPEez1c",
    "categories": [
      "MG dealer",
      "Car dealer",
      "Motor vehicle dealer"
    ],
    "reviewsCount": 1849,
    "imagesCount": 274,
    "openingHours": [
      {
        "day": "Monday",
        "hours": "9 AM to 7:30 PM"
      },
      {
        "day": "Tuesday",
        "hours": "9 AM to 7:30 PM"
      },
      {
        "day": "Wednesday",
        "hours": "9 AM to 7:30 PM"
      },
      {
        "day": "Thursday",
        "hours": "9 AM to 7:30 PM"
      },
      {
        "day": "Friday",
        "hours": "9 AM to 7:30 PM"
      },
      {
        "day": "Saturday",
        "hours": "9 AM to 7:30 PM"
      },
      {
        "day": "Sunday",
        "hours": "10 AM to 12 AM"
      }
    ],
    "imageUrl": "https://media.indianluxurycars.com/google/f62abcf3a87314b50701ef202d5973061b7e711110fb585c4ae978124f90c967.jpg",
    "url": "https://www.google.com/maps/search/?api=1&query=MG%20Motor%20PPS%20Motor%20Showroom&query_place_id=ChIJhXOMOznxqzsRSHRBOPEez1c"
  },
  {
    "title": "Onroadz Car Rental - Self Drive Cars in Salem | Luxury Car for Rent | Self Driving Car Rental in Salem",
    "categoryName": "Car rental agency",
    "address": "No:6, Yercaud Main Rd, Meenakshi Nagar, Hasthampatti, Salem, Tamil Nadu 636007, India",
    "neighborhood": "Meenakshi Nagar, Hasthampatti",
    "street": "No:6, Yercaud Main Rd",
    "city": "Salem",
    "postalCode": "636007",
    "state": "Tamil Nadu",
    "countryCode": "IN",
    "website": "https://onroadz.com/self-drive-cars-salem/",
    "phone": "+919655214888",
    "phoneUnformatted": "+919655214888",
    "location": {
      "lat": 11.6805084,
      "lng": 78.1613232
    },
    "totalScore": 4.4,
    "permanentlyClosed": false,
    "temporarilyClosed": false,
    "placeId": "ChIJSf-FaFnxqzsRvjUbteijEvo",
    "categories": [
      "Car rental agency",
      "Car leasing service",
      "Transportation service",
      "Travel agency"
    ],
    "reviewsCount": 188,
    "imagesCount": 95,
    "openingHours": [
      {
        "day": "Monday",
        "hours": "Open 24 hours"
      },
      {
        "day": "Tuesday",
        "hours": "Open 24 hours"
      },
      {
        "day": "Wednesday",
        "hours": "Open 24 hours"
      },
      {
        "day": "Thursday",
        "hours": "Open 24 hours"
      },
      {
        "day": "Friday",
        "hours": "Open 24 hours"
      },
      {
        "day": "Saturday",
        "hours": "Open 24 hours"
      },
      {
        "day": "Sunday",
        "hours": "Open 24 hours"
      }
    ],
    "imageUrl": "https://media.indianluxurycars.com/google/c230f5c98fc704de03bc5ccda184fd72336a2cbe8f2ae857a890b52fb1eee2c9.jpg",
    "url": "https://www.google.com/maps/search/?api=1&query=Onroadz%20Car%20Rental%20-%20Self%20Drive%20Cars%20in%20Salem%20%7C%20Luxury%20Car%20for%20Rent%20%7C%20Self%20Driving%20Car%20Rental%20in%20Salem&query_place_id=ChIJSf-FaFnxqzsRvjUbteijEvo"
  },
  {
    "title": "P.K Dream's Bike's Rider shop",
    "categoryName": "Car rental agency",
    "address": "Arthanari Gounder St, Swarnapuri, Salem, Tamil Nadu 636004, India",
    "neighborhood": "Swarnapuri",
    "street": "Arthanari Gounder St",
    "city": "Salem",
    "postalCode": "636004",
    "state": "Tamil Nadu",
    "countryCode": "IN",
    "phone": "+917904548711",
    "phoneUnformatted": "+917904548711",
    "location": {
      "lat": 11.6722225,
      "lng": 78.1324956
    },
    "totalScore": 4.1,
    "permanentlyClosed": false,
    "temporarilyClosed": false,
    "placeId": "ChIJl0TEtdXxqzsRCwPHjmhwYGU",
    "categories": [
      "Car rental agency"
    ],
    "reviewsCount": 45,
    "imagesCount": 7,
    "openingHours": [
      {
        "day": "Monday",
        "hours": "Open 24 hours"
      },
      {
        "day": "Tuesday",
        "hours": "Open 24 hours"
      },
      {
        "day": "Wednesday",
        "hours": "Open 24 hours"
      },
      {
        "day": "Thursday",
        "hours": "Open 24 hours"
      },
      {
        "day": "Friday",
        "hours": "Open 24 hours"
      },
      {
        "day": "Saturday",
        "hours": "Open 24 hours"
      },
      {
        "day": "Sunday",
        "hours": "Open 24 hours"
      }
    ],
    "imageUrl": "https://media.indianluxurycars.com/google/7e222478efe17a2bc1106d15ecde3032519a4789800cd43ef4a790f38ff6b625.jpg",
    "url": "https://www.google.com/maps/search/?api=1&query=P.K%20Dream's%20Bike's%20Rider%20shop&query_place_id=ChIJl0TEtdXxqzsRCwPHjmhwYGU"
  },
  {
    "title": "Premm Caars/ used car dealer/second hand car dealer",
    "subTitle": "பிரேம் கார்ஸ்",
    "categoryName": "Car dealer",
    "address": "KAS Poonga Nagar, Omalur Main Rd, opp. to Sree Gokul Tiles Mart, Indirani Nagar, Narasothipatti, Salem, Tamil Nadu 636004, India",
    "neighborhood": "Indirani Nagar, Narasothipatti",
    "street": "KAS Poonga Nagar, Omalur Main Rd, opp. to Sree Gokul Tiles Mart",
    "city": "Salem",
    "postalCode": "636004",
    "state": "Tamil Nadu",
    "countryCode": "IN",
    "website": "https://premmcaars.phoenixmartservice.in/",
    "phone": "+919842755886",
    "phoneUnformatted": "+919842755886",
    "location": {
      "lat": 11.6795845,
      "lng": 78.1310197
    },
    "totalScore": 4.5,
    "permanentlyClosed": false,
    "temporarilyClosed": false,
    "placeId": "ChIJCSPZwmPwqzsRxrBC9E_fjOg",
    "categories": [
      "Car dealer"
    ],
    "reviewsCount": 26,
    "imagesCount": 19,
    "openingHours": [
      {
        "day": "Monday",
        "hours": "9 AM to 8 PM"
      },
      {
        "day": "Tuesday",
        "hours": "9 AM to 8 PM"
      },
      {
        "day": "Wednesday",
        "hours": "9 AM to 8 PM"
      },
      {
        "day": "Thursday",
        "hours": "9 AM to 8 PM"
      },
      {
        "day": "Friday",
        "hours": "9 AM to 8 PM"
      },
      {
        "day": "Saturday",
        "hours": "9 AM to 8 PM"
      },
      {
        "day": "Sunday",
        "hours": "10 AM to 4 PM"
      }
    ],
    "imageUrl": "https://media.indianluxurycars.com/google/e8d5f1f3cd2d1db6aa23022b95d82d6d64359b9c1afcd5ccba76a0b22685fc64.jpg",
    "url": "https://www.google.com/maps/search/?api=1&query=Premm%20Caars%2F%20used%20car%20dealer%2Fsecond%20hand%20car%20dealer&query_place_id=ChIJCSPZwmPwqzsRxrBC9E_fjOg"
  },
  {
    "title": "R R cars -Second hand car dealer,Used car dealer in salem",
    "categoryName": "Used car dealer",
    "address": "NEAR HP PETROL BUNK, opp. SM NEXA SHOW ROOM, Salem, Tamil Nadu 636010, India",
    "street": "NEAR HP PETROL BUNK, opp. SM NEXA SHOW ROOM",
    "city": "Salem",
    "postalCode": "636010",
    "state": "Tamil Nadu",
    "countryCode": "IN",
    "phone": "+919566552266",
    "phoneUnformatted": "+919566552266",
    "location": {
      "lat": 11.6373365,
      "lng": 78.1220246
    },
    "totalScore": 4.5,
    "permanentlyClosed": false,
    "temporarilyClosed": false,
    "placeId": "ChIJwfDNlm3xqzsReXCx2HuqNbA",
    "categories": [
      "Used car dealer"
    ],
    "reviewsCount": 15,
    "imagesCount": 361,
    "openingHours": [
      {
        "day": "Monday",
        "hours": "9:30 AM to 7 PM"
      },
      {
        "day": "Tuesday",
        "hours": "9:30 AM to 7 PM"
      },
      {
        "day": "Wednesday",
        "hours": "9:30 AM to 7 PM"
      },
      {
        "day": "Thursday",
        "hours": "9:30 AM to 7 PM"
      },
      {
        "day": "Friday",
        "hours": "9:30 AM to 7 PM"
      },
      {
        "day": "Saturday",
        "hours": "9:30 AM to 7 PM"
      },
      {
        "day": "Sunday",
        "hours": "9:30 AM to 7 PM"
      }
    ],
    "imageUrl": "https://media.indianluxurycars.com/google/fa112f7dc84469f5ab641e86ade2c5defafcf063f04bb5941e6bc7683800bb86.jpg",
    "url": "https://www.google.com/maps/search/?api=1&query=R%20R%20cars%20-Second%20hand%20car%20dealer%2CUsed%20car%20dealer%20in%20salem&query_place_id=ChIJwfDNlm3xqzsReXCx2HuqNbA"
  },
  {
    "title": "R. P. Cars - Used Cars dealer/Pre-owned Cars",
    "subTitle": "ஆர். பி. கார்ஸ் - ஸ்ட் கார்ஸ் டீலர்/பிரி-ஓனட கார்ஸ்",
    "categoryName": "Used car dealer",
    "address": "31, Tamil Sangam Rd, Sankar Nagar, Salem, Tamil Nadu 636007, India",
    "neighborhood": "Sankar Nagar",
    "street": "31, Tamil Sangam Rd",
    "city": "Salem",
    "postalCode": "636007",
    "state": "Tamil Nadu",
    "countryCode": "IN",
    "phone": "+919916000556",
    "phoneUnformatted": "+919916000556",
    "location": {
      "lat": 11.6613394,
      "lng": 78.1517781
    },
    "totalScore": 4.5,
    "permanentlyClosed": false,
    "temporarilyClosed": false,
    "placeId": "ChIJX87hXzTwqzsRCNPMaOxFmx4",
    "categories": [
      "Used car dealer"
    ],
    "reviewsCount": 21,
    "imagesCount": 221,
    "openingHours": [
      {
        "day": "Monday",
        "hours": "9 AM to 8 PM"
      },
      {
        "day": "Tuesday",
        "hours": "9 AM to 8 PM"
      },
      {
        "day": "Wednesday",
        "hours": "9 AM to 8 PM"
      },
      {
        "day": "Thursday",
        "hours": "9 AM to 8 PM"
      },
      {
        "day": "Friday",
        "hours": "9 AM to 8 PM"
      },
      {
        "day": "Saturday",
        "hours": "9 AM to 8 PM"
      },
      {
        "day": "Sunday",
        "hours": "9 AM to 2 PM"
      }
    ],
    "imageUrl": "https://media.indianluxurycars.com/google/a689eda2a0d078a8cbebc76899bcbad921dbd006594c8452ebe6b2bc6ba03eb9.jpg",
    "url": "https://www.google.com/maps/search/?api=1&query=R.%20P.%20Cars%20-%20Used%20Cars%20dealer%2FPre-owned%20Cars&query_place_id=ChIJX87hXzTwqzsRCNPMaOxFmx4"
  },
  {
    "title": "Rainbow Taxi & Travels",
    "categoryName": "Car rental agency",
    "address": "SAIBABA TEMPLE, 144/2, near MULLAI NAGAR, Suramangalam, Salem, Tamil Nadu 636005, India",
    "neighborhood": "Suramangalam",
    "street": "SAIBABA TEMPLE, 144/2, near MULLAI NAGAR",
    "city": "Salem",
    "postalCode": "636005",
    "state": "Tamil Nadu",
    "countryCode": "IN",
    "website": "https://rainbowtaxiandtravels.in/",
    "phone": "+919894338777",
    "phoneUnformatted": "+919894338777",
    "location": {
      "lat": 11.6658317,
      "lng": 78.1181204
    },
    "totalScore": 4.9,
    "permanentlyClosed": false,
    "temporarilyClosed": false,
    "placeId": "ChIJ-xRSUHjxqzsRwRu7GdXIpxA",
    "categories": [
      "Car rental agency",
      "Car leasing service",
      "Taxi service",
      "Minibus taxi service",
      "Travel agency"
    ],
    "reviewsCount": 124,
    "imagesCount": 66,
    "openingHours": [],
    "imageUrl": "https://media.indianluxurycars.com/google/d8fdd69f3b7e81365ceb3789ca458febca3fe83fed9dd87f4f603bdbd1f1e793.jpg",
    "url": "https://www.google.com/maps/search/?api=1&query=Rainbow%20Taxi%20%26%20Travels&query_place_id=ChIJ-xRSUHjxqzsRwRu7GdXIpxA"
  },
  {
    "title": "Relax Self drive Cars and bikes | self Drive cars in salem | Best car rental in salem | luxury car rentals in salem",
    "categoryName": "Car rental agency",
    "address": "left side, Khader khan street, national flag, opp. Railway Station, near Aavin porlour, Salem, Tamil Nadu 636005, India",
    "neighborhood": "Azad Nagar",
    "street": "left side, Khader khan street, national flag, opp. Railway Station, near Aavin porlour",
    "city": "Salem",
    "postalCode": "636005",
    "state": "Tamil Nadu",
    "countryCode": "IN",
    "website": "http://www.relaxbikes.com/",
    "phone": "+919500995853",
    "phoneUnformatted": "+919500995853",
    "location": {
      "lat": 11.6709758,
      "lng": 78.1143891
    },
    "totalScore": 4.6,
    "permanentlyClosed": false,
    "temporarilyClosed": false,
    "placeId": "ChIJlSw9QXPxqzsRAG1HSZTfVyo",
    "categories": [
      "Car rental agency",
      "Bus tour agency",
      "Car leasing service",
      "Car sharing location",
      "Motorcycle rental agency",
      "Rental car return location",
      "Scooter rental service",
      "Travel agency",
      "Truck rental agency",
      "Van rental agency"
    ],
    "reviewsCount": 305,
    "imagesCount": 116,
    "openingHours": [
      {
        "day": "Monday",
        "hours": "6:30 AM to 9:30 PM"
      },
      {
        "day": "Tuesday",
        "hours": "6:30 AM to 9:30 PM"
      },
      {
        "day": "Wednesday",
        "hours": "6:30 AM to 9:30 PM"
      },
      {
        "day": "Thursday",
        "hours": "6:30 AM to 9:30 PM"
      },
      {
        "day": "Friday",
        "hours": "5 AM to 9:30 PM"
      },
      {
        "day": "Saturday",
        "hours": "5 AM to 9:30 PM"
      },
      {
        "day": "Sunday",
        "hours": "5 AM to 9:30 PM"
      }
    ],
    "imageUrl": "https://media.indianluxurycars.com/google/5ee0f10ba4e306988b01a472ed170293b52e085bef555375b4d3701607765131.jpg",
    "url": "https://www.google.com/maps/search/?api=1&query=Relax%20Self%20drive%20Cars%20and%20bikes%20%7C%20self%20Drive%20cars%20in%20salem%20%7C%20Best%20car%20rental%20in%20salem%20%7C%20luxury%20car%20rentals%20in%20salem&query_place_id=ChIJlSw9QXPxqzsRAG1HSZTfVyo"
  },
  {
    "title": "S7 Cars Škoda Showroom",
    "categoryName": "Car dealer",
    "address": "No 274, 3rd St, Subbarayan Nagar, Mamangam, Salem, Tamil Nadu 636302, India",
    "neighborhood": "Subbarayan Nagar, Mamangam",
    "street": "No 274, 3rd St",
    "city": "Salem",
    "postalCode": "636302",
    "state": "Tamil Nadu",
    "countryCode": "IN",
    "website": "https://dealers.skoda-auto.co.in/s7-cars-skoda-showroom-s7-cars-india-pvt-ltd-car-dealer-mamangam-salem-67753/Home",
    "phone": "+918740085555",
    "phoneUnformatted": "+918740085555",
    "location": {
      "lat": 11.6905985,
      "lng": 78.1152753
    },
    "totalScore": 4.7,
    "permanentlyClosed": false,
    "temporarilyClosed": false,
    "placeId": "ChIJ5V57ZGbwqzsRyFtioIJcDeA",
    "categories": [
      "Car dealer",
      "Auto dent removal service",
      "Car accessories store",
      "Skoda dealer"
    ],
    "reviewsCount": 698,
    "imagesCount": 370,
    "openingHours": [
      {
        "day": "Monday",
        "hours": "10 AM to 7 PM"
      },
      {
        "day": "Tuesday",
        "hours": "10 AM to 7 PM"
      },
      {
        "day": "Wednesday",
        "hours": "10 AM to 7 PM"
      },
      {
        "day": "Thursday",
        "hours": "10 AM to 7 PM"
      },
      {
        "day": "Friday",
        "hours": "10 AM to 7 PM"
      },
      {
        "day": "Saturday",
        "hours": "10 AM to 7 PM"
      },
      {
        "day": "Sunday",
        "hours": "10 AM to 7 PM"
      }
    ],
    "imageUrl": "https://media.indianluxurycars.com/google/d1ff3cdcaf124d1c4caae42767a90df2fb6a45b4f397e4126e920c4fcc4bc2f8.jpg",
    "url": "https://www.google.com/maps/search/?api=1&query=S7%20Cars%20%C5%A0koda%20Showroom&query_place_id=ChIJ5V57ZGbwqzsRyFtioIJcDeA"
  },
  {
    "title": "SALEM VAN TEMPO TRAVELLER",
    "categoryName": "Car rental agency",
    "address": "60, Ams Arcade, Court Rd, Hasthampatti, Salem, Tamil Nadu 636007, India",
    "neighborhood": "Gurukkal Colony, Hasthampatti",
    "street": "60, Ams Arcade, Court Rd",
    "city": "Salem",
    "postalCode": "636007",
    "state": "Tamil Nadu",
    "countryCode": "IN",
    "phone": "+919994320883",
    "phoneUnformatted": "+919994320883",
    "location": {
      "lat": 11.6765249,
      "lng": 78.1636711
    },
    "totalScore": 4.6,
    "permanentlyClosed": false,
    "temporarilyClosed": false,
    "placeId": "ChIJf6mp57HxqzsRSDDOU1JEdfo",
    "categories": [
      "Car rental agency",
      "Car leasing service",
      "Taxi service",
      "Travel agency"
    ],
    "reviewsCount": 299,
    "imagesCount": 178,
    "openingHours": [],
    "imageUrl": "https://media.indianluxurycars.com/google/5598c26b17232084c728ff01eb152cde322d40aa57327d7e8d8038bb6f23e613.jpg",
    "url": "https://www.google.com/maps/search/?api=1&query=SALEM%20VAN%20TEMPO%20TRAVELLER&query_place_id=ChIJf6mp57HxqzsRSDDOU1JEdfo"
  },
  {
    "title": "SELVI CAR RENTAL SERVICE IN SALEM,Car On hire,Innova Car Rental for Outstation,Bus,Van, Tempo Traveller On hire",
    "categoryName": "Car rental agency",
    "address": "FIRST FLOOR, POLICE STATION, 78, LADAKARA STREET 12 TH WARD ,NEAR KANNANKURUCHI, Salem, Tamil Nadu 636008, India",
    "neighborhood": "Ramanathapuram",
    "street": "FIRST FLOOR, POLICE STATION, 78, LADAKARA STREET 12 TH WARD ,NEAR KANNANKURUCHI",
    "city": "Salem",
    "postalCode": "636008",
    "state": "Tamil Nadu",
    "countryCode": "IN",
    "website": "https://selvitravelscarren.wixsite.com/website-1",
    "phone": "+917373874447",
    "phoneUnformatted": "+917373874447",
    "location": {
      "lat": 11.6839326,
      "lng": 78.1748021
    },
    "totalScore": 4.9,
    "permanentlyClosed": false,
    "temporarilyClosed": false,
    "placeId": "ChIJh2452ebxqzsR3vdkq-F1zyg",
    "categories": [
      "Car rental agency",
      "Car leasing service",
      "Tour agency",
      "Travel agency"
    ],
    "reviewsCount": 456,
    "imagesCount": 18,
    "openingHours": [
      {
        "day": "Monday",
        "hours": "Open 24 hours"
      },
      {
        "day": "Tuesday",
        "hours": "Open 24 hours"
      },
      {
        "day": "Wednesday",
        "hours": "Open 24 hours"
      },
      {
        "day": "Thursday",
        "hours": "Open 24 hours"
      },
      {
        "day": "Friday",
        "hours": "Open 24 hours"
      },
      {
        "day": "Saturday",
        "hours": "Open 24 hours"
      },
      {
        "day": "Sunday",
        "hours": "Open 24 hours"
      }
    ],
    "imageUrl": "https://media.indianluxurycars.com/google/94ffbc88921238fbedbdd75e14cbd46bb8fa7e9a2048197a92be05b297174ce9.jpg",
    "url": "https://www.google.com/maps/search/?api=1&query=SELVI%20CAR%20RENTAL%20SERVICE%20IN%20SALEM%2CCar%20On%20hire%2CInnova%20Car%20Rental%20for%20Outstation%2CBus%2CVan%2C%20Tempo%20Traveller%20On%20hire&query_place_id=ChIJh2452ebxqzsR3vdkq-F1zyg"
  },
  {
    "title": "Siyon auto consulting",
    "categoryName": "Motor vehicle dealer",
    "address": "MDR439, Solampallam, Old Suramangalam, Salem, Tamil Nadu 636005, India",
    "neighborhood": "LVB Steel Nagar, Solampallam, Old Suramangalam",
    "street": "MDR439",
    "city": "Salem",
    "postalCode": "636005",
    "state": "Tamil Nadu",
    "countryCode": "IN",
    "website": "https://youtube.com/@siyonautoconsulting?si=Ii_S8QbqmNOhn-T9",
    "phone": "+919566810888",
    "phoneUnformatted": "+919566810888",
    "location": {
      "lat": 11.6733256,
      "lng": 78.1005087
    },
    "totalScore": 4.6,
    "permanentlyClosed": false,
    "temporarilyClosed": false,
    "placeId": "ChIJW0rPlrf7qzsRFQiJW6QVv4c",
    "categories": [
      "Motor vehicle dealer",
      "Used car dealer",
      "Used truck dealer"
    ],
    "reviewsCount": 675,
    "imagesCount": 400,
    "openingHours": [
      {
        "day": "Monday",
        "hours": "9 AM to 7 PM"
      },
      {
        "day": "Tuesday",
        "hours": "9 AM to 7 PM"
      },
      {
        "day": "Wednesday",
        "hours": "9 AM to 7 PM"
      },
      {
        "day": "Thursday",
        "hours": "9 AM to 7 PM"
      },
      {
        "day": "Friday",
        "hours": "9 AM to 7 PM"
      },
      {
        "day": "Saturday",
        "hours": "9 AM to 7 PM"
      },
      {
        "day": "Sunday",
        "hours": "Closed"
      }
    ],
    "imageUrl": "https://media.indianluxurycars.com/google/b979cdab9e59163ee6a238c1f7f98cb8ef74d041f83c241434e4e7c042ad29fe.jpg",
    "url": "https://www.google.com/maps/search/?api=1&query=Siyon%20auto%20consulting&query_place_id=ChIJW0rPlrf7qzsRFQiJW6QVv4c"
  },
  {
    "title": "SRI RAAM CARS",
    "categoryName": "Used car dealer",
    "address": "63/1 Chairman, Venkatappan Rd, Shevapet, Salem, Tamil Nadu 636002, India",
    "neighborhood": "Shevapet",
    "street": "63/1 Chairman, Venkatappan Rd",
    "city": "Salem",
    "postalCode": "636002",
    "state": "Tamil Nadu",
    "countryCode": "IN",
    "location": {
      "lat": 11.6572478,
      "lng": 78.150794
    },
    "totalScore": 5,
    "permanentlyClosed": false,
    "temporarilyClosed": false,
    "placeId": "ChIJT0KCoibxqzsRmg7Qv8qAxGE",
    "categories": [
      "Used car dealer"
    ],
    "reviewsCount": 2,
    "imagesCount": 24,
    "openingHours": [
      {
        "day": "Monday",
        "hours": "Open 24 hours"
      },
      {
        "day": "Tuesday",
        "hours": "Open 24 hours"
      },
      {
        "day": "Wednesday",
        "hours": "Open 24 hours"
      },
      {
        "day": "Thursday",
        "hours": "Open 24 hours"
      },
      {
        "day": "Friday",
        "hours": "Open 24 hours"
      },
      {
        "day": "Saturday",
        "hours": "Open 24 hours"
      },
      {
        "day": "Sunday",
        "hours": "10 AM to 1 PM"
      }
    ],
    "imageUrl": "https://media.indianluxurycars.com/google/de44469ca979196662fe682cb2f9136e6aebee6b5ab801113b75cb9695b90516.jpg",
    "url": "https://www.google.com/maps/search/?api=1&query=SRI%20RAAM%20CARS&query_place_id=ChIJT0KCoibxqzsRmg7Qv8qAxGE"
  },
  {
    "title": "Sri Venkateswara Car's",
    "subTitle": "ஶ்ரீ வெங்கடேஸ்வர கார்ஸ்",
    "categoryName": "Used car dealer",
    "address": "M4HJ+W32, Opp. ANS Dhinyam Jewels, Omalur Main Rd, near Syndicate Bank, Koranguchavadi, Salem, Tamil Nadu 636004, India",
    "neighborhood": "Indirani Nagar, Koranguchavadi",
    "street": "M4HJ+W32, Opp. ANS Dhinyam Jewels, Omalur Main Rd, near Syndicate Bank",
    "city": "Salem",
    "postalCode": "636004",
    "state": "Tamil Nadu",
    "countryCode": "IN",
    "phone": "+919842734005",
    "phoneUnformatted": "+919842734005",
    "location": {
      "lat": 11.6797578,
      "lng": 78.1301276
    },
    "totalScore": 5,
    "permanentlyClosed": false,
    "temporarilyClosed": false,
    "placeId": "ChIJ9SFk3WbwqzsRGrLroxslGk4",
    "categories": [
      "Used car dealer",
      "Auto broker"
    ],
    "reviewsCount": 9,
    "imagesCount": 237,
    "openingHours": [
      {
        "day": "Monday",
        "hours": "9:30 AM to 8 PM"
      },
      {
        "day": "Tuesday",
        "hours": "9:30 AM to 8 PM"
      },
      {
        "day": "Wednesday",
        "hours": "9:30 AM to 8 PM"
      },
      {
        "day": "Thursday",
        "hours": "9:30 AM to 8 PM"
      },
      {
        "day": "Friday",
        "hours": "9:30 AM to 8 PM"
      },
      {
        "day": "Saturday",
        "hours": "9:30 AM to 8 PM"
      },
      {
        "day": "Sunday",
        "hours": "10 AM to 6 PM"
      }
    ],
    "imageUrl": "https://media.indianluxurycars.com/google/fb1af6ba974819f4684e387f53f4e82dce54f01f2beed937492532ae14610b69.jpg",
    "url": "https://www.google.com/maps/search/?api=1&query=Sri%20Venkateswara%20Car's&query_place_id=ChIJ9SFk3WbwqzsRGrLroxslGk4"
  },
  {
    "title": "Tania tours & travels",
    "categoryName": "Car rental agency",
    "address": "101/66, Veeranam Main Rd, near Puthu MariYamman Kovil, Puthumariamman Kovil, Ponnammapet, Salem, Tamil Nadu 636001, India",
    "neighborhood": "Puthumariamman Kovil, Ponnammapet",
    "street": "101/66, Veeranam Main Rd, near Puthu MariYamman Kovil",
    "city": "Salem",
    "postalCode": "636001",
    "state": "Tamil Nadu",
    "countryCode": "IN",
    "location": {
      "lat": 11.6653363,
      "lng": 78.1768119
    },
    "totalScore": 4.9,
    "permanentlyClosed": false,
    "temporarilyClosed": false,
    "placeId": "ChIJkfryAgDxqzsRL9u_6fNRs8c",
    "categories": [
      "Car rental agency",
      "Car leasing service",
      "Taxi service",
      "Minibus taxi service",
      "Travel agency"
    ],
    "reviewsCount": 12,
    "imagesCount": 20,
    "openingHours": [],
    "imageUrl": "https://media.indianluxurycars.com/google/f7bf9c1b5eaacefc33e7f19a4f753fec83e25fdc224df804b0cfaf79d1552d27.jpg",
    "url": "https://www.google.com/maps/search/?api=1&query=Tania%20tours%20%26%20travels&query_place_id=ChIJkfryAgDxqzsRL9u_6fNRs8c"
  },
  {
    "title": "Tata Motors",
    "subTitle": "டாடா மோட்டார்ஸ்",
    "categoryName": "Car dealer",
    "address": "15, Cherry Rd, Subbarayan Layout, Hasthampatti, Salem, Tamil Nadu 636007, India",
    "neighborhood": "Subbarayan Layout, Hasthampatti",
    "street": "15, Cherry Rd",
    "city": "Salem",
    "postalCode": "636007",
    "state": "Tamil Nadu",
    "countryCode": "IN",
    "website": "https://dealer-locator.cars.tatamotors.com/",
    "phone": "+9118002097979",
    "phoneUnformatted": "+9118002097979",
    "location": {
      "lat": 11.6721681,
      "lng": 78.1584733
    },
    "totalScore": 4.1,
    "permanentlyClosed": false,
    "temporarilyClosed": false,
    "placeId": "ChIJyy8qbLPxqzsRQwCRS4EaLVk",
    "categories": [
      "Car dealer"
    ],
    "reviewsCount": 66,
    "imagesCount": 1,
    "openingHours": [
      {
        "day": "Monday",
        "hours": "8 AM to 6 PM"
      },
      {
        "day": "Tuesday",
        "hours": "8 AM to 6 PM"
      },
      {
        "day": "Wednesday",
        "hours": "8 AM to 6 PM"
      },
      {
        "day": "Thursday",
        "hours": "8 AM to 6 PM"
      },
      {
        "day": "Friday",
        "hours": "8 AM to 6 PM"
      },
      {
        "day": "Saturday",
        "hours": "8 AM to 6 PM"
      },
      {
        "day": "Sunday",
        "hours": "Closed"
      }
    ],
    "imageUrl": "https://media.indianluxurycars.com/google/e34a4fe28b5567bb16a06f6f53bd012f1936a17409ee32a45a6fb1ef3cc005b6.jpg",
    "url": "https://www.google.com/maps/search/?api=1&query=Tata%20Motors&query_place_id=ChIJyy8qbLPxqzsRQwCRS4EaLVk"
  },
  {
    "title": "Thillai My Own Cars - Used Car in Salem | Used Car Seller in Salem | Used Car Dealers in Salem",
    "categoryName": "Used car dealer",
    "address": "No 43, Attur Main Road, near MSK Kalyana Mandabam, Rajaram Nagar, Hasthampatti, Salem, Tamil Nadu 636007, India",
    "neighborhood": "Rajaram Nagar, Hasthampatti",
    "street": "No 43, Attur Main Road, near MSK Kalyana Mandabam",
    "city": "Salem",
    "postalCode": "636007",
    "state": "Tamil Nadu",
    "countryCode": "IN",
    "phone": "+918220074387",
    "phoneUnformatted": "+918220074387",
    "location": {
      "lat": 11.6601073,
      "lng": 78.1558653
    },
    "totalScore": 3.8,
    "permanentlyClosed": false,
    "temporarilyClosed": false,
    "placeId": "ChIJYbD1WvvxqzsR6svOl3kzwoI",
    "categories": [
      "Used car dealer"
    ],
    "reviewsCount": 9,
    "imagesCount": 59,
    "openingHours": [
      {
        "day": "Monday",
        "hours": "Open 24 hours"
      },
      {
        "day": "Tuesday",
        "hours": "Open 24 hours"
      },
      {
        "day": "Wednesday",
        "hours": "Open 24 hours"
      },
      {
        "day": "Thursday",
        "hours": "Open 24 hours"
      },
      {
        "day": "Friday",
        "hours": "Open 24 hours"
      },
      {
        "day": "Saturday",
        "hours": "Open 24 hours"
      },
      {
        "day": "Sunday",
        "hours": "Open 24 hours"
      }
    ],
    "imageUrl": "https://media.indianluxurycars.com/google/2857bc7b7cb444bda970ef9c9cb6bd9188267b39e353a3f73f7350f24424dd60.jpg",
    "url": "https://www.google.com/maps/search/?api=1&query=Thillai%20My%20Own%20Cars%20-%20Used%20Car%20in%20Salem%20%7C%20Used%20Car%20Seller%20in%20Salem%20%7C%20Used%20Car%20Dealers%20in%20Salem&query_place_id=ChIJYbD1WvvxqzsR6svOl3kzwoI"
  },
  {
    "title": "Update Cars",
    "categoryName": "Car dealer",
    "address": "J4V9+9VW, Flyover, Sandaipet, Kondalampatti, Salem, Tamil Nadu 636010, India",
    "neighborhood": "Sandaipet, Kondalampatti",
    "street": "J4V9+9VW, Flyover",
    "city": "Salem",
    "postalCode": "636010",
    "state": "Tamil Nadu",
    "countryCode": "IN",
    "location": {
      "lat": 11.6434997,
      "lng": 78.1197083
    },
    "totalScore": 4.9,
    "permanentlyClosed": false,
    "temporarilyClosed": false,
    "placeId": "ChIJc-2aUQDxqzsRWOKs_xBBsb0",
    "categories": [
      "Car dealer"
    ],
    "reviewsCount": 242,
    "imagesCount": 39,
    "openingHours": [
      {
        "day": "Monday",
        "hours": "9:30 AM to 9 PM"
      },
      {
        "day": "Tuesday",
        "hours": "9:30 AM to 9 PM"
      },
      {
        "day": "Wednesday",
        "hours": "9:30 AM to 9 PM"
      },
      {
        "day": "Thursday",
        "hours": "9:30 AM to 9 PM"
      },
      {
        "day": "Friday",
        "hours": "9:30 AM to 9 PM"
      },
      {
        "day": "Saturday",
        "hours": "9:30 AM to 9 PM"
      },
      {
        "day": "Sunday",
        "hours": "9:30 AM to 9 PM"
      }
    ],
    "imageUrl": "https://media.indianluxurycars.com/google/1a8ce333f7424cda01f552e81dcac2c57c7a41ee1a8e2a784e4f2b7644d066dc.jpg",
    "url": "https://www.google.com/maps/search/?api=1&query=Update%20Cars&query_place_id=ChIJc-2aUQDxqzsRWOKs_xBBsb0"
  }
]
