[
  {
    "title": "Champion Cars",
    "subTitle": "चॅम्पियन कार्स",
    "categoryName": "Car dealer",
    "address": "near Maruthi Showroom, Sangli, Maharashtra 416416, India",
    "street": "near Maruthi Showroom",
    "city": "Sangli",
    "postalCode": "416416",
    "state": "Maharashtra",
    "countryCode": "IN",
    "website": "https://wa.me/c/919755269494",
    "phone": "+919175959898",
    "phoneUnformatted": "+919175959898",
    "location": {
      "lat": 16.8232456,
      "lng": 74.5664154
    },
    "totalScore": 4,
    "permanentlyClosed": false,
    "temporarilyClosed": false,
    "placeId": "ChIJwRROe-wYwTsR2oBlgUXmg7M",
    "categories": [
      "Car dealer"
    ],
    "reviewsCount": 40,
    "imagesCount": 95,
    "openingHours": [
      {
        "day": "Monday",
        "hours": "10:30 AM to 7:29 PM"
      },
      {
        "day": "Tuesday",
        "hours": "10:30 AM to 7:29 PM"
      },
      {
        "day": "Wednesday",
        "hours": "10:30 AM to 7:29 PM"
      },
      {
        "day": "Thursday",
        "hours": "10:30 AM to 7:29 PM"
      },
      {
        "day": "Friday",
        "hours": "10:30 AM to 7:29 PM"
      },
      {
        "day": "Saturday",
        "hours": "10:30 AM to 7:29 PM"
      },
      {
        "day": "Sunday",
        "hours": "10:30 AM to 7:29 PM"
      }
    ],
    "imageUrl": "https://media.indianluxurycars.com/google/003d5c5df9977ffb956759e0ac84916fc00c798825a1c5478071a5af7d5a11ee.jpg",
    "url": "https://www.google.com/maps/search/?api=1&query=Champion%20Cars&query_place_id=ChIJwRROe-wYwTsR2oBlgUXmg7M"
  },
  {
    "title": "Sangli Motors",
    "subTitle": "सांगली मोटर्स",
    "categoryName": "Used car dealer",
    "address": "Skoda Showroom, near Kolhapur - Sangli Highway, Sangli, Maharashtra 416416, India",
    "street": "Skoda Showroom, near Kolhapur - Sangli Highway",
    "city": "Sangli",
    "state": "Maharashtra",
    "countryCode": "IN",
    "phone": "+917020261065",
    "phoneUnformatted": "+917020261065",
    "location": {
      "lat": 16.8305524,
      "lng": 74.5655562
    },
    "totalScore": 4.7,
    "permanentlyClosed": false,
    "temporarilyClosed": false,
    "placeId": "ChIJOe-xE6IZwTsRfSeuKMU8cmg",
    "categories": [
      "Used car dealer"
    ],
    "reviewsCount": 10,
    "imagesCount": 83,
    "openingHours": [
      {
        "day": "Monday",
        "hours": "10 AM to 7 PM"
      },
      {
        "day": "Tuesday",
        "hours": "10 AM to 7 PM"
      },
      {
        "day": "Wednesday",
        "hours": "10 AM to 7 PM"
      },
      {
        "day": "Thursday",
        "hours": "10 AM to 7 PM"
      },
      {
        "day": "Friday",
        "hours": "10 AM to 7 PM"
      },
      {
        "day": "Saturday",
        "hours": "10 AM to 7 PM"
      },
      {
        "day": "Sunday",
        "hours": "10 AM to 7 PM"
      }
    ],
    "imageUrl": "https://media.indianluxurycars.com/google/c19759f086c5ed29808170940f11ad39c3a93afb75e765705ade9d254c12e149.jpg",
    "url": "https://www.google.com/maps/search/?api=1&query=Sangli%20Motors&query_place_id=ChIJOe-xE6IZwTsRfSeuKMU8cmg"
  },
  {
    "title": "SPEED MOTORS - BEST PRE OWNED CARS IN SANGLI",
    "subTitle": "स्पीड मोटर्स - बेस्ट प्री ओन्ड कार्स इन सांगली",
    "categoryName": "Car dealer",
    "address": "Kolhapur Rd, beside saurabh hotel, Ram Nagar, Sangli, Maharashtra 416416, India",
    "neighborhood": "Ram Nagar",
    "street": "Kolhapur Rd, beside saurabh hotel",
    "city": "Sangli",
    "postalCode": "416416",
    "state": "Maharashtra",
    "countryCode": "IN",
    "phone": "+917620339394",
    "phoneUnformatted": "+917620339394",
    "location": {
      "lat": 16.83199,
      "lng": 74.5648634
    },
    "totalScore": 5,
    "permanentlyClosed": false,
    "temporarilyClosed": false,
    "placeId": "ChIJn-kym-0ZwTsR8__XTbuaJQU",
    "categories": [
      "Car dealer"
    ],
    "reviewsCount": 2,
    "imagesCount": 6,
    "openingHours": [
      {
        "day": "Monday",
        "hours": "10 AM to 5:30 PM"
      },
      {
        "day": "Tuesday",
        "hours": "10 AM to 5:30 PM"
      },
      {
        "day": "Wednesday",
        "hours": "10 AM to 5:30 PM"
      },
      {
        "day": "Thursday",
        "hours": "10 AM to 5:30 PM"
      },
      {
        "day": "Friday",
        "hours": "10 AM to 5:30 PM"
      },
      {
        "day": "Saturday",
        "hours": "10 AM to 5:30 PM"
      },
      {
        "day": "Sunday",
        "hours": "10 AM to 5:30 PM"
      }
    ],
    "imageUrl": "https://media.indianluxurycars.com/google/2a0b012d281dd070c833fa22064f3f59ba4ed561a9cc08303b116e973e1ac5c6.jpg",
    "url": "https://www.google.com/maps/search/?api=1&query=SPEED%20MOTORS%20-%20BEST%20PRE%20OWNED%20CARS%20IN%20SANGLI&query_place_id=ChIJn-kym-0ZwTsR8__XTbuaJQU"
  }
]
