[
  {
    "title": "Auto Pride",
    "subTitle": "ఆటో ప్రైడ్",
    "categoryName": "Used car dealer",
    "address": "# 1-8-30, 5/5, Minister Rd, Ramgopalpet, Secunderabad, Telangana 500003, India",
    "neighborhood": "Patigadda, Ramgopalpet",
    "street": "# 1-8-30, 5/5, Minister Rd",
    "city": "Secunderabad, Hyderabad",
    "postalCode": "500003",
    "state": "Telangana",
    "countryCode": "IN",
    "phone": "+914066807776",
    "phoneUnformatted": "+914066807776",
    "location": {
      "lat": 17.434909,
      "lng": 78.4834963
    },
    "totalScore": 2.7,
    "permanentlyClosed": false,
    "temporarilyClosed": false,
    "placeId": "ChIJkwjWXwSayzsRsMpsZ_TIhQk",
    "categories": [
      "Used car dealer",
      "Chauffeur service"
    ],
    "reviewsCount": 3,
    "imagesCount": 3,
    "openingHours": [
      {
        "day": "Monday",
        "hours": "10 AM to 9:30 PM"
      },
      {
        "day": "Tuesday",
        "hours": "10 AM to 9:30 PM"
      },
      {
        "day": "Wednesday",
        "hours": "10 AM to 9:30 PM"
      },
      {
        "day": "Thursday",
        "hours": "10 AM to 9:30 PM"
      },
      {
        "day": "Friday",
        "hours": "10 AM to 9:30 PM"
      },
      {
        "day": "Saturday",
        "hours": "10 AM to 9:30 PM"
      },
      {
        "day": "Sunday",
        "hours": "10 AM to 9:30 PM"
      }
    ],
    "imageUrl": "https://media.indianluxurycars.com/google/13db279811b45a56a7470acdf6a3cb7f2602073501e782535ef6fb8c5f4fd15f.jpg",
    "url": "https://www.google.com/maps/search/?api=1&query=Auto%20Pride&query_place_id=ChIJkwjWXwSayzsRsMpsZ_TIhQk"
  },
  {
    "title": "MUJEEB CARS (CHILKALGUDA) best second hand car dealer in Hyderabad",
    "categoryName": "Used car dealer",
    "address": "Plot no.518/1, near Chandra concept school, Chilkalguda, Padmarao Nagar, Secunderabad, Hyderabad, Telangana 500061, India",
    "neighborhood": "Chilkalguda, Padmarao Nagar",
    "street": "Plot no.518/1, near Chandra concept school",
    "city": "Secunderabad, Hyderabad",
    "postalCode": "500061",
    "state": "Telangana",
    "countryCode": "IN",
    "phone": "+917095061026",
    "phoneUnformatted": "+917095061026",
    "location": {
      "lat": 17.4285985,
      "lng": 78.5114417
    },
    "totalScore": 4.7,
    "permanentlyClosed": false,
    "temporarilyClosed": false,
    "placeId": "ChIJh8cRG7OZyzsR-X6O9rwI7Y4",
    "categories": [
      "Used car dealer"
    ],
    "reviewsCount": 10,
    "imagesCount": 10,
    "openingHours": [
      {
        "day": "Monday",
        "hours": "Open 24 hours"
      },
      {
        "day": "Tuesday",
        "hours": "Open 24 hours"
      },
      {
        "day": "Wednesday",
        "hours": "Open 24 hours"
      },
      {
        "day": "Thursday",
        "hours": "Open 24 hours"
      },
      {
        "day": "Friday",
        "hours": "Open 24 hours"
      },
      {
        "day": "Saturday",
        "hours": "Open 24 hours"
      },
      {
        "day": "Sunday",
        "hours": "Open 24 hours"
      }
    ],
    "imageUrl": "https://media.indianluxurycars.com/google/3a547313483e28bf2874291995f7d1b1d57a18877ba905b786afb0dec72b95fa.jpg",
    "url": "https://www.google.com/maps/search/?api=1&query=MUJEEB%20CARS%20(CHILKALGUDA)%20best%20second%20hand%20car%20dealer%20in%20Hyderabad&query_place_id=ChIJh8cRG7OZyzsR-X6O9rwI7Y4"
  },
  {
    "title": "The Car Shop",
    "categoryName": "Car dealer",
    "address": "J.B. Residency, 1-8-285, PG Road, Sindhi Colony, Begumpet, Secunderabad, Hyderabad, Telangana 500003, India",
    "neighborhood": "Sindhi Colony, Begumpet",
    "street": "J.B. Residency, 1-8-285, PG Road",
    "city": "Secunderabad, Hyderabad",
    "postalCode": "500003",
    "state": "Telangana",
    "countryCode": "IN",
    "website": "https://www.facebook.com/thecarshop245/",
    "phone": "+919100955559",
    "phoneUnformatted": "+919100955559",
    "location": {
      "lat": 17.4414517,
      "lng": 78.4807325
    },
    "totalScore": 4.5,
    "permanentlyClosed": false,
    "temporarilyClosed": false,
    "placeId": "ChIJTYDbbNqbyzsRuZF2rzwjN40",
    "categories": [
      "Car dealer",
      "Used car dealer"
    ],
    "reviewsCount": 42,
    "imagesCount": 34,
    "openingHours": [
      {
        "day": "Monday",
        "hours": "10 AM to 7 PM"
      },
      {
        "day": "Tuesday",
        "hours": "10 AM to 7 PM"
      },
      {
        "day": "Wednesday",
        "hours": "10 AM to 7 PM"
      },
      {
        "day": "Thursday",
        "hours": "10 AM to 7 PM"
      },
      {
        "day": "Friday",
        "hours": "10 AM to 7 PM"
      },
      {
        "day": "Saturday",
        "hours": "10 AM to 7 PM"
      },
      {
        "day": "Sunday",
        "hours": "10 AM to 4 PM"
      }
    ],
    "imageUrl": "https://media.indianluxurycars.com/google/ed40a89ba568e1c87335775165619dd866ab448e20f2f7e9b902890822a630e2.jpg",
    "url": "https://www.google.com/maps/search/?api=1&query=The%20Car%20Shop&query_place_id=ChIJTYDbbNqbyzsRuZF2rzwjN40"
  }
]
