[
  {
    "title": "Chitra Cars – Trusted Since 1996(29 YEARS OLD)| New & Used Cars",
    "subTitle": "చిత్ర కార్స్",
    "categoryName": "Used car dealer",
    "address": "Lothukunta Rd, Laxmi Nagar, Alwal, Secunderabad, Telangana 500010, India",
    "neighborhood": "Laxmi Nagar, Alwal",
    "street": "Lothukunta Rd",
    "city": "Secunderabad",
    "postalCode": "500010",
    "state": "Telangana",
    "countryCode": "IN",
    "website": "http://www.chitracars.com/",
    "phone": "+919951899518",
    "phoneUnformatted": "+919951899518",
    "location": {
      "lat": 17.4947487,
      "lng": 78.5125322
    },
    "totalScore": 4.6,
    "permanentlyClosed": false,
    "temporarilyClosed": false,
    "placeId": "ChIJNzMvguaayzsRSXvTyCfMJQY",
    "categories": [
      "Used car dealer",
      "Auto auction",
      "Auto broker",
      "Car dealer",
      "Car factory",
      "DS Automobiles dealer",
      "Loan agency",
      "Motoring club",
      "Parking lot"
    ],
    "reviewsCount": 273,
    "imagesCount": 1315,
    "openingHours": [
      {
        "day": "Monday",
        "hours": "9 AM to 8 PM"
      },
      {
        "day": "Tuesday",
        "hours": "9 AM to 8 PM"
      },
      {
        "day": "Wednesday",
        "hours": "9 AM to 8 PM"
      },
      {
        "day": "Thursday",
        "hours": "9 AM to 8 PM"
      },
      {
        "day": "Friday",
        "hours": "9 AM to 8 PM"
      },
      {
        "day": "Saturday",
        "hours": "9 AM to 8 PM"
      },
      {
        "day": "Sunday",
        "hours": "9 AM to 8 PM"
      }
    ],
    "imageUrl": "https://lh3.googleusercontent.com/gps-cs-s/AG0ilSyN5Qj2vKzJhWvJKcJwh3xv8Um08S3SQIp2vJRVvHKohO6zu_Vtww-Lwp-w2dRhhNL7a70uvGeHwjowOy_kWPQYELrys7T2Q1rac2BVlZOLCOzD_9lF1v79LexxZhE4RhAxCV3qy9yGPZSs=w408-h306-k-no",
    "url": "https://www.google.com/maps/search/?api=1&query=Chitra%20Cars%20%E2%80%93%20Trusted%20Since%201996(29%20YEARS%20OLD)%7C%20New%20%26%20Used%20Cars&query_place_id=ChIJNzMvguaayzsRSXvTyCfMJQY"
  },
  {
    "title": "CLOCK TOWER CARZ",
    "categoryName": "Used car dealer",
    "address": "Sarojini Devi Rd, Regimental Bazaar, Kalasiguda, Secunderabad, Telangana 500003, India",
    "neighborhood": "Regimental Bazaar, Kalasiguda",
    "street": "Sarojini Devi Rd",
    "city": "Secunderabad",
    "postalCode": "500003",
    "state": "Telangana",
    "countryCode": "IN",
    "phone": "+917013230374",
    "phoneUnformatted": "+917013230374",
    "location": {
      "lat": 17.4407046,
      "lng": 78.4992809
    },
    "totalScore": 4.7,
    "permanentlyClosed": false,
    "temporarilyClosed": false,
    "placeId": "ChIJ3yftUqabyzsRRj_iMRi-P78",
    "categories": [
      "Used car dealer"
    ],
    "reviewsCount": 91,
    "imagesCount": 62,
    "openingHours": [
      {
        "day": "Monday",
        "hours": "10:30 AM to 9:30 PM"
      },
      {
        "day": "Tuesday",
        "hours": "10:30 AM to 9:30 PM"
      },
      {
        "day": "Wednesday",
        "hours": "10:30 AM to 9:30 PM"
      },
      {
        "day": "Thursday",
        "hours": "10:30 AM to 9:30 PM"
      },
      {
        "day": "Friday",
        "hours": "10:30 AM to 9:30 PM"
      },
      {
        "day": "Saturday",
        "hours": "10:30 AM to 9:30 PM"
      },
      {
        "day": "Sunday",
        "hours": "10:30 AM to 9:30 PM"
      }
    ],
    "imageUrl": "https://lh3.googleusercontent.com/gps-cs-s/AG0ilSyvUVt49y_9hRse8P-I3_oE2lbjpobeB6mY4pgtu7kdX0tHsG1rFO0XLSXcs4jmXeTZla2d1fUXaAnSz3h-HCL16Gsy6twE2bSCKfrA5HICdR8G3UI8wVFFAJKXr8pZ9GcyNDrqyQ=w408-h306-k-no",
    "url": "https://www.google.com/maps/search/?api=1&query=CLOCK%20TOWER%20CARZ&query_place_id=ChIJ3yftUqabyzsRRj_iMRi-P78"
  },
  {
    "title": "Durga Travels",
    "subTitle": "దుర్గ ట్రావెల్స్",
    "categoryName": "Car leasing service",
    "address": "Temple Alwal Rd, opposite to Shivalayam, Temple Alwal, Alwal, Secunderabad, Telangana 500010, India",
    "neighborhood": "Temple Alwal, Alwal",
    "street": "Temple Alwal Rd, opposite to Shivalayam",
    "city": "Secunderabad",
    "postalCode": "500010",
    "state": "Telangana",
    "countryCode": "IN",
    "website": "https://durgatravels.in/",
    "phone": "+919885538033",
    "phoneUnformatted": "+919885538033",
    "location": {
      "lat": 17.5036875,
      "lng": 78.5085625
    },
    "totalScore": 5,
    "permanentlyClosed": false,
    "temporarilyClosed": false,
    "placeId": "ChIJ2xatYUCayzsRJammbZQ7v2U",
    "categories": [
      "Car leasing service",
      "Travel agency"
    ],
    "reviewsCount": 271,
    "imagesCount": 32,
    "openingHours": [
      {
        "day": "Monday",
        "hours": "Open 24 hours"
      },
      {
        "day": "Tuesday",
        "hours": "Open 24 hours"
      },
      {
        "day": "Wednesday",
        "hours": "Open 24 hours"
      },
      {
        "day": "Thursday",
        "hours": "Open 24 hours"
      },
      {
        "day": "Friday",
        "hours": "Open 24 hours"
      },
      {
        "day": "Saturday",
        "hours": "Open 24 hours"
      },
      {
        "day": "Sunday",
        "hours": "Open 24 hours"
      }
    ],
    "imageUrl": "https://lh3.googleusercontent.com/gps-cs-s/AG0ilSytTaw35wVnUVPdD65suKWWWeiC1wcoTOYGLYzAGeESyM5cmS2ovZjwm4-6Bd_JB-nSqqXctmmIB5uKij88ideGwjaLXxKdsmyk-BiMxM5WEsZ6jNCuYKuAGdUUDe4aspMYK5EwRQ=w426-h240-k-no",
    "url": "https://www.google.com/maps/search/?api=1&query=Durga%20Travels&query_place_id=ChIJ2xatYUCayzsRJammbZQ7v2U"
  },
  {
    "title": "Maruthi Ignis - Luxury Car Rental Hyderabad - Long Drive Cars App",
    "categoryName": "Car leasing service",
    "address": "289D, Sai Priya Colony, Kapra, Secunderabad, Telangana 500103, India",
    "neighborhood": "Sai Priya Colony, Kapra",
    "street": "289D",
    "city": "Secunderabad",
    "postalCode": "500103",
    "state": "Telangana",
    "countryCode": "IN",
    "website": "https://www.longdrivecars.com/",
    "phone": "+919000478478",
    "phoneUnformatted": "+919000478478",
    "location": {
      "lat": 17.4965041,
      "lng": 78.5873759
    },
    "permanentlyClosed": false,
    "temporarilyClosed": false,
    "placeId": "ChIJjWahKAedyzsRSZqHjbf0nd8",
    "categories": [
      "Car leasing service"
    ],
    "imagesCount": 1,
    "openingHours": [
      {
        "day": "Monday",
        "hours": "Open 24 hours"
      },
      {
        "day": "Tuesday",
        "hours": "Open 24 hours"
      },
      {
        "day": "Wednesday",
        "hours": "Open 24 hours"
      },
      {
        "day": "Thursday",
        "hours": "Open 24 hours"
      },
      {
        "day": "Friday",
        "hours": "Open 24 hours"
      },
      {
        "day": "Saturday",
        "hours": "Open 24 hours"
      },
      {
        "day": "Sunday",
        "hours": "Open 24 hours"
      }
    ],
    "imageUrl": "https://streetviewpixels-pa.googleapis.com/v1/thumbnail?panoid=lZ3OCVeI4x5c_5H1-lePKw&cb_client=search.gws-prod.gps&w=408&h=240&yaw=353.17755&pitch=0&thumbfov=100",
    "url": "https://www.google.com/maps/search/?api=1&query=Maruthi%20Ignis%20-%20Luxury%20Car%20Rental%20Hyderabad%20-%20Long%20Drive%20Cars%20App&query_place_id=ChIJjWahKAedyzsRSZqHjbf0nd8"
  },
  {
    "title": "Modi Cars",
    "categoryName": "Used car dealer",
    "address": "1-56/19, G. V. Enclave, I.G Statue, Plot No - 19, Suchitra Rd, beside Bharat Petrol Pump, Old Alwal, Medchal, Secunderabad, Telangana 500010, India",
    "neighborhood": "Old Alwal, Medchal",
    "street": "1-56/19, G. V. Enclave, I.G Statue, Plot No - 19, Suchitra Rd, beside Bharat Petrol Pump",
    "city": "Secunderabad",
    "postalCode": "500010",
    "state": "Telangana",
    "countryCode": "IN",
    "phone": "+919866995353",
    "phoneUnformatted": "+919866995353",
    "location": {
      "lat": 17.5080499,
      "lng": 78.5027572
    },
    "totalScore": 4.2,
    "permanentlyClosed": false,
    "temporarilyClosed": false,
    "placeId": "ChIJafI8YjWbyzsR6jTm0Mbbt8c",
    "categories": [
      "Used car dealer"
    ],
    "reviewsCount": 5,
    "imagesCount": 24,
    "openingHours": [
      {
        "day": "Monday",
        "hours": "9 AM to 8 PM"
      },
      {
        "day": "Tuesday",
        "hours": "9 AM to 8 PM"
      },
      {
        "day": "Wednesday",
        "hours": "9 AM to 8 PM"
      },
      {
        "day": "Thursday",
        "hours": "9 AM to 8 PM"
      },
      {
        "day": "Friday",
        "hours": "9 AM to 8 PM"
      },
      {
        "day": "Saturday",
        "hours": "9 AM to 8 PM"
      },
      {
        "day": "Sunday",
        "hours": "9 AM to 8 PM"
      }
    ],
    "imageUrl": "https://lh3.googleusercontent.com/p/AF1QipP3xOHzD8n8VyuJKT5Kx5atKc02D516_0NjwdhT=w426-h240-k-no",
    "url": "https://www.google.com/maps/search/?api=1&query=Modi%20Cars&query_place_id=ChIJafI8YjWbyzsR6jTm0Mbbt8c"
  },
  {
    "title": "Rentalogue - Self drive car rental hyderabad",
    "categoryName": "Car rental agency",
    "address": "1-16-98/4, Sai Nagar Colony, Alwal, Secunderabad, Telangana 500015, India",
    "neighborhood": "Sai Nagar Colony, Alwal",
    "street": "1-16-98/4",
    "city": "Secunderabad",
    "postalCode": "500015",
    "state": "Telangana",
    "countryCode": "IN",
    "website": "https://www.rentalogue.in/",
    "phone": "+919553344853",
    "phoneUnformatted": "+919553344853",
    "location": {
      "lat": 17.4986558,
      "lng": 78.5103898
    },
    "totalScore": 4.6,
    "permanentlyClosed": false,
    "temporarilyClosed": false,
    "placeId": "ChIJae5eMBubyzsRF4l-oqA_Tks",
    "categories": [
      "Car rental agency"
    ],
    "reviewsCount": 89,
    "imagesCount": 7,
    "openingHours": [
      {
        "day": "Monday",
        "hours": "Open 24 hours"
      },
      {
        "day": "Tuesday",
        "hours": "Open 24 hours"
      },
      {
        "day": "Wednesday",
        "hours": "Open 24 hours"
      },
      {
        "day": "Thursday",
        "hours": "Open 24 hours"
      },
      {
        "day": "Friday",
        "hours": "Open 24 hours"
      },
      {
        "day": "Saturday",
        "hours": "Open 24 hours"
      },
      {
        "day": "Sunday",
        "hours": "Open 24 hours"
      }
    ],
    "imageUrl": "https://lh3.googleusercontent.com/gps-cs-s/AG0ilSxegvqIeTbuDeuF6g3IE3mb7DS_q_iFtdD4Vd5PkSh70XM4QtgEx8gFcihu0zlpbL33UwcKS4bwtF8RlxmQpbgFb-tO3Da_K6QEnQ1IlPyAoJnMjoC3yfeSyD6SBrCh1kAgxvdeQw=w532-h240-k-no",
    "url": "https://www.google.com/maps/search/?api=1&query=Rentalogue%20-%20Self%20drive%20car%20rental%20hyderabad&query_place_id=ChIJae5eMBubyzsRF4l-oqA_Tks"
  },
  {
    "title": "V Cars (Multbrand Pre owned Car Showroom)",
    "categoryName": "Car dealer",
    "address": "Plot No. 91, beside Indian oil Petrol Bunk, Prashanthi Enclave, Ward No 7 Secunderabad, Kanajiguda, Tirumalagiri, Secunderabad, Telangana 500015, India",
    "neighborhood": "Prashanthi Enclave, Ward No 7 Secunderabad, Kanajiguda, Tirumalagiri",
    "street": "Plot No. 91, beside Indian oil Petrol Bunk",
    "city": "Secunderabad",
    "postalCode": "500015",
    "state": "Telangana",
    "countryCode": "IN",
    "phone": "+919573588568",
    "phoneUnformatted": "+919573588568",
    "location": {
      "lat": 17.4853967,
      "lng": 78.4962211
    },
    "totalScore": 4.4,
    "permanentlyClosed": false,
    "temporarilyClosed": false,
    "placeId": "ChIJ6xhFGwCbyzsRsQ4PztzCTb4",
    "categories": [
      "Car dealer",
      "Manufacturer"
    ],
    "reviewsCount": 7,
    "imagesCount": 22,
    "openingHours": [
      {
        "day": "Monday",
        "hours": "10 AM to 8:30 PM"
      },
      {
        "day": "Tuesday",
        "hours": "10 AM to 8:30 PM"
      },
      {
        "day": "Wednesday",
        "hours": "10 AM to 8:30 PM"
      },
      {
        "day": "Thursday",
        "hours": "10 AM to 8:30 PM"
      },
      {
        "day": "Friday",
        "hours": "10 AM to 8:30 PM"
      },
      {
        "day": "Saturday",
        "hours": "10 AM to 8:30 PM"
      },
      {
        "day": "Sunday",
        "hours": "10 AM to 8:30 PM"
      }
    ],
    "imageUrl": "https://lh3.googleusercontent.com/gps-cs-s/AG0ilSxhr9Gkue6sVa6gaVTJNtZsiq6ISzhAYbDBrQ6Jk5uB7ZO8SJDBzrKaoHN7vMP-mw9_1j2EnZKCnuM7SXuflD1ir-GuJsFukE-iHWldevfATcPVWU76f-vGTgkNIaHtpg0lTBF1=w408-h306-k-no",
    "url": "https://www.google.com/maps/search/?api=1&query=V%20Cars%20(Multbrand%20Pre%20owned%20Car%20Showroom)&query_place_id=ChIJ6xhFGwCbyzsRsQ4PztzCTb4"
  },
  {
    "title": "Venkateshwara Car Travels-Car Rental Outstation With Driver In Hyderabad/Monthly Rental Innova Owen Plate Luxury Cars",
    "categoryName": "Car leasing service",
    "address": "129/A, Kandiguda, Sainikpuri, Secunderabad, Telangana 500094, India",
    "neighborhood": "Kandiguda, Sainikpuri",
    "street": "129/A",
    "city": "Secunderabad",
    "postalCode": "500094",
    "state": "Telangana",
    "countryCode": "IN",
    "location": {
      "lat": 17.494819,
      "lng": 78.541932
    },
    "permanentlyClosed": false,
    "temporarilyClosed": false,
    "placeId": "ChIJNcUEvX6byzsRZ0R2h63zBuM",
    "categories": [
      "Car leasing service"
    ],
    "imagesCount": 1,
    "openingHours": [
      {
        "day": "Monday",
        "hours": "Open 24 hours"
      },
      {
        "day": "Tuesday",
        "hours": "Open 24 hours"
      },
      {
        "day": "Wednesday",
        "hours": "Open 24 hours"
      },
      {
        "day": "Thursday",
        "hours": "Open 24 hours"
      },
      {
        "day": "Friday",
        "hours": "Open 24 hours"
      },
      {
        "day": "Saturday",
        "hours": "Open 24 hours"
      },
      {
        "day": "Sunday",
        "hours": "Open 24 hours"
      }
    ],
    "imageUrl": "https://streetviewpixels-pa.googleapis.com/v1/thumbnail?panoid=R9pcHcDeEaoBlxHjWiKviQ&cb_client=search.gws-prod.gps&w=408&h=240&yaw=344.78&pitch=0&thumbfov=100",
    "url": "https://www.google.com/maps/search/?api=1&query=Venkateshwara%20Car%20Travels-Car%20Rental%20Outstation%20With%20Driver%20In%20Hyderabad%2FMonthly%20Rental%20Innova%20Owen%20Plate%20Luxury%20Cars&query_place_id=ChIJNcUEvX6byzsRZ0R2h63zBuM"
  }
]
