[
  {
    "title": "Amruta Tours And Travels | Taxi service in Solapur | Best taxi in solapur | Taxi in solapur",
    "subTitle": "अमृता टूर्स एंड ट्रैवल्स | टैक्सी सर्विस इन सोलापुर | बेस्ट टैक्सी इन सोलापुर | टैक्सी इन सोलापुर",
    "categoryName": "Car rental agency",
    "address": "Bhavaniram Sikh Dharma School, 126, Railway Line, Songla, Jawaharlal Housing Society, Keshav Nagra, Solapur, Maharashtra 413001, India",
    "neighborhood": "Songla, Jawaharlal Housing Society, Keshav Nagra",
    "street": "Bhavaniram Sikh Dharma School, 126, Railway Line",
    "city": "Solapur",
    "postalCode": "413001",
    "state": "Maharashtra",
    "countryCode": "IN",
    "website": "https://solapurtaxicab.online/",
    "phone": "+918669077798",
    "phoneUnformatted": "+918669077798",
    "location": {
      "lat": 17.6600372,
      "lng": 75.9065158
    },
    "totalScore": 4.9,
    "permanentlyClosed": false,
    "temporarilyClosed": false,
    "placeId": "ChIJ-8Y7mC_bxTsRdfQRwzrTR5w",
    "categories": [
      "Car rental agency",
      "Car leasing service",
      "Taxi service",
      "Minibus taxi service"
    ],
    "reviewsCount": 374,
    "imagesCount": 88,
    "openingHours": [],
    "imageUrl": "https://media.indianluxurycars.com/google/b5d3c873a225d8d08466d5b47114c2a670a4cda4087aba34592d3fec65b54f21.png",
    "url": "https://www.google.com/maps/search/?api=1&query=Amruta%20Tours%20And%20Travels%20%7C%20Taxi%20service%20in%20Solapur%20%7C%20Best%20taxi%20in%20solapur%20%7C%20Taxi%20in%20solapur&query_place_id=ChIJ-8Y7mC_bxTsRdfQRwzrTR5w"
  },
  {
    "title": "Anmol Tours And Travels Solapur (Car Rental /Car Hire / Solapur Cab/ Cab services in solapur)",
    "subTitle": "अनमोल टूर्स एंड ट्रैवल्स सोलापुर (कार रेंटल /कार हीरे / सोलापुर सीएबी/ कैब सर्विसेस इन सोलापुर)",
    "categoryName": "Car rental agency",
    "address": "NEW RTO OFFICE, PLOT NO 203/26, Vijapur Rd, behind NIRMITI VIHAR, Vijay Deshmukh Nagar, Solapur, Maharashtra 413004, India",
    "neighborhood": "Vijay Deshmukh Nagar",
    "street": "NEW RTO OFFICE, PLOT NO 203/26, Vijapur Rd, behind NIRMITI VIHAR",
    "city": "Solapur",
    "postalCode": "413004",
    "state": "Maharashtra",
    "countryCode": "IN",
    "website": "https://anmoltoursandtravels.com/",
    "phone": "+919503665843",
    "phoneUnformatted": "+919503665843",
    "location": {
      "lat": 17.647426,
      "lng": 75.8881825
    },
    "totalScore": 5,
    "permanentlyClosed": false,
    "temporarilyClosed": false,
    "placeId": "ChIJb1GGyrzRxTsRwTsSNCqPUCc",
    "categories": [
      "Car rental agency",
      "Chauffeur service",
      "Tour operator"
    ],
    "reviewsCount": 132,
    "imagesCount": 38,
    "openingHours": [
      {
        "day": "Monday",
        "hours": "Open 24 hours"
      },
      {
        "day": "Tuesday",
        "hours": "Open 24 hours"
      },
      {
        "day": "Wednesday",
        "hours": "Open 24 hours"
      },
      {
        "day": "Thursday",
        "hours": "Open 24 hours"
      },
      {
        "day": "Friday",
        "hours": "Open 24 hours"
      },
      {
        "day": "Saturday",
        "hours": "Open 24 hours"
      },
      {
        "day": "Sunday",
        "hours": "Open 24 hours"
      }
    ],
    "imageUrl": "https://media.indianluxurycars.com/google/8e0c02247a19f3660fe6251c7d69666cc31018153ab4f64acca1eaf6090223b4.jpg",
    "url": "https://www.google.com/maps/search/?api=1&query=Anmol%20Tours%20And%20Travels%20Solapur%20(Car%20Rental%20%2FCar%20Hire%20%2F%20Solapur%20Cab%2F%20Cab%20services%20in%20solapur)&query_place_id=ChIJb1GGyrzRxTsRwTsSNCqPUCc"
  },
  {
    "title": "Anushka Cabs solapur",
    "subTitle": "अनुष्का कॅब्स",
    "categoryName": "Car rental agency",
    "address": "401 ,Samarth Residency, Juna Puna Naka Cross road, samarth hotel, Maharashtra 413002, India",
    "neighborhood": "Mahesh Nagar",
    "street": "401 ,Samarth Residency, Juna Puna Naka Cross road, samarth hotel",
    "city": "Solapur",
    "postalCode": "413002",
    "state": "Maharashtra",
    "countryCode": "IN",
    "website": "https://www.anushkacabsinsolapur.in/",
    "phone": "+919860463040",
    "phoneUnformatted": "+919860463040",
    "location": {
      "lat": 17.686746,
      "lng": 75.8954924
    },
    "totalScore": 4.9,
    "permanentlyClosed": false,
    "temporarilyClosed": false,
    "placeId": "ChIJo1ji6F_RxTsRt-TCfWsvMeE",
    "categories": [
      "Car rental agency",
      "Car leasing service",
      "Taxi service"
    ],
    "reviewsCount": 172,
    "imagesCount": 53,
    "openingHours": [],
    "imageUrl": "https://media.indianluxurycars.com/google/f4f4f168814d2936fb16ae7a726739d58387a45052e9d15c2d48d9f112673b7e.jpg",
    "url": "https://www.google.com/maps/search/?api=1&query=Anushka%20Cabs%20solapur&query_place_id=ChIJo1ji6F_RxTsRt-TCfWsvMeE"
  },
  {
    "title": "Avika Tours & Travels ( Car Rental / Car Hire / Cab Service in Solapur )",
    "subTitle": "अविका टूर्स & ट्रैवल्स ( कार रेंटल / कार हीरे / कैब सर्विस इन सोलापुर )",
    "categoryName": "Car rental agency",
    "address": "208 A New Tirhegaon forest, near Wadiya hospital, Solapur, Maharashtra 413001, India",
    "neighborhood": "Railway lines",
    "street": "208 A New Tirhegaon forest, near Wadiya hospital",
    "city": "Solapur",
    "postalCode": "413001",
    "state": "Maharashtra",
    "countryCode": "IN",
    "website": "https://avikacarrent.com/",
    "phone": "+918308293708",
    "phoneUnformatted": "+918308293708",
    "location": {
      "lat": 17.6640397,
      "lng": 75.898328
    },
    "totalScore": 4.9,
    "permanentlyClosed": false,
    "temporarilyClosed": false,
    "placeId": "ChIJK81sHZ3QxTsR8vn7y2aCvFE",
    "categories": [
      "Car rental agency",
      "Car leasing service",
      "Taxi service",
      "Taxicab Stand",
      "Tour agency"
    ],
    "reviewsCount": 680,
    "imagesCount": 315,
    "openingHours": [
      {
        "day": "Monday",
        "hours": "Open 24 hours"
      },
      {
        "day": "Tuesday",
        "hours": "Open 24 hours"
      },
      {
        "day": "Wednesday",
        "hours": "Open 24 hours"
      },
      {
        "day": "Thursday",
        "hours": "Open 24 hours"
      },
      {
        "day": "Friday",
        "hours": "Open 24 hours"
      },
      {
        "day": "Saturday",
        "hours": "Open 24 hours"
      },
      {
        "day": "Sunday",
        "hours": "Open 24 hours"
      }
    ],
    "imageUrl": "https://media.indianluxurycars.com/google/77d6b1f1b701bfcb6df7207b7ef2a35a5f6ced4829bf4827c8aa8cc2cc7d39be.jpg",
    "url": "https://www.google.com/maps/search/?api=1&query=Avika%20Tours%20%26%20Travels%20(%20Car%20Rental%20%2F%20Car%20Hire%20%2F%20Cab%20Service%20in%20Solapur%20)&query_place_id=ChIJK81sHZ3QxTsR8vn7y2aCvFE"
  },
  {
    "title": "Car Rental in Solapur ( Car Hire / Cab Solapur / Taxi Solapur ) Tours & Travels Solapur",
    "subTitle": "कार रेंटल इन सोलापुर ( कार हीरे / कैब सोलापुर / टैक्सी सोलापुर ) टूर्स & ट्रैवल्स सोलापुर",
    "categoryName": "Car rental agency",
    "address": "SHREYA Tours & Travels, Old vijapur naka, Vijapur Rd, near Sambhaji Talav, Solapur, Maharashtra 413004, India",
    "neighborhood": "Soni Nagar",
    "street": "SHREYA Tours & Travels, Old vijapur naka, Vijapur Rd, near Sambhaji Talav",
    "city": "Solapur",
    "postalCode": "413004",
    "state": "Maharashtra",
    "countryCode": "IN",
    "website": "https://www.carrentalinsolapur.in/",
    "phone": "+917276505009",
    "phoneUnformatted": "+917276505009",
    "location": {
      "lat": 17.6465723,
      "lng": 75.8998822
    },
    "totalScore": 4.9,
    "permanentlyClosed": false,
    "temporarilyClosed": false,
    "placeId": "ChIJtYocEnXbxTsRdlKyaa4grnY",
    "categories": [
      "Car rental agency",
      "Car leasing service",
      "Tour operator",
      "Travel agency"
    ],
    "reviewsCount": 386,
    "imagesCount": 62,
    "openingHours": [
      {
        "day": "Monday",
        "hours": "Open 24 hours"
      },
      {
        "day": "Tuesday",
        "hours": "Open 24 hours"
      },
      {
        "day": "Wednesday",
        "hours": "Open 24 hours"
      },
      {
        "day": "Thursday",
        "hours": "Open 24 hours"
      },
      {
        "day": "Friday",
        "hours": "Open 24 hours"
      },
      {
        "day": "Saturday",
        "hours": "Open 24 hours"
      },
      {
        "day": "Sunday",
        "hours": "Open 24 hours"
      }
    ],
    "imageUrl": "https://media.indianluxurycars.com/google/38c19dfe25d3197e794200f681b1479198e30e2947ecf77eb9375051fc9c677c.jpg",
    "url": "https://www.google.com/maps/search/?api=1&query=Car%20Rental%20in%20Solapur%20(%20Car%20Hire%20%2F%20Cab%20Solapur%20%2F%20Taxi%20Solapur%20)%20Tours%20%26%20Travels%20Solapur&query_place_id=ChIJtYocEnXbxTsRdlKyaa4grnY"
  },
  {
    "title": "Car Rental Solapur",
    "subTitle": "कार रेंटल सोलापुर",
    "categoryName": "Car leasing service",
    "address": "Railway station, Railway lines, Solapur, Maharashtra 413001, India",
    "neighborhood": "Railway lines",
    "street": "Railway station",
    "city": "Solapur",
    "postalCode": "413001",
    "state": "Maharashtra",
    "countryCode": "IN",
    "location": {
      "lat": 17.6654757,
      "lng": 75.894977
    },
    "permanentlyClosed": false,
    "temporarilyClosed": false,
    "placeId": "ChIJqeQcg_TRxTsRD4tcsvif0iU",
    "categories": [
      "Car leasing service"
    ],
    "imagesCount": 3,
    "openingHours": [],
    "imageUrl": "https://media.indianluxurycars.com/google/e65eab0a12dcbaa5283340f1748160a3444190a3c01c1ba3bceb7ad670ed0dfb.jpg",
    "url": "https://www.google.com/maps/search/?api=1&query=Car%20Rental%20Solapur&query_place_id=ChIJqeQcg_TRxTsRD4tcsvif0iU"
  },
  {
    "title": "Deccan Motors",
    "subTitle": "डेक्कन मोटर्स",
    "categoryName": "Car dealer",
    "address": "No.2, Gala No. 8 Zilha Krida Sankul, 02, near S.T. Stand, Shastri Nagar, Shandar Chowk, Keshav Nagra, Solapur, Maharashtra 413003, India",
    "neighborhood": "Shastri Nagar, Shandar Chowk, Keshav Nagra",
    "street": "No.2, Gala No. 8 Zilha Krida Sankul, 02, near S.T. Stand",
    "city": "Solapur",
    "postalCode": "413003",
    "state": "Maharashtra",
    "countryCode": "IN",
    "phone": "+919764322777",
    "phoneUnformatted": "+919764322777",
    "location": {
      "lat": 17.6558771,
      "lng": 75.9189049
    },
    "totalScore": 5,
    "permanentlyClosed": false,
    "temporarilyClosed": false,
    "placeId": "ChIJiXoRRwzbxTsRaj0YMCA9WmE",
    "categories": [
      "Car dealer",
      "Smart Car dealer",
      "Used car dealer"
    ],
    "reviewsCount": 1,
    "imagesCount": 123,
    "openingHours": [
      {
        "day": "Monday",
        "hours": "9:30 AM to 7:30 PM"
      },
      {
        "day": "Tuesday",
        "hours": "9:30 AM to 7:30 PM"
      },
      {
        "day": "Wednesday",
        "hours": "9:30 AM to 7:30 PM"
      },
      {
        "day": "Thursday",
        "hours": "9:30 AM to 7:30 PM"
      },
      {
        "day": "Friday",
        "hours": "9:30 AM to 7:30 PM"
      },
      {
        "day": "Saturday",
        "hours": "9:30 AM to 7:30 PM"
      },
      {
        "day": "Sunday",
        "hours": "Closed"
      }
    ],
    "imageUrl": "https://media.indianluxurycars.com/google/50205012f17cc50853178c75bf3e0fee165465f27116cd9a0875b671d4abcbc2.jpg",
    "url": "https://www.google.com/maps/search/?api=1&query=Deccan%20Motors&query_place_id=ChIJiXoRRwzbxTsRaj0YMCA9WmE"
  },
  {
    "title": "DhanLaxmi Travels",
    "subTitle": "धनलक्ष्मी ट्रैवल्स",
    "categoryName": "Car rental agency",
    "address": "Plot no. B-462 Rajswa Nagar, sankrutik bhavan, Solapur, Maharashtra 413004, India",
    "neighborhood": "Rajaswa Nagar",
    "street": "Plot no. B-462 Rajswa Nagar, sankrutik bhavan",
    "city": "Solapur",
    "postalCode": "413004",
    "state": "Maharashtra",
    "countryCode": "IN",
    "phone": "+919960444157",
    "phoneUnformatted": "+919960444157",
    "location": {
      "lat": 17.6377797,
      "lng": 75.8795378
    },
    "totalScore": 5,
    "permanentlyClosed": false,
    "temporarilyClosed": false,
    "placeId": "ChIJCYi_fhvRxTsRBM013BPZtNs",
    "categories": [
      "Car rental agency"
    ],
    "reviewsCount": 63,
    "imagesCount": 110,
    "openingHours": [
      {
        "day": "Monday",
        "hours": "Open 24 hours"
      },
      {
        "day": "Tuesday",
        "hours": "Open 24 hours"
      },
      {
        "day": "Wednesday",
        "hours": "Open 24 hours"
      },
      {
        "day": "Thursday",
        "hours": "Open 24 hours"
      },
      {
        "day": "Friday",
        "hours": "Open 24 hours"
      },
      {
        "day": "Saturday",
        "hours": "Open 24 hours"
      },
      {
        "day": "Sunday",
        "hours": "Open 24 hours"
      }
    ],
    "imageUrl": "https://media.indianluxurycars.com/google/eb27b2f3906b5c74929f9c31c96e2d753538a048605b28c543097c441f12d467.jpg",
    "url": "https://www.google.com/maps/search/?api=1&query=DhanLaxmi%20Travels&query_place_id=ChIJCYi_fhvRxTsRBM013BPZtNs"
  },
  {
    "title": "Dhwani Travel",
    "subTitle": "ध्वनि ट्रैवल",
    "categoryName": "Car rental agency",
    "address": "35 nutan nager, Rd, Akkalkot Rd, Mallikarjun Nagar, Telngi pachha peth, Solapur, Maharashtra 413006, India",
    "neighborhood": "Mallikarjun Nagar, Telngi pachha peth",
    "street": "35 nutan nager, Rd, Akkalkot Rd",
    "city": "Solapur",
    "postalCode": "413006",
    "state": "Maharashtra",
    "countryCode": "IN",
    "website": "https://dhwanitravel.in/",
    "phone": "+919763137310",
    "phoneUnformatted": "+919763137310",
    "location": {
      "lat": 17.6715713,
      "lng": 75.9499083
    },
    "totalScore": 5,
    "permanentlyClosed": false,
    "temporarilyClosed": false,
    "placeId": "ChIJ_5lVagDbxTsRZuJN8Yp-zDY",
    "categories": [
      "Car rental agency"
    ],
    "reviewsCount": 11,
    "imagesCount": 1,
    "openingHours": [
      {
        "day": "Monday",
        "hours": "Open 24 hours"
      },
      {
        "day": "Tuesday",
        "hours": "Open 24 hours"
      },
      {
        "day": "Wednesday",
        "hours": "Open 24 hours"
      },
      {
        "day": "Thursday",
        "hours": "Open 24 hours"
      },
      {
        "day": "Friday",
        "hours": "Open 24 hours"
      },
      {
        "day": "Saturday",
        "hours": "Open 24 hours"
      },
      {
        "day": "Sunday",
        "hours": "Open 24 hours"
      }
    ],
    "imageUrl": "https://media.indianluxurycars.com/google/91c83e01634593889ab0592064643b111e34619ac62fbd4f452583d802cb7905.jpg",
    "url": "https://www.google.com/maps/search/?api=1&query=Dhwani%20Travel&query_place_id=ChIJ_5lVagDbxTsRZuJN8Yp-zDY"
  },
  {
    "title": "Find Solapur Cars Rental",
    "subTitle": "फाइंड सोलापुर कार्स रेंटल",
    "categoryName": "Car rental agency",
    "address": "Shop Number 86 A, Kasturba Market Shopping Centre, Chowk, New Budhwar Peth, Solapur, Maharashtra 413002, India",
    "neighborhood": "New Budhwar Peth",
    "street": "Shop Number 86 A, Kasturba Market Shopping Centre, Chowk",
    "city": "Solapur",
    "postalCode": "413002",
    "state": "Maharashtra",
    "countryCode": "IN",
    "phone": "+919172767880",
    "phoneUnformatted": "+919172767880",
    "location": {
      "lat": 17.6830461,
      "lng": 75.9036651
    },
    "totalScore": 5,
    "permanentlyClosed": false,
    "temporarilyClosed": false,
    "placeId": "ChIJFVGoZiXbxTsR_TiG48JR1Ak",
    "categories": [
      "Car rental agency",
      "Car leasing service",
      "Taxi service",
      "Travel agency"
    ],
    "reviewsCount": 88,
    "imagesCount": 355,
    "openingHours": [
      {
        "day": "Monday",
        "hours": "Open 24 hours"
      },
      {
        "day": "Tuesday",
        "hours": "Open 24 hours"
      },
      {
        "day": "Wednesday",
        "hours": "Open 24 hours"
      },
      {
        "day": "Thursday",
        "hours": "Open 24 hours"
      },
      {
        "day": "Friday",
        "hours": "Open 24 hours"
      },
      {
        "day": "Saturday",
        "hours": "Open 24 hours"
      },
      {
        "day": "Sunday",
        "hours": "Open 24 hours"
      }
    ],
    "imageUrl": "https://media.indianluxurycars.com/google/f0342b02c6781df84eda205ab7b72074da9245c8d26d62f3b022a856ec056675.jpg",
    "url": "https://www.google.com/maps/search/?api=1&query=Find%20Solapur%20Cars%20Rental&query_place_id=ChIJFVGoZiXbxTsR_TiG48JR1Ak"
  },
  {
    "title": "Gauri tours and travel Solapur",
    "subTitle": "गौरी टूर्स एंड ट्रैवल सोलापुर",
    "categoryName": "Car rental agency",
    "address": "Shugran hotel, near, Station Rd, Railway lines, Solapur, Maharashtra 413001, India",
    "neighborhood": "Railway lines",
    "street": "Shugran hotel, near, Station Rd",
    "city": "Solapur",
    "postalCode": "413001",
    "state": "Maharashtra",
    "countryCode": "IN",
    "website": "https://g.co/kgs/G4GWZP",
    "phone": "+919921986613",
    "phoneUnformatted": "+919921986613",
    "location": {
      "lat": 17.6661336,
      "lng": 75.8961797
    },
    "totalScore": 5,
    "permanentlyClosed": false,
    "temporarilyClosed": false,
    "placeId": "ChIJ3b02YFDRxTsRkYb9EbtdrTw",
    "categories": [
      "Car rental agency",
      "Car leasing service",
      "Travel agency"
    ],
    "reviewsCount": 6,
    "imagesCount": 10,
    "openingHours": [
      {
        "day": "Monday",
        "hours": "Open 24 hours"
      },
      {
        "day": "Tuesday",
        "hours": "Open 24 hours"
      },
      {
        "day": "Wednesday",
        "hours": "Open 24 hours"
      },
      {
        "day": "Thursday",
        "hours": "Open 24 hours"
      },
      {
        "day": "Friday",
        "hours": "Open 24 hours"
      },
      {
        "day": "Saturday",
        "hours": "Open 24 hours"
      },
      {
        "day": "Sunday",
        "hours": "Open 24 hours"
      }
    ],
    "imageUrl": "https://media.indianluxurycars.com/google/7c7cf1c7b75c3a701762352ac9f2192493487af765b964f86aa29496b04495e3.jpg",
    "url": "https://www.google.com/maps/search/?api=1&query=Gauri%20tours%20and%20travel%20Solapur&query_place_id=ChIJ3b02YFDRxTsRkYb9EbtdrTw"
  },
  {
    "title": "Jai Jagdumba Tours and Travels",
    "subTitle": "जय जगदम्बा टूर्स एंड ट्रैवल्स",
    "categoryName": "Car rental agency",
    "address": "UGF 60, The Square Mall, Juni Mill Compound, near Murarji Peth, beside Near Sambhajirao Shinde High School, Murarji Peth, Solapur, Maharashtra 413001, India",
    "neighborhood": "Murarji Peth",
    "street": "UGF 60, The Square Mall, Juni Mill Compound, near Murarji Peth, beside Near Sambhajirao Shinde High School",
    "city": "Solapur",
    "postalCode": "413001",
    "state": "Maharashtra",
    "countryCode": "IN",
    "website": "https://jayjagdambatoursandtravels.com/",
    "phone": "+918585819909",
    "phoneUnformatted": "+918585819909",
    "location": {
      "lat": 17.6731596,
      "lng": 75.8965365
    },
    "totalScore": 4.9,
    "permanentlyClosed": false,
    "temporarilyClosed": false,
    "placeId": "ChIJI6-ZvBHRxTsRmkPFxBmqH0o",
    "categories": [
      "Car rental agency"
    ],
    "reviewsCount": 54,
    "imagesCount": 49,
    "openingHours": [
      {
        "day": "Monday",
        "hours": "Open 24 hours"
      },
      {
        "day": "Tuesday",
        "hours": "Open 24 hours"
      },
      {
        "day": "Wednesday",
        "hours": "Open 24 hours"
      },
      {
        "day": "Thursday",
        "hours": "Open 24 hours"
      },
      {
        "day": "Friday",
        "hours": "Open 24 hours"
      },
      {
        "day": "Saturday",
        "hours": "Closed"
      },
      {
        "day": "Sunday",
        "hours": "Open 24 hours"
      }
    ],
    "imageUrl": "https://media.indianluxurycars.com/google/d97246b9984713021089ca700410080dd2b2e14ef1eda3ab8a7b207f19745469.jpg",
    "url": "https://www.google.com/maps/search/?api=1&query=Jai%20Jagdumba%20Tours%20and%20Travels&query_place_id=ChIJI6-ZvBHRxTsRmkPFxBmqH0o"
  },
  {
    "title": "Jay Car Rental Services in Solapur",
    "subTitle": "जय कार रेंटल सर्विसेस इन सोलापुर",
    "categoryName": "Car rental agency",
    "address": "Shop No 2, Yash Nagar, Nirali Basti, Dharamsi Lane Murarji Peth, Murarji Peth, Solapur, Maharashtra 413001, India",
    "neighborhood": "Nirali Basti, Dharamsi Lane Murarji Peth, Murarji Peth",
    "street": "Shop No 2, Yash Nagar",
    "city": "Solapur",
    "postalCode": "413001",
    "state": "Maharashtra",
    "countryCode": "IN",
    "website": "https://jaycarrental.site/",
    "phone": "+919370703248",
    "phoneUnformatted": "+919370703248",
    "location": {
      "lat": 17.6772781,
      "lng": 75.8896663
    },
    "totalScore": 5,
    "permanentlyClosed": false,
    "temporarilyClosed": false,
    "placeId": "ChIJQWdH94DaCWYRuYroMoHt6sE",
    "categories": [
      "Car rental agency"
    ],
    "reviewsCount": 48,
    "imagesCount": 27,
    "openingHours": [
      {
        "day": "Monday",
        "hours": "Open 24 hours"
      },
      {
        "day": "Tuesday",
        "hours": "Open 24 hours"
      },
      {
        "day": "Wednesday",
        "hours": "Open 24 hours"
      },
      {
        "day": "Thursday",
        "hours": "Open 24 hours"
      },
      {
        "day": "Friday",
        "hours": "Open 24 hours"
      },
      {
        "day": "Saturday",
        "hours": "Open 24 hours"
      },
      {
        "day": "Sunday",
        "hours": "Open 24 hours"
      }
    ],
    "imageUrl": "https://media.indianluxurycars.com/google/ce51d458fdbdc5ad873b615e564bf4f4573aba8b7b1c71bcf68b8e69600eaaa7.jpg",
    "url": "https://www.google.com/maps/search/?api=1&query=Jay%20Car%20Rental%20Services%20in%20Solapur&query_place_id=ChIJQWdH94DaCWYRuYroMoHt6sE"
  },
  {
    "title": "Nakshatra Tours & Travels",
    "subTitle": "नक्षत्र टूर्स & ट्रैवल्स",
    "categoryName": "Car rental agency",
    "address": "Unnamed Road, 413006 Market Yard, Rangraj Nagar, Solapur, Maharashtra 413006, India",
    "neighborhood": "Saruwadi Nagar, Rangraj Nagar",
    "street": "Unnamed Road, 413006 Market Yard",
    "city": "Solapur",
    "postalCode": "413006",
    "state": "Maharashtra",
    "countryCode": "IN",
    "phone": "+918888041955",
    "phoneUnformatted": "+918888041955",
    "location": {
      "lat": 17.6797467,
      "lng": 75.9481804
    },
    "totalScore": 4.8,
    "permanentlyClosed": false,
    "temporarilyClosed": false,
    "placeId": "ChIJgSbuWivbxTsRBc4BGD4axVI",
    "categories": [
      "Car rental agency",
      "Car leasing service"
    ],
    "reviewsCount": 124,
    "imagesCount": 40,
    "openingHours": [
      {
        "day": "Monday",
        "hours": "Open 24 hours"
      },
      {
        "day": "Tuesday",
        "hours": "Open 24 hours"
      },
      {
        "day": "Wednesday",
        "hours": "Open 24 hours"
      },
      {
        "day": "Thursday",
        "hours": "Open 24 hours"
      },
      {
        "day": "Friday",
        "hours": "Open 24 hours"
      },
      {
        "day": "Saturday",
        "hours": "Open 24 hours"
      },
      {
        "day": "Sunday",
        "hours": "Open 24 hours"
      }
    ],
    "imageUrl": "https://media.indianluxurycars.com/google/71efc0e5e1d45e67737140d177e9a2fa42c12f00554b059a27c828f6a0677ba2.jpg",
    "url": "https://www.google.com/maps/search/?api=1&query=Nakshatra%20Tours%20%26%20Travels&query_place_id=ChIJgSbuWivbxTsRBc4BGD4axVI"
  },
  {
    "title": "Royal Cars & Bikes Rental - Self Drive Service",
    "subTitle": "रॉयल कार्स & बिकेस रेंटल - सेल्फ ड्राइव सर्विस",
    "categoryName": "Car rental agency",
    "address": "Plot No.17, near Riksha stop, Ramwadi, Solapur, Maharashtra 413001, India",
    "neighborhood": "Ramwadi",
    "street": "Plot No.17, near Riksha stop",
    "city": "Solapur",
    "postalCode": "413001",
    "state": "Maharashtra",
    "countryCode": "IN",
    "phone": "+919611135719",
    "phoneUnformatted": "+919611135719",
    "location": {
      "lat": 17.6610112,
      "lng": 75.8927537
    },
    "totalScore": 4.7,
    "permanentlyClosed": false,
    "temporarilyClosed": false,
    "placeId": "ChIJdeHKgyPRxTsRq8YiHNSWWSc",
    "categories": [
      "Car rental agency",
      "Car leasing service",
      "Scooter rental service"
    ],
    "reviewsCount": 27,
    "imagesCount": 25,
    "openingHours": [
      {
        "day": "Monday",
        "hours": "Open 24 hours"
      },
      {
        "day": "Tuesday",
        "hours": "Open 24 hours"
      },
      {
        "day": "Wednesday",
        "hours": "Open 24 hours"
      },
      {
        "day": "Thursday",
        "hours": "Open 24 hours"
      },
      {
        "day": "Friday",
        "hours": "Open 24 hours"
      },
      {
        "day": "Saturday",
        "hours": "Open 24 hours"
      },
      {
        "day": "Sunday",
        "hours": "Open 24 hours"
      }
    ],
    "imageUrl": "https://media.indianluxurycars.com/google/a540935042bbf6ac9b6d3970ae0a68a3bc3668325fe524e57a727e54dd2dfebe.jpg",
    "url": "https://www.google.com/maps/search/?api=1&query=Royal%20Cars%20%26%20Bikes%20Rental%20-%20Self%20Drive%20Service&query_place_id=ChIJdeHKgyPRxTsRq8YiHNSWWSc"
  },
  {
    "title": "RUMA CAR WORLD SOLAPUR",
    "subTitle": "रुमा कार वर्ल्ड सोलापुर",
    "categoryName": "Used car dealer",
    "address": "Infront of, Patrakar Bhavan, Bijapur road, opposite to waterfront phase 2, Ratandeep Housing Society, Solapur, Maharashtra 413001, India",
    "neighborhood": "Ratandeep Housing Society",
    "street": "Infront of, Patrakar Bhavan, Bijapur road, opposite to waterfront phase 2",
    "city": "Solapur",
    "postalCode": "413001",
    "state": "Maharashtra",
    "countryCode": "IN",
    "location": {
      "lat": 17.6525513,
      "lng": 75.9052658
    },
    "totalScore": 4.9,
    "permanentlyClosed": false,
    "temporarilyClosed": false,
    "placeId": "ChIJ07YN8z_bxTsR2vDDJu_9lHw",
    "categories": [
      "Used car dealer"
    ],
    "reviewsCount": 8,
    "imagesCount": 22,
    "openingHours": [
      {
        "day": "Monday",
        "hours": "Open 24 hours"
      },
      {
        "day": "Tuesday",
        "hours": "Open 24 hours"
      },
      {
        "day": "Wednesday",
        "hours": "Open 24 hours"
      },
      {
        "day": "Thursday",
        "hours": "Open 24 hours"
      },
      {
        "day": "Friday",
        "hours": "Open 24 hours"
      },
      {
        "day": "Saturday",
        "hours": "Open 24 hours"
      },
      {
        "day": "Sunday",
        "hours": "Open 24 hours"
      }
    ],
    "imageUrl": "https://media.indianluxurycars.com/google/f088dc38d94f330a8f59105156d1bd1ea0a99d5d47caa057aae135838a618041.jpg",
    "url": "https://www.google.com/maps/search/?api=1&query=RUMA%20CAR%20WORLD%20SOLAPUR&query_place_id=ChIJ07YN8z_bxTsR2vDDJu_9lHw"
  },
  {
    "title": "Sai Car Rental Solapur",
    "subTitle": "साई कार रेंटल सोलापूर",
    "categoryName": "Car rental agency",
    "address": "Aayush Complex,Gala no 16 Under RBL Bank ATM,Mariaai Chowk, Maharashtra 413001, India",
    "neighborhood": "New Laxmi Chawl, Damani Nagar",
    "street": "Aayush Complex,Gala no 16 Under RBL Bank ATM,Mariaai Chowk",
    "city": "Solapur",
    "postalCode": "413001",
    "state": "Maharashtra",
    "countryCode": "IN",
    "website": "http://saicarrent.in/",
    "phone": "+918888434828",
    "phoneUnformatted": "+918888434828",
    "location": {
      "lat": 17.6690512,
      "lng": 75.889485
    },
    "totalScore": 4.8,
    "permanentlyClosed": false,
    "temporarilyClosed": false,
    "placeId": "ChIJ50y78J_RxTsRif-DwBIuInU",
    "categories": [
      "Car rental agency"
    ],
    "reviewsCount": 124,
    "imagesCount": 23,
    "openingHours": [
      {
        "day": "Monday",
        "hours": "Open 24 hours"
      },
      {
        "day": "Tuesday",
        "hours": "Open 24 hours"
      },
      {
        "day": "Wednesday",
        "hours": "Open 24 hours"
      },
      {
        "day": "Thursday",
        "hours": "Open 24 hours"
      },
      {
        "day": "Friday",
        "hours": "Open 24 hours"
      },
      {
        "day": "Saturday",
        "hours": "Open 24 hours"
      },
      {
        "day": "Sunday",
        "hours": "Open 24 hours"
      }
    ],
    "imageUrl": "https://media.indianluxurycars.com/google/c4eb67485dffa32d77b98d48a2f8e9f66b37655c93fff888bb99ef32bfdd545c.png",
    "url": "https://www.google.com/maps/search/?api=1&query=Sai%20Car%20Rental%20Solapur&query_place_id=ChIJ50y78J_RxTsRif-DwBIuInU"
  },
  {
    "title": "Sai Motors & Auto Consulting",
    "subTitle": "साई मोटर्स & ऑटो कन्सल्टिंग",
    "categoryName": "Auto broker",
    "address": "Gala No. 13, Jilla Krida Sankul, Gurunanak Chowk, Kurban Hussain Nagar, Shastri Nagar, beside M.S.B. Office, Solapur, Maharashtra 413003, India",
    "street": "Gala No. 13, Jilla Krida Sankul, Gurunanak Chowk, Kurban Hussain Nagar, Shastri Nagar, beside M.S.B. Office",
    "city": "Solapur",
    "postalCode": "413003",
    "state": "Maharashtra",
    "countryCode": "IN",
    "phone": "+919960774786",
    "phoneUnformatted": "+919960774786",
    "location": {
      "lat": 17.6551864,
      "lng": 75.9190141
    },
    "totalScore": 4.3,
    "permanentlyClosed": false,
    "temporarilyClosed": false,
    "placeId": "ChIJt4OKNWvaxTsRZwlv5SVtDBc",
    "categories": [
      "Auto broker",
      "Used car dealer"
    ],
    "reviewsCount": 7,
    "imagesCount": 12,
    "openingHours": [
      {
        "day": "Monday",
        "hours": "10 AM to 9 PM"
      },
      {
        "day": "Tuesday",
        "hours": "10 AM to 9 PM"
      },
      {
        "day": "Wednesday",
        "hours": "10 AM to 9 PM"
      },
      {
        "day": "Thursday",
        "hours": "10 AM to 9 PM"
      },
      {
        "day": "Friday",
        "hours": "10 AM to 9 PM"
      },
      {
        "day": "Saturday",
        "hours": "10 AM to 9 PM"
      },
      {
        "day": "Sunday",
        "hours": "10 AM to 9 PM"
      }
    ],
    "imageUrl": "https://media.indianluxurycars.com/google/65124ac8f831be9d9a078a721ac11829545f8743ca1e47e1b5e4824e1d8cd7a6.jpg",
    "url": "https://www.google.com/maps/search/?api=1&query=Sai%20Motors%20%26%20Auto%20Consulting&query_place_id=ChIJt4OKNWvaxTsRZwlv5SVtDBc"
  },
  {
    "title": "Sapthagiri Cab Services in Solapur",
    "subTitle": "सप्थागिरी कैब सर्विसेस इन सोलापुर",
    "categoryName": "Car rental agency",
    "address": "Shop No 22, Ground Floor, Super Market, Murarji Peth, Solapur, Maharashtra 413001, India",
    "neighborhood": "Murarji Peth",
    "street": "Shop No 22, Ground Floor, Super Market",
    "city": "Solapur",
    "postalCode": "413001",
    "state": "Maharashtra",
    "countryCode": "IN",
    "website": "https://sapthagiricabservices.in/",
    "phone": "+919823460964",
    "phoneUnformatted": "+919823460964",
    "location": {
      "lat": 17.6741243,
      "lng": 75.8981826
    },
    "totalScore": 4.8,
    "permanentlyClosed": false,
    "temporarilyClosed": false,
    "placeId": "ChIJzYTApBuwhS8REibyKbBr37I",
    "categories": [
      "Car rental agency",
      "Car leasing service",
      "Chauffeur service",
      "Minibus taxi service",
      "Taxi service",
      "Tour agency",
      "Tour operator",
      "Travel agency"
    ],
    "reviewsCount": 707,
    "imagesCount": 431,
    "openingHours": [
      {
        "day": "Monday",
        "hours": "Open 24 hours"
      },
      {
        "day": "Tuesday",
        "hours": "Open 24 hours"
      },
      {
        "day": "Wednesday",
        "hours": "Open 24 hours"
      },
      {
        "day": "Thursday",
        "hours": "Open 24 hours"
      },
      {
        "day": "Friday",
        "hours": "Open 24 hours"
      },
      {
        "day": "Saturday",
        "hours": "Open 24 hours"
      },
      {
        "day": "Sunday",
        "hours": "Open 24 hours"
      }
    ],
    "imageUrl": "https://media.indianluxurycars.com/google/f588abb7272b6fb49c1765d921a6772793f0986202416afb5a38a03499769807.png",
    "url": "https://www.google.com/maps/search/?api=1&query=Sapthagiri%20Cab%20Services%20in%20Solapur&query_place_id=ChIJzYTApBuwhS8REibyKbBr37I"
  },
  {
    "title": "Sarthak Tours and Travels",
    "subTitle": "सार्थक टूर्स एंड ट्रैवल्स",
    "categoryName": "Car rental agency",
    "address": "175, west mangalwar peth, tuljapur ves, near bellure floor mill, Solapur, Maharashtra 413002, India",
    "neighborhood": "Mangalwar Peth",
    "street": "175, west mangalwar peth, tuljapur ves, near bellure floor mill",
    "city": "Solapur",
    "postalCode": "413002",
    "state": "Maharashtra",
    "countryCode": "IN",
    "phone": "+919764000917",
    "phoneUnformatted": "+919764000917",
    "location": {
      "lat": 17.6824415,
      "lng": 75.9088787
    },
    "totalScore": 5,
    "permanentlyClosed": false,
    "temporarilyClosed": false,
    "placeId": "ChIJj_4vf6DbxTsRkhfK5NloUE4",
    "categories": [
      "Car rental agency",
      "Car leasing service",
      "Taxi service"
    ],
    "reviewsCount": 156,
    "imagesCount": 31,
    "openingHours": [
      {
        "day": "Monday",
        "hours": "Open 24 hours"
      },
      {
        "day": "Tuesday",
        "hours": "Open 24 hours"
      },
      {
        "day": "Wednesday",
        "hours": "Open 24 hours"
      },
      {
        "day": "Thursday",
        "hours": "Open 24 hours"
      },
      {
        "day": "Friday",
        "hours": "Open 24 hours"
      },
      {
        "day": "Saturday",
        "hours": "Open 24 hours"
      },
      {
        "day": "Sunday",
        "hours": "Open 24 hours"
      }
    ],
    "imageUrl": "https://media.indianluxurycars.com/google/b9c03a5170361d565d6521b454b2404d164069c0c3f7a66fb299a5ebfeacb8bf.jpg",
    "url": "https://www.google.com/maps/search/?api=1&query=Sarthak%20Tours%20and%20Travels&query_place_id=ChIJj_4vf6DbxTsRkhfK5NloUE4"
  },
  {
    "title": "Sawant tours and travles",
    "subTitle": "सावंत टूर्स एंड ट्रैवल्स",
    "categoryName": "Car rental agency",
    "address": "Solapur, Maharashtra 413008, India",
    "city": "Solapur",
    "postalCode": "413008",
    "state": "Maharashtra",
    "countryCode": "IN",
    "website": "https://www.instagram.com/solapur_mh13_12?igsh=OTJxNjUzY3dpeXhh",
    "location": {
      "lat": 17.6013158,
      "lng": 75.8896419
    },
    "totalScore": 5,
    "permanentlyClosed": false,
    "temporarilyClosed": false,
    "placeId": "ChIJy2bTrXLXxTsR9TmCBkqMcJM",
    "categories": [
      "Car rental agency",
      "Car leasing service"
    ],
    "reviewsCount": 9,
    "imagesCount": 19,
    "openingHours": [
      {
        "day": "Monday",
        "hours": "Open 24 hours"
      },
      {
        "day": "Tuesday",
        "hours": "Open 24 hours"
      },
      {
        "day": "Wednesday",
        "hours": "Open 24 hours"
      },
      {
        "day": "Thursday",
        "hours": "Open 24 hours"
      },
      {
        "day": "Friday",
        "hours": "Open 24 hours"
      },
      {
        "day": "Saturday",
        "hours": "Open 24 hours"
      },
      {
        "day": "Sunday",
        "hours": "Open 24 hours"
      }
    ],
    "imageUrl": "https://media.indianluxurycars.com/google/a553d41ea0449b5919f9f1069a431b90336fe8c4dfef4ae4fa062d8461fcbe43.jpg",
    "url": "https://www.google.com/maps/search/?api=1&query=Sawant%20tours%20and%20travles&query_place_id=ChIJy2bTrXLXxTsR9TmCBkqMcJM"
  },
  {
    "title": "Shiv kamal tours and travels",
    "subTitle": "शिव कमाल दौरे आणि ट्रेवल्स",
    "categoryName": "Car rental agency",
    "address": "Plot no 90, near khamitkar highschool Khamitkar highschool, Shiv Ganga Nagar Part-4, Kumta Naka, Solapur, Maharashtra 413003, India",
    "neighborhood": "Shiv Ganga Nagar Part-4, Kumta Naka",
    "street": "Plot no 90, near khamitkar highschool Khamitkar highschool",
    "city": "Solapur",
    "postalCode": "413003",
    "state": "Maharashtra",
    "countryCode": "IN",
    "website": "https://shiv-kamal-tours.grexa.site/",
    "phone": "+918788415098",
    "phoneUnformatted": "+918788415098",
    "location": {
      "lat": 17.6466053,
      "lng": 75.9261001
    },
    "totalScore": 4.8,
    "permanentlyClosed": false,
    "temporarilyClosed": false,
    "placeId": "ChIJhZaoqK7bxTsRrG8JOJ5EvSE",
    "categories": [
      "Car rental agency",
      "Bus tour agency",
      "Car leasing service",
      "Tour agency",
      "Tour operator",
      "Tourist information center"
    ],
    "reviewsCount": 17,
    "imagesCount": 14,
    "openingHours": [
      {
        "day": "Monday",
        "hours": "Open 24 hours"
      },
      {
        "day": "Tuesday",
        "hours": "Open 24 hours"
      },
      {
        "day": "Wednesday",
        "hours": "Open 24 hours"
      },
      {
        "day": "Thursday",
        "hours": "Open 24 hours"
      },
      {
        "day": "Friday",
        "hours": "Open 24 hours"
      },
      {
        "day": "Saturday",
        "hours": "Open 24 hours"
      },
      {
        "day": "Sunday",
        "hours": "Open 24 hours"
      }
    ],
    "imageUrl": "https://media.indianluxurycars.com/google/bff25f59957021823a797ebf9fce1cd1737f9c975d318c54aa4a92e48961fe05.jpg",
    "url": "https://www.google.com/maps/search/?api=1&query=Shiv%20kamal%20tours%20and%20travels&query_place_id=ChIJhZaoqK7bxTsRrG8JOJ5EvSE"
  },
  {
    "title": "Shivraj Car Rental Solapur",
    "subTitle": "शिवराज कार रेंटल सोलापुर",
    "categoryName": "Car rental agency",
    "address": "Majrewadi, 50 Ashirvad nagar, Hotgi Road, Solapur, Maharashtra 413001, India",
    "street": "Majrewadi, 50 Ashirvad nagar, Hotgi Road",
    "city": "Solapur",
    "postalCode": "413001",
    "state": "Maharashtra",
    "countryCode": "IN",
    "website": "http://www.shivrajtravels.com/",
    "phone": "+919011996996",
    "phoneUnformatted": "+919011996996",
    "location": {
      "lat": 17.6647209,
      "lng": 75.8935717
    },
    "totalScore": 4.9,
    "permanentlyClosed": false,
    "temporarilyClosed": false,
    "placeId": "ChIJlRzuwWbZxTsRnO3i1nH7-4Y",
    "categories": [
      "Car rental agency",
      "Car leasing service",
      "Taxi service"
    ],
    "reviewsCount": 463,
    "imagesCount": 88,
    "openingHours": [
      {
        "day": "Monday",
        "hours": "Open 24 hours"
      },
      {
        "day": "Tuesday",
        "hours": "Open 24 hours"
      },
      {
        "day": "Wednesday",
        "hours": "Open 24 hours"
      },
      {
        "day": "Thursday",
        "hours": "Open 24 hours"
      },
      {
        "day": "Friday",
        "hours": "Open 24 hours"
      },
      {
        "day": "Saturday",
        "hours": "Open 24 hours"
      },
      {
        "day": "Sunday",
        "hours": "Open 24 hours"
      }
    ],
    "imageUrl": "https://media.indianluxurycars.com/google/4d921753251cb876d06e3bf2819b41868d4778fdec3ec712a6aa47ec9c4ab59e.jpg",
    "url": "https://www.google.com/maps/search/?api=1&query=Shivraj%20Car%20Rental%20Solapur&query_place_id=ChIJlRzuwWbZxTsRnO3i1nH7-4Y"
  },
  {
    "title": "Shravani Car Rentals | Cab Service | Taxi Service in Solapur",
    "subTitle": "श्रावणी कार रेंटल्स | कैब सर्विस | टैक्सी सर्विस इन सोलापुर",
    "categoryName": "Car rental agency",
    "address": "Arvindham police vasahat, 8/8, Nirali Basti, Dharamsi Lane Murarji Peth, Murarji Peth, Solapur, Maharashtra 413001, India",
    "neighborhood": "Nirali Basti, Dharamsi Lane Murarji Peth, Murarji Peth",
    "street": "Arvindham police vasahat, 8/8",
    "city": "Solapur",
    "postalCode": "413001",
    "state": "Maharashtra",
    "countryCode": "IN",
    "website": "https://shravanicarrentals.com/",
    "phone": "+919011140600",
    "phoneUnformatted": "+919011140600",
    "location": {
      "lat": 17.6789991,
      "lng": 75.8885441
    },
    "totalScore": 4.9,
    "permanentlyClosed": false,
    "temporarilyClosed": false,
    "placeId": "ChIJ73HbBH3QxTsRCdubpRA9YFk",
    "categories": [
      "Car rental agency",
      "Car leasing service",
      "Tour operator",
      "Travel agency"
    ],
    "reviewsCount": 307,
    "imagesCount": 129,
    "openingHours": [
      {
        "day": "Monday",
        "hours": "Open 24 hours"
      },
      {
        "day": "Tuesday",
        "hours": "Open 24 hours"
      },
      {
        "day": "Wednesday",
        "hours": "Open 24 hours"
      },
      {
        "day": "Thursday",
        "hours": "Open 24 hours"
      },
      {
        "day": "Friday",
        "hours": "Open 24 hours"
      },
      {
        "day": "Saturday",
        "hours": "Open 24 hours"
      },
      {
        "day": "Sunday",
        "hours": "Open 24 hours"
      }
    ],
    "imageUrl": "https://media.indianluxurycars.com/google/29873224ff4f2d92ed004330097e205762713169cc8d6ab61327707019bf8d3d.jpg",
    "url": "https://www.google.com/maps/search/?api=1&query=Shravani%20Car%20Rentals%20%7C%20Cab%20Service%20%7C%20Taxi%20Service%20in%20Solapur&query_place_id=ChIJ73HbBH3QxTsRCdubpRA9YFk"
  },
  {
    "title": "Shree Patil Tours & Travels",
    "subTitle": "श्री पाटिल टूर्स & ट्रैवल्स",
    "categoryName": "Car leasing service",
    "address": "Railway Station Rd, Solapur, Maharashtra 413001, India",
    "street": "Railway Station Rd",
    "city": "Solapur",
    "postalCode": "413001",
    "state": "Maharashtra",
    "countryCode": "IN",
    "website": "https://wa.link/cxemsu",
    "phone": "+918698702001",
    "phoneUnformatted": "+918698702001",
    "location": {
      "lat": 17.6610275,
      "lng": 75.8984692
    },
    "totalScore": 5,
    "permanentlyClosed": false,
    "temporarilyClosed": false,
    "placeId": "ChIJKdNq2kXRxTsRrkHMWfYR7G0",
    "categories": [
      "Car leasing service"
    ],
    "reviewsCount": 7,
    "imagesCount": 9,
    "openingHours": [
      {
        "day": "Monday",
        "hours": "Open 24 hours"
      },
      {
        "day": "Tuesday",
        "hours": "Open 24 hours"
      },
      {
        "day": "Wednesday",
        "hours": "Open 24 hours"
      },
      {
        "day": "Thursday",
        "hours": "Open 24 hours"
      },
      {
        "day": "Friday",
        "hours": "Open 24 hours"
      },
      {
        "day": "Saturday",
        "hours": "Open 24 hours"
      },
      {
        "day": "Sunday",
        "hours": "Open 24 hours"
      }
    ],
    "imageUrl": "https://media.indianluxurycars.com/google/2262eeb9093e0a081d082ad14b9a2115ec533e88c7e4d1b90fd5e7e371c60732.jpg",
    "url": "https://www.google.com/maps/search/?api=1&query=Shree%20Patil%20Tours%20%26%20Travels&query_place_id=ChIJKdNq2kXRxTsRrkHMWfYR7G0"
  },
  {
    "title": "solapur car rental",
    "subTitle": "सोलापुर कार रेंटल",
    "categoryName": "Car rental agency",
    "address": "46, Brahmachaitanya Nagar, Maharashtra 413004, India",
    "neighborhood": "Kamla Nagar",
    "street": "46, Brahmachaitanya Nagar",
    "city": "Solapur",
    "postalCode": "413004",
    "state": "Maharashtra",
    "countryCode": "IN",
    "location": {
      "lat": 17.6392852,
      "lng": 75.8890505
    },
    "permanentlyClosed": false,
    "temporarilyClosed": false,
    "placeId": "ChIJW6LQ4QvRxTsRbkoLeiLMSqA",
    "categories": [
      "Car rental agency",
      "Taxi service"
    ],
    "imagesCount": 2,
    "openingHours": [
      {
        "day": "Monday",
        "hours": "Open 24 hours"
      },
      {
        "day": "Tuesday",
        "hours": "Open 24 hours"
      },
      {
        "day": "Wednesday",
        "hours": "Open 24 hours"
      },
      {
        "day": "Thursday",
        "hours": "Open 24 hours"
      },
      {
        "day": "Friday",
        "hours": "Open 24 hours"
      },
      {
        "day": "Saturday",
        "hours": "Open 24 hours"
      },
      {
        "day": "Sunday",
        "hours": "Open 24 hours"
      }
    ],
    "imageUrl": "https://media.indianluxurycars.com/google/bee11860ee5af7594b31af75a655b69decd127e33fd8406b7e1e9d5c3db801cc.jpg",
    "url": "https://www.google.com/maps/search/?api=1&query=solapur%20car%20rental&query_place_id=ChIJW6LQ4QvRxTsRbkoLeiLMSqA"
  },
  {
    "title": "Solapur Travel Experia (Car Rental / Car Hire / Taxi Services in Solapur)",
    "subTitle": "सोलापुर ट्रैवल एक्सपीरिया (कार रेंटल / कार हीरे / टैक्सी सर्विसेस इन सोलापुर)",
    "categoryName": "Car rental agency",
    "address": "782 Shop, SM Patil Mandap contractors, Shivsmarak hall, Maharashtra 413007, India",
    "neighborhood": "Navi Peth, Murarji Peth",
    "street": "782 Shop, SM Patil Mandap contractors, Shivsmarak hall",
    "city": "Solapur",
    "postalCode": "413007",
    "state": "Maharashtra",
    "countryCode": "IN",
    "website": "https://www.solapurtravelexperia.com/",
    "phone": "+919049566788",
    "phoneUnformatted": "+919049566788",
    "location": {
      "lat": 17.6779923,
      "lng": 75.9000052
    },
    "totalScore": 5,
    "permanentlyClosed": false,
    "temporarilyClosed": false,
    "placeId": "ChIJhz7LOnXbxTsRuLePVB5PuvI",
    "categories": [
      "Car rental agency",
      "Car leasing service",
      "Chauffeur service",
      "Minibus taxi service",
      "Taxi service"
    ],
    "reviewsCount": 14,
    "imagesCount": 36,
    "openingHours": [
      {
        "day": "Monday",
        "hours": "Open 24 hours"
      },
      {
        "day": "Tuesday",
        "hours": "Open 24 hours"
      },
      {
        "day": "Wednesday",
        "hours": "Open 24 hours"
      },
      {
        "day": "Thursday",
        "hours": "Open 24 hours"
      },
      {
        "day": "Friday",
        "hours": "Open 24 hours"
      },
      {
        "day": "Saturday",
        "hours": "Open 24 hours"
      },
      {
        "day": "Sunday",
        "hours": "Open 24 hours"
      }
    ],
    "imageUrl": "https://media.indianluxurycars.com/google/e5723bcbf9e210fd05cc2b6239a1057742ab560f1c767f83a9d3938e07e635e6.jpg",
    "url": "https://www.google.com/maps/search/?api=1&query=Solapur%20Travel%20Experia%20(Car%20Rental%20%2F%20Car%20Hire%20%2F%20Taxi%20Services%20in%20Solapur)&query_place_id=ChIJhz7LOnXbxTsRuLePVB5PuvI"
  },
  {
    "title": "Vaibhavi Tours and Travels",
    "subTitle": "वैभवी टूर्स एंड ट्रैवल्स",
    "categoryName": "Car rental agency",
    "address": "48, Railway Lines Rd, Railway lines, Solapur, Maharashtra 413001, India",
    "neighborhood": "Railway lines",
    "street": "48, Railway Lines Rd",
    "city": "Solapur",
    "postalCode": "413001",
    "state": "Maharashtra",
    "countryCode": "IN",
    "website": "https://vaibhavitoursandtravels.com/",
    "phone": "+918530271845",
    "phoneUnformatted": "+918530271845",
    "location": {
      "lat": 17.6648115,
      "lng": 75.8942616
    },
    "totalScore": 5,
    "permanentlyClosed": false,
    "temporarilyClosed": false,
    "placeId": "ChIJd8BbfG7bxTsRsG8gEn__REI",
    "categories": [
      "Car rental agency"
    ],
    "reviewsCount": 168,
    "imagesCount": 9,
    "openingHours": [
      {
        "day": "Monday",
        "hours": "Open 24 hours"
      },
      {
        "day": "Tuesday",
        "hours": "Open 24 hours"
      },
      {
        "day": "Wednesday",
        "hours": "Open 24 hours"
      },
      {
        "day": "Thursday",
        "hours": "Open 24 hours"
      },
      {
        "day": "Friday",
        "hours": "Open 24 hours"
      },
      {
        "day": "Saturday",
        "hours": "Open 24 hours"
      },
      {
        "day": "Sunday",
        "hours": "Open 24 hours"
      }
    ],
    "imageUrl": "https://media.indianluxurycars.com/google/f5c9cccd2819164957efe6d1ebe3a3423c7d966c021c03405b892b4e3aafd48c.jpg",
    "url": "https://www.google.com/maps/search/?api=1&query=Vaibhavi%20Tours%20and%20Travels&query_place_id=ChIJd8BbfG7bxTsRsG8gEn__REI"
  },
  {
    "title": "Vallabh Cab Service",
    "subTitle": "वल्लभ कैब सर्विस",
    "categoryName": "Car leasing service",
    "address": "Plot No 13, Vastu Vihar Colony Majarewadi, Gate, Jule, Solapur, Maharashtra 413224, India",
    "neighborhood": "Bank Colony, Dnyaneshwar Nagar, Vishnupuri, Jule",
    "street": "Plot No 13, Vastu Vihar Colony Majarewadi, Gate",
    "city": "Solapur",
    "postalCode": "413224",
    "state": "Maharashtra",
    "countryCode": "IN",
    "phone": "+919561554699",
    "phoneUnformatted": "+919561554699",
    "location": {
      "lat": 17.6270218,
      "lng": 75.9217942
    },
    "totalScore": 4.8,
    "permanentlyClosed": false,
    "temporarilyClosed": false,
    "placeId": "ChIJJc0GxezZxTsRcZ6pG_cY-08",
    "categories": [
      "Car leasing service"
    ],
    "reviewsCount": 47,
    "imagesCount": 13,
    "openingHours": [
      {
        "day": "Monday",
        "hours": "Open 24 hours"
      },
      {
        "day": "Tuesday",
        "hours": "Open 24 hours"
      },
      {
        "day": "Wednesday",
        "hours": "Open 24 hours"
      },
      {
        "day": "Thursday",
        "hours": "Open 24 hours"
      },
      {
        "day": "Friday",
        "hours": "Open 24 hours"
      },
      {
        "day": "Saturday",
        "hours": "Open 24 hours"
      },
      {
        "day": "Sunday",
        "hours": "Open 24 hours"
      }
    ],
    "imageUrl": "https://media.indianluxurycars.com/google/ac667aa9b44ef43847fadce2742bdd254ace142999c8fe58b7370efa0eebf25c.jpg",
    "url": "https://www.google.com/maps/search/?api=1&query=Vallabh%20Cab%20Service&query_place_id=ChIJJc0GxezZxTsRcZ6pG_cY-08"
  }
]
