[
  {
    "title": "Aala Tours & Travels",
    "categoryName": "Car rental agency",
    "address": "Saida Kadal, Hazratbal Rd, near Bus Stop, Karapura, Rainawari, Srinagar, Jammu and Kashmir 190003",
    "neighborhood": "Karapura, Rainawari",
    "street": "Saida Kadal, Hazratbal Rd, near Bus Stop",
    "city": "Srinagar",
    "postalCode": "190003",
    "state": "Jammu and Kashmir",
    "countryCode": "IN",
    "website": "http://www.aalatravels.com/",
    "phone": "+919205028000",
    "phoneUnformatted": "+919205028000",
    "location": {
      "lat": 34.104462,
      "lng": 74.8288675
    },
    "totalScore": 4.5,
    "permanentlyClosed": false,
    "temporarilyClosed": false,
    "placeId": "ChIJTfq_wZ2F4TgR7hLSRCK7LEY",
    "categories": [
      "Car rental agency",
      "Airline ticket agency",
      "Car leasing service",
      "Tour operator",
      "Houseboat rental service",
      "Sightseeing tour agency",
      "Tour agency",
      "Tourist information center",
      "Travel agency"
    ],
    "reviewsCount": 649,
    "imagesCount": 827,
    "openingHours": [
      {
        "day": "Monday",
        "hours": "10 AM to 6 PM"
      },
      {
        "day": "Tuesday",
        "hours": "10 AM to 6 PM"
      },
      {
        "day": "Wednesday",
        "hours": "10 AM to 6 PM"
      },
      {
        "day": "Thursday",
        "hours": "10 AM to 6 PM"
      },
      {
        "day": "Friday",
        "hours": "10 AM to 6 PM"
      },
      {
        "day": "Saturday",
        "hours": "10 AM to 6 PM"
      },
      {
        "day": "Sunday",
        "hours": "Closed"
      }
    ],
    "imageUrl": "https://media.indianluxurycars.com/google/ad1d080a8143858a1b043593ba50f4340f01c1fd6fb57708263a43f8d8b0af47.jpg",
    "url": "https://www.google.com/maps/search/?api=1&query=Aala%20Tours%20%26%20Travels&query_place_id=ChIJTfq_wZ2F4TgR7hLSRCK7LEY"
  },
  {
    "title": "Aashish Tour And Travels Pvt. Ltd",
    "categoryName": "Car rental agency",
    "address": "3RH6+8R9, near Wazir Lane, Barbar Shah, Habba Kadal, Srinagar, Jammu and Kashmir 190001",
    "neighborhood": "Barbar Shah, Habba Kadal",
    "street": "3RH6+8R9, near Wazir Lane",
    "city": "Srinagar",
    "postalCode": "190001",
    "state": "Jammu and Kashmir",
    "countryCode": "IN",
    "website": "http://www.aashishtravels.in/",
    "phone": "+917006016423",
    "phoneUnformatted": "+917006016423",
    "location": {
      "lat": 34.0782892,
      "lng": 74.8121175
    },
    "totalScore": 4.6,
    "permanentlyClosed": false,
    "temporarilyClosed": false,
    "placeId": "ChIJq6qquj2F4TgRur7fIoHDUcs",
    "categories": [
      "Car rental agency",
      "Car leasing service",
      "Tour operator",
      "Minibus taxi service",
      "Sightseeing tour agency",
      "Taxi service",
      "Tour agency",
      "Tourist information center",
      "Travel agency"
    ],
    "reviewsCount": 179,
    "imagesCount": 30,
    "openingHours": [
      {
        "day": "Monday",
        "hours": "Open 24 hours"
      },
      {
        "day": "Tuesday",
        "hours": "Open 24 hours"
      },
      {
        "day": "Wednesday",
        "hours": "Open 24 hours"
      },
      {
        "day": "Thursday",
        "hours": "Open 24 hours"
      },
      {
        "day": "Friday",
        "hours": "Open 24 hours"
      },
      {
        "day": "Saturday",
        "hours": "Open 24 hours"
      },
      {
        "day": "Sunday",
        "hours": "Open 24 hours"
      }
    ],
    "imageUrl": "https://media.indianluxurycars.com/google/fccc43a754d4d41e1feeae5390192ad4891aac64570fb0e5d2a2737f0b1c6724.jpg",
    "url": "https://www.google.com/maps/search/?api=1&query=Aashish%20Tour%20And%20Travels%20Pvt.%20Ltd&query_place_id=ChIJq6qquj2F4TgRur7fIoHDUcs"
  },
  {
    "title": "ASIAN CARS",
    "categoryName": "Car dealer",
    "address": "Karan Nagar, Srinagar, Jammu and Kashmir 190010",
    "neighborhood": "Karan Nagar",
    "city": "Srinagar",
    "postalCode": "190010",
    "state": "Jammu and Kashmir",
    "countryCode": "IN",
    "phone": "+919419002616",
    "phoneUnformatted": "+919419002616",
    "location": {
      "lat": 34.0849669,
      "lng": 74.7967708
    },
    "totalScore": 3.8,
    "permanentlyClosed": false,
    "temporarilyClosed": false,
    "placeId": "ChIJf1JV_ZqP4TgRakHs3MrXEn0",
    "categories": [
      "Car dealer"
    ],
    "reviewsCount": 15,
    "imagesCount": 16,
    "openingHours": [
      {
        "day": "Monday",
        "hours": "9 AM to 7 PM"
      },
      {
        "day": "Tuesday",
        "hours": "9 AM to 7 PM"
      },
      {
        "day": "Wednesday",
        "hours": "9 AM to 7 PM"
      },
      {
        "day": "Thursday",
        "hours": "9 AM to 7 PM"
      },
      {
        "day": "Friday",
        "hours": "9 AM to 7 PM"
      },
      {
        "day": "Saturday",
        "hours": "9 AM to 7 PM"
      },
      {
        "day": "Sunday",
        "hours": "9 AM to 7 PM"
      }
    ],
    "imageUrl": "https://media.indianluxurycars.com/google/22d7e73c0e97a62e8528c2604660657238cb327adcbffa6603bab5c96534cac0.jpg",
    "url": "https://www.google.com/maps/search/?api=1&query=ASIAN%20CARS&query_place_id=ChIJf1JV_ZqP4TgRakHs3MrXEn0"
  },
  {
    "title": "Asian Motors",
    "categoryName": "Used car dealer",
    "address": "3RJ9+RRG, Opposite Paris Bajaj Showroom, Badyar Balla, Munawar Link Road, Munawara Abad, Srinagar, Jammu and Kashmir 190001",
    "neighborhood": "Munawara Abad",
    "street": "3RJ9+RRG, Opposite Paris Bajaj Showroom, Badyar Balla, Munawar Link Road",
    "city": "Srinagar",
    "postalCode": "190001",
    "state": "Jammu and Kashmir",
    "countryCode": "IN",
    "location": {
      "lat": 34.08201,
      "lng": 74.8195195
    },
    "totalScore": 3.6,
    "permanentlyClosed": false,
    "temporarilyClosed": false,
    "placeId": "ChIJd0pxcTmP4TgRQtkPRmag3nE",
    "categories": [
      "Used car dealer",
      "Auto broker",
      "Car dealer",
      "Motor vehicle dealer",
      "Vehicle inspection service"
    ],
    "reviewsCount": 37,
    "imagesCount": 2,
    "openingHours": [
      {
        "day": "Monday",
        "hours": "10 AM to 7 PM"
      },
      {
        "day": "Tuesday",
        "hours": "10 AM to 7 PM"
      },
      {
        "day": "Wednesday",
        "hours": "10 AM to 7 PM"
      },
      {
        "day": "Thursday",
        "hours": "10 AM to 7 PM"
      },
      {
        "day": "Friday",
        "hours": "10 AM to 7 PM"
      },
      {
        "day": "Saturday",
        "hours": "10 AM to 7 PM"
      },
      {
        "day": "Sunday",
        "hours": "Closed"
      }
    ],
    "imageUrl": "https://media.indianluxurycars.com/google/01f650dfa321858c4c64b970dc1e76080efe9ceb3c47667ae49ce014c08f6dfd.jpg",
    "url": "https://www.google.com/maps/search/?api=1&query=Asian%20Motors&query_place_id=ChIJd0pxcTmP4TgRQtkPRmag3nE"
  },
  {
    "title": "Auto mart",
    "categoryName": "Car dealer",
    "address": "Shamas abad bemina main road Ground floor alquds complex, near kfc, Bemina, Srinagar, Jammu and Kashmir 190018",
    "neighborhood": "Bemina",
    "street": "Shamas abad bemina main road Ground floor alquds complex, near kfc",
    "city": "Srinagar",
    "postalCode": "190018",
    "state": "Jammu and Kashmir",
    "countryCode": "IN",
    "phone": "+919906724785",
    "phoneUnformatted": "+919906724785",
    "location": {
      "lat": 34.0764279,
      "lng": 74.7768818
    },
    "totalScore": 4.5,
    "permanentlyClosed": false,
    "temporarilyClosed": false,
    "placeId": "ChIJ94fg59CR4TgR9YQpARytESg",
    "categories": [
      "Car dealer"
    ],
    "reviewsCount": 8,
    "imagesCount": 19,
    "openingHours": [
      {
        "day": "Monday",
        "hours": "9 AM to 5 PM"
      },
      {
        "day": "Tuesday",
        "hours": "9 AM to 5 PM"
      },
      {
        "day": "Wednesday",
        "hours": "9 AM to 5 PM"
      },
      {
        "day": "Thursday",
        "hours": "9 AM to 5 PM"
      },
      {
        "day": "Friday",
        "hours": "9 AM to 5 PM"
      },
      {
        "day": "Saturday",
        "hours": "9 AM to 5 PM"
      },
      {
        "day": "Sunday",
        "hours": "Closed"
      }
    ],
    "imageUrl": "https://media.indianluxurycars.com/google/c2d02f1c99f02d353114e21d5aeeb238afb8115d9f38c43bbc33ca51d40ae404.jpg",
    "url": "https://www.google.com/maps/search/?api=1&query=Auto%20mart&query_place_id=ChIJ94fg59CR4TgR9YQpARytESg"
  },
  {
    "title": "Auto suzi car point",
    "categoryName": "Used car dealer",
    "address": "Old, near women police s station, Barzulla, Ram Bagh, Srinagar, Jammu and Kashmir 190005",
    "neighborhood": "Barzulla, Ram Bagh",
    "street": "Old, near women police s station",
    "city": "Srinagar",
    "postalCode": "190005",
    "state": "Jammu and Kashmir",
    "countryCode": "IN",
    "phone": "+917006611295",
    "phoneUnformatted": "+917006611295",
    "location": {
      "lat": 34.0536498,
      "lng": 74.8041423
    },
    "totalScore": 4.8,
    "permanentlyClosed": false,
    "temporarilyClosed": false,
    "placeId": "ChIJvUGiJ3SP4TgRnV6Z2FtsVi4",
    "categories": [
      "Used car dealer"
    ],
    "reviewsCount": 19,
    "imagesCount": 38,
    "openingHours": [
      {
        "day": "Monday",
        "hours": "9 AM to 5 PM"
      },
      {
        "day": "Tuesday",
        "hours": "9 AM to 5 PM"
      },
      {
        "day": "Wednesday",
        "hours": "9 AM to 5 PM"
      },
      {
        "day": "Thursday",
        "hours": "9 AM to 5 PM"
      },
      {
        "day": "Friday",
        "hours": "10 AM to 5 PM"
      },
      {
        "day": "Saturday",
        "hours": "9:30 AM to 5 PM"
      },
      {
        "day": "Sunday",
        "hours": "Closed"
      }
    ],
    "imageUrl": "https://media.indianluxurycars.com/google/fe4664d03851ea0ad956567125af3becdd0eab885cdd4f1f94a4d0f0d0f83f6f.jpg",
    "url": "https://www.google.com/maps/search/?api=1&query=Auto%20suzi%20car%20point&query_place_id=ChIJvUGiJ3SP4TgRnV6Z2FtsVi4"
  },
  {
    "title": "CAR FOR U",
    "categoryName": "Car dealer",
    "address": "chowk, Khanyaar, Srinagar, Jammu and Kashmir 190001",
    "neighborhood": "Khanyaar",
    "street": "chowk",
    "city": "Srinagar",
    "postalCode": "190001",
    "state": "Jammu and Kashmir",
    "countryCode": "IN",
    "phone": "+917006363904",
    "phoneUnformatted": "+917006363904",
    "location": {
      "lat": 34.0930267,
      "lng": 74.8128679
    },
    "totalScore": 4.1,
    "permanentlyClosed": false,
    "temporarilyClosed": false,
    "placeId": "ChIJY48ej-6F4TgReArl_rJxUMQ",
    "categories": [
      "Car dealer"
    ],
    "reviewsCount": 9,
    "imagesCount": 4,
    "openingHours": [
      {
        "day": "Monday",
        "hours": "9 AM to 8:30 PM"
      },
      {
        "day": "Tuesday",
        "hours": "9 AM to 8:30 PM"
      },
      {
        "day": "Wednesday",
        "hours": "9 AM to 8:30 PM"
      },
      {
        "day": "Thursday",
        "hours": "9 AM to 8:30 PM"
      },
      {
        "day": "Friday",
        "hours": "9 AM to 8:30 PM"
      },
      {
        "day": "Saturday",
        "hours": "9 AM to 8:30 PM"
      },
      {
        "day": "Sunday",
        "hours": "Closed"
      }
    ],
    "imageUrl": "https://media.indianluxurycars.com/google/5bac2acc489f11541bf8c40410eaae94de39ac726fc76dc6c432058748569da7.jpg",
    "url": "https://www.google.com/maps/search/?api=1&query=CAR%20FOR%20U&query_place_id=ChIJY48ej-6F4TgReArl_rJxUMQ"
  },
  {
    "title": "CAR GALLERY",
    "categoryName": "Car dealer",
    "address": "Karan Nagar, Srinagar, Jammu and Kashmir 190010",
    "neighborhood": "Karan Nagar",
    "city": "Srinagar",
    "postalCode": "190010",
    "state": "Jammu and Kashmir",
    "countryCode": "IN",
    "phone": "+919419091001",
    "phoneUnformatted": "+919419091001",
    "location": {
      "lat": 34.080308,
      "lng": 74.7990756
    },
    "totalScore": 4,
    "permanentlyClosed": false,
    "temporarilyClosed": false,
    "placeId": "ChIJtZzAVOuP4TgRGaw5RV6wltQ",
    "categories": [
      "Car dealer"
    ],
    "reviewsCount": 6,
    "imagesCount": 2,
    "openingHours": [
      {
        "day": "Monday",
        "hours": "Open 24 hours"
      },
      {
        "day": "Tuesday",
        "hours": "Open 24 hours"
      },
      {
        "day": "Wednesday",
        "hours": "Open 24 hours"
      },
      {
        "day": "Thursday",
        "hours": "Open 24 hours"
      },
      {
        "day": "Friday",
        "hours": "Open 24 hours"
      },
      {
        "day": "Saturday",
        "hours": "Open 24 hours"
      },
      {
        "day": "Sunday",
        "hours": "Open 24 hours"
      }
    ],
    "imageUrl": "https://media.indianluxurycars.com/google/311e4c66a44d229f28d6d195d18a4554dd5eb36e9cfa2974c2b96d11da6a0425.jpg",
    "url": "https://www.google.com/maps/search/?api=1&query=CAR%20GALLERY&query_place_id=ChIJtZzAVOuP4TgRGaw5RV6wltQ"
  },
  {
    "title": "Car lounge",
    "categoryName": "Used car dealer",
    "address": "Karan Nagar, Srinagar, Jammu and Kashmir 190001",
    "neighborhood": "Karan Nagar",
    "city": "Srinagar",
    "postalCode": "190001",
    "state": "Jammu and Kashmir",
    "countryCode": "IN",
    "phone": "+919906602424",
    "phoneUnformatted": "+919906602424",
    "location": {
      "lat": 34.0804849,
      "lng": 74.7988057
    },
    "totalScore": 5,
    "permanentlyClosed": false,
    "temporarilyClosed": false,
    "placeId": "ChIJAbCosS2P4TgR1aReJPfDz-Y",
    "categories": [
      "Used car dealer"
    ],
    "reviewsCount": 8,
    "imagesCount": 19,
    "openingHours": [
      {
        "day": "Monday",
        "hours": "9 AM to 8 PM"
      },
      {
        "day": "Tuesday",
        "hours": "9 AM to 8 PM"
      },
      {
        "day": "Wednesday",
        "hours": "9 AM to 8 PM"
      },
      {
        "day": "Thursday",
        "hours": "9 AM to 8 PM"
      },
      {
        "day": "Friday",
        "hours": "9 AM to 6 PM"
      },
      {
        "day": "Saturday",
        "hours": "9 AM to 8 PM"
      },
      {
        "day": "Sunday",
        "hours": "Closed"
      }
    ],
    "imageUrl": "https://media.indianluxurycars.com/google/ebb5b0ab96d63e007cbe273b9341a712f731c0cebb23f2202dd8a53b4b43410d.jpg",
    "url": "https://www.google.com/maps/search/?api=1&query=Car%20lounge&query_place_id=ChIJAbCosS2P4TgR1aReJPfDz-Y"
  },
  {
    "title": "Car Rental In Srinagar",
    "categoryName": "Car rental agency",
    "address": "Dal Lake, Boulevard Rd, Gagribal, Srinagar, Jammu and Kashmir 190001",
    "neighborhood": "Gagribal",
    "street": "Dal Lake, Boulevard Rd",
    "city": "Srinagar",
    "postalCode": "190001",
    "state": "Jammu and Kashmir",
    "countryCode": "IN",
    "website": "http://www.carrentalinsrinagar.com/",
    "phone": "+919858421718",
    "phoneUnformatted": "+919858421718",
    "location": {
      "lat": 34.0852384,
      "lng": 74.8387412
    },
    "totalScore": 4.3,
    "permanentlyClosed": false,
    "temporarilyClosed": false,
    "placeId": "ChIJvWwCcvaP4TgRr9OcsoGMvVA",
    "categories": [
      "Car rental agency",
      "Car leasing service",
      "Taxi service",
      "Tour agency"
    ],
    "reviewsCount": 41,
    "imagesCount": 4,
    "openingHours": [
      {
        "day": "Monday",
        "hours": "Open 24 hours"
      },
      {
        "day": "Tuesday",
        "hours": "Open 24 hours"
      },
      {
        "day": "Wednesday",
        "hours": "Open 24 hours"
      },
      {
        "day": "Thursday",
        "hours": "Open 24 hours"
      },
      {
        "day": "Friday",
        "hours": "Open 24 hours"
      },
      {
        "day": "Saturday",
        "hours": "Open 24 hours"
      },
      {
        "day": "Sunday",
        "hours": "Open 24 hours"
      }
    ],
    "imageUrl": "https://media.indianluxurycars.com/google/c690bd8268d7ca7321a8ad9ad3149ba36eeaafb19e5da42a485523c99e108286.jpg",
    "url": "https://www.google.com/maps/search/?api=1&query=Car%20Rental%20In%20Srinagar&query_place_id=ChIJvWwCcvaP4TgRr9OcsoGMvVA"
  },
  {
    "title": "Chinar cabs kashmir",
    "categoryName": "Car leasing service",
    "address": "1st floor, I G Road, Lal Chowk, Press Colony, Srinagar, Jammu and Kashmir 190001",
    "neighborhood": "Press Colony",
    "street": "1st floor, I G Road, Lal Chowk",
    "city": "Srinagar",
    "postalCode": "190001",
    "state": "Jammu and Kashmir",
    "countryCode": "IN",
    "phone": "+919796000343",
    "phoneUnformatted": "+919796000343",
    "location": {
      "lat": 34.0713272,
      "lng": 74.8106242
    },
    "totalScore": 5,
    "permanentlyClosed": false,
    "temporarilyClosed": false,
    "placeId": "ChIJzUy-6PyR4TgRpu4kycQD3hE",
    "categories": [
      "Car leasing service",
      "Air taxi",
      "Taxi service",
      "Tour agency",
      "Tour operator"
    ],
    "reviewsCount": 64,
    "imagesCount": 24,
    "openingHours": [],
    "imageUrl": "https://media.indianluxurycars.com/google/1449e47b0fb13a1894016f8926b6782066e8abab3181aca175e037f4117e0aa8.jpg",
    "url": "https://www.google.com/maps/search/?api=1&query=Chinar%20cabs%20kashmir&query_place_id=ChIJzUy-6PyR4TgRpu4kycQD3hE"
  },
  {
    "title": "Classic cars Bemina",
    "categoryName": "Car dealer",
    "address": "Sultan-ul-Aarfeen Colony, Bemina, Srinagar, Jammu and Kashmir 190018",
    "neighborhood": "Sultan-ul-Aarfeen Colony, Bemina",
    "city": "Srinagar",
    "postalCode": "190018",
    "state": "Jammu and Kashmir",
    "countryCode": "IN",
    "location": {
      "lat": 34.0707301,
      "lng": 74.7754652
    },
    "totalScore": 4.4,
    "permanentlyClosed": false,
    "temporarilyClosed": false,
    "placeId": "ChIJpfBuv_WR4TgRJyG9rbAzoeY",
    "categories": [
      "Car dealer"
    ],
    "reviewsCount": 5,
    "imagesCount": 4,
    "openingHours": [
      {
        "day": "Monday",
        "hours": "Open 24 hours"
      },
      {
        "day": "Tuesday",
        "hours": "Open 24 hours"
      },
      {
        "day": "Wednesday",
        "hours": "Open 24 hours"
      },
      {
        "day": "Thursday",
        "hours": "Open 24 hours"
      },
      {
        "day": "Friday",
        "hours": "Closed"
      },
      {
        "day": "Saturday",
        "hours": "Closed"
      },
      {
        "day": "Sunday",
        "hours": "Open 24 hours"
      }
    ],
    "imageUrl": "https://media.indianluxurycars.com/google/fd1f034f7f879fde9dbb27056ef9d548e50a66500517c5c5212fcf3cafd8363d.jpg",
    "url": "https://www.google.com/maps/search/?api=1&query=Classic%20cars%20Bemina&query_place_id=ChIJpfBuv_WR4TgRJyG9rbAzoeY"
  },
  {
    "title": "Crossland Travel",
    "categoryName": "Car rental agency",
    "address": "3rd floor, Jak Bro Complex, opp. Hotel Ikhwan, Munawara Abad, Srinagar, Jammu and Kashmir 190001",
    "neighborhood": "Munawara Abad",
    "street": "3rd floor, Jak Bro Complex, opp. Hotel Ikhwan",
    "city": "Srinagar",
    "postalCode": "190001",
    "state": "Jammu and Kashmir",
    "countryCode": "IN",
    "website": "http://www.kashmeertour.com/",
    "phone": "+917006676939",
    "phoneUnformatted": "+917006676939",
    "location": {
      "lat": 34.0830836,
      "lng": 74.8192088
    },
    "permanentlyClosed": false,
    "temporarilyClosed": false,
    "placeId": "ChIJZXJam7qP4TgRHj8QtrPIce4",
    "categories": [
      "Car rental agency",
      "Airline ticket agency",
      "Travel agency",
      "Tour operator"
    ],
    "imagesCount": 4,
    "openingHours": [
      {
        "day": "Monday",
        "hours": "9 AM to 5 PM"
      },
      {
        "day": "Tuesday",
        "hours": "9 AM to 5 PM"
      },
      {
        "day": "Wednesday",
        "hours": "9 AM to 5 PM"
      },
      {
        "day": "Thursday",
        "hours": "9 AM to 5 PM"
      },
      {
        "day": "Friday",
        "hours": "9 AM to 5 PM"
      },
      {
        "day": "Saturday",
        "hours": "9 AM to 5 PM"
      },
      {
        "day": "Sunday",
        "hours": "11 AM to 2 PM"
      }
    ],
    "imageUrl": "https://media.indianluxurycars.com/google/2191856581fa4f0652998eea3de555dcb775e9fd72a5f0cafba1890dbcf124ce.jpg",
    "url": "https://www.google.com/maps/search/?api=1&query=Crossland%20Travel&query_place_id=ChIJZXJam7qP4TgRHj8QtrPIce4"
  },
  {
    "title": "D_Automotive",
    "categoryName": "Car leasing service",
    "address": "Barzulla Bridge, Srinagar, Jammu and Kashmir 190015",
    "street": "Barzulla Bridge",
    "city": "Srinagar",
    "postalCode": "190015",
    "state": "Jammu and Kashmir",
    "countryCode": "IN",
    "phone": "+917006250613",
    "phoneUnformatted": "+917006250613",
    "location": {
      "lat": 34.0498429,
      "lng": 74.8027001
    },
    "totalScore": 5,
    "permanentlyClosed": false,
    "temporarilyClosed": false,
    "placeId": "ChIJoTR8aGaP4TgR7hCbSkePiPA",
    "categories": [
      "Car leasing service"
    ],
    "reviewsCount": 17,
    "imagesCount": 6,
    "openingHours": [
      {
        "day": "Monday",
        "hours": "9 AM to 8 PM"
      },
      {
        "day": "Tuesday",
        "hours": "9 AM to 8 PM"
      },
      {
        "day": "Wednesday",
        "hours": "9 AM to 8 PM"
      },
      {
        "day": "Thursday",
        "hours": "9 AM to 8 PM"
      },
      {
        "day": "Friday",
        "hours": "9 AM to 8 PM"
      },
      {
        "day": "Saturday",
        "hours": "9 AM to 8 PM"
      },
      {
        "day": "Sunday",
        "hours": "Closed"
      }
    ],
    "imageUrl": "https://media.indianluxurycars.com/google/2c504948c13299db35fa36db9cb5bac61f1bc1a5c9ece9a1aebc657246ce6b48.jpg",
    "url": "https://www.google.com/maps/search/?api=1&query=D_Automotive&query_place_id=ChIJoTR8aGaP4TgR7hCbSkePiPA"
  },
  {
    "title": "Distant Holidays",
    "categoryName": "Car leasing service",
    "address": "Ground Level, Sheikh Building Shiraz Chowk, Road, Khanyaar, Srinagar, Jammu and Kashmir 190003",
    "neighborhood": "Khanyaar",
    "street": "Ground Level, Sheikh Building Shiraz Chowk, Road",
    "city": "Srinagar",
    "postalCode": "190003",
    "state": "Jammu and Kashmir",
    "countryCode": "IN",
    "website": "https://distantholidays.com/kashmir-tour-packages/",
    "phone": "+919796999888",
    "phoneUnformatted": "+919796999888",
    "location": {
      "lat": 34.0915796,
      "lng": 74.8192545
    },
    "totalScore": 4.8,
    "permanentlyClosed": false,
    "temporarilyClosed": false,
    "placeId": "ChIJA7S0wYuP4TgRncMpNr2N9V8",
    "categories": [
      "Car leasing service",
      "Tour operator",
      "Sightseeing tour agency",
      "Travel agency"
    ],
    "reviewsCount": 2507,
    "imagesCount": 2353,
    "openingHours": [
      {
        "day": "Monday",
        "hours": "10 AM to 6 PM"
      },
      {
        "day": "Tuesday",
        "hours": "10 AM to 6 PM"
      },
      {
        "day": "Wednesday",
        "hours": "10 AM to 6 PM"
      },
      {
        "day": "Thursday",
        "hours": "10 AM to 6 PM"
      },
      {
        "day": "Friday",
        "hours": "10 AM to 6 PM"
      },
      {
        "day": "Saturday",
        "hours": "10 AM to 6 PM"
      },
      {
        "day": "Sunday",
        "hours": "Closed"
      }
    ],
    "imageUrl": "https://media.indianluxurycars.com/google/f8b7766ef80fed2dd6b48cc1476ddf471bd8998b32c7c0b1c6e7e44d779d3c19.jpg",
    "url": "https://www.google.com/maps/search/?api=1&query=Distant%20Holidays&query_place_id=ChIJA7S0wYuP4TgRncMpNr2N9V8"
  },
  {
    "title": "Drip IN Kashmir | Tour Operators | Jammu | Kashmir | Ladakh | Travel Agency",
    "categoryName": "Car leasing service",
    "address": "Gousai Market Road, Khanyaar, Srinagar, Jammu and Kashmir 190003",
    "neighborhood": "Khanyaar",
    "street": "Gousai Market Road",
    "city": "Srinagar",
    "postalCode": "190003",
    "state": "Jammu and Kashmir",
    "countryCode": "IN",
    "website": "https://dripinkashmir.com/",
    "phone": "+919906266116",
    "phoneUnformatted": "+919906266116",
    "location": {
      "lat": 34.0904465,
      "lng": 74.8151765
    },
    "totalScore": 4.8,
    "permanentlyClosed": false,
    "temporarilyClosed": false,
    "placeId": "ChIJqbri9X2F4TgRZjySlmBkprw",
    "categories": [
      "Car leasing service",
      "Adventure sports center",
      "Tour operator",
      "Corporate office",
      "Religious destination",
      "Sightseeing tour agency",
      "Travel agency"
    ],
    "reviewsCount": 122,
    "imagesCount": 286,
    "openingHours": [
      {
        "day": "Monday",
        "hours": "Open 24 hours"
      },
      {
        "day": "Tuesday",
        "hours": "Open 24 hours"
      },
      {
        "day": "Wednesday",
        "hours": "Open 24 hours"
      },
      {
        "day": "Thursday",
        "hours": "Open 24 hours"
      },
      {
        "day": "Friday",
        "hours": "Open 24 hours"
      },
      {
        "day": "Saturday",
        "hours": "Open 24 hours"
      },
      {
        "day": "Sunday",
        "hours": "Open 24 hours"
      }
    ],
    "imageUrl": "https://media.indianluxurycars.com/google/9d639bd3e73d1c8ff420eda8a02d39b5d7f7a8b29ac8e63485a01cf8920a8626.jpg",
    "url": "https://www.google.com/maps/search/?api=1&query=Drip%20IN%20Kashmir%20%7C%20Tour%20Operators%20%7C%20Jammu%20%7C%20Kashmir%20%7C%20Ladakh%20%7C%20Travel%20Agency&query_place_id=ChIJqbri9X2F4TgRZjySlmBkprw"
  },
  {
    "title": "Eager Tours and Travels - Taxi Service in Srinagar, Cab Service in Srinagar, Taxi and Cab Service in Srinagar",
    "categoryName": "Car rental agency",
    "address": "Barbar Shah, Kashmir Golf Course, Nohata, Srinagar, Jammu and Kashmir 190001",
    "neighborhood": "Barbar Shah, Kashmir Golf Course, Nohata",
    "city": "Srinagar",
    "postalCode": "190001",
    "state": "Jammu and Kashmir",
    "countryCode": "IN",
    "website": "https://eager-tours-and.localo.site/?utm_source=google_profile&utm_campaign=localo&utm_medium=mainlink",
    "phone": "+919797051505",
    "phoneUnformatted": "+919797051505",
    "location": {
      "lat": 34.0795171,
      "lng": 74.8209136
    },
    "totalScore": 4.9,
    "permanentlyClosed": false,
    "temporarilyClosed": false,
    "placeId": "ChIJM9IdPmsf4jgR_yUkFpayJFY",
    "categories": [
      "Car rental agency",
      "Car leasing service",
      "Taxi service",
      "Sightseeing tour agency",
      "Tour agency",
      "Tour operator",
      "Travel agency"
    ],
    "reviewsCount": 86,
    "imagesCount": 201,
    "openingHours": [],
    "imageUrl": "https://media.indianluxurycars.com/google/3a1e3c7d8a21cc2a905fcc47701475dd1a9801f98116cb490d9012d2283b69a9.png",
    "url": "https://www.google.com/maps/search/?api=1&query=Eager%20Tours%20and%20Travels%20-%20Taxi%20Service%20in%20Srinagar%2C%20Cab%20Service%20in%20Srinagar%2C%20Taxi%20and%20Cab%20Service%20in%20Srinagar&query_place_id=ChIJM9IdPmsf4jgR_yUkFpayJFY"
  },
  {
    "title": "Greystar tour and travels",
    "categoryName": "Car leasing service",
    "address": "opposite PARIS BAJAJ, Munawara Abad, Srinagar, Jammu and Kashmir 190001",
    "neighborhood": "Munawara Abad",
    "street": "opposite PARIS BAJAJ",
    "city": "Srinagar",
    "postalCode": "190001",
    "state": "Jammu and Kashmir",
    "countryCode": "IN",
    "phone": "+919018090410",
    "phoneUnformatted": "+919018090410",
    "location": {
      "lat": 34.0816453,
      "lng": 74.8196499
    },
    "totalScore": 4.9,
    "permanentlyClosed": false,
    "temporarilyClosed": false,
    "placeId": "ChIJYZeowB6H4TgRDkpplXFznWw",
    "categories": [
      "Car leasing service",
      "Airline ticket agency",
      "Travel agency",
      "Sightseeing tour agency",
      "Tour operator"
    ],
    "reviewsCount": 105,
    "imagesCount": 135,
    "openingHours": [
      {
        "day": "Monday",
        "hours": "9:30 AM to 5:30 PM"
      },
      {
        "day": "Tuesday",
        "hours": "9:30 AM to 5:30 PM"
      },
      {
        "day": "Wednesday",
        "hours": "9:30 AM to 5:30 PM"
      },
      {
        "day": "Thursday",
        "hours": "9:30 AM to 5:30 PM"
      },
      {
        "day": "Friday",
        "hours": "9:30 AM to 12:30 PM"
      },
      {
        "day": "Saturday",
        "hours": "9:30 AM to 5:30 PM"
      },
      {
        "day": "Sunday",
        "hours": "Closed"
      }
    ],
    "imageUrl": "https://media.indianluxurycars.com/google/e3fd7caf14d9fb109a91eee4e861de03af5504cfe25e6da43480f9ca97cb3307.jpg",
    "url": "https://www.google.com/maps/search/?api=1&query=Greystar%20tour%20and%20travels&query_place_id=ChIJYZeowB6H4TgRDkpplXFznWw"
  },
  {
    "title": "Highland Automobiles Pvt. Ltd.- True Value Maruti",
    "categoryName": "Used car dealer",
    "address": "ANSARI COMPLEX, Sonwar Bagh, Srinagar, Jammu and Kashmir 190004",
    "neighborhood": "Sonwar Bagh",
    "street": "ANSARI COMPLEX",
    "city": "Srinagar",
    "postalCode": "190004",
    "state": "Jammu and Kashmir",
    "countryCode": "IN",
    "website": "https://www.marutisuzukitruevalue.com/dealerlocator",
    "phone": "+919419408575",
    "phoneUnformatted": "+919419408575",
    "location": {
      "lat": 34.058261,
      "lng": 74.8521752
    },
    "totalScore": 3.5,
    "permanentlyClosed": false,
    "temporarilyClosed": false,
    "placeId": "ChIJAQAAwCKP4TgRZcUcldFjbSk",
    "categories": [
      "Used car dealer",
      "Car dealer"
    ],
    "reviewsCount": 12,
    "openingHours": [],
    "url": "https://www.google.com/maps/search/?api=1&query=Highland%20Automobiles%20Pvt.%20Ltd.-%20True%20Value%20Maruti&query_place_id=ChIJAQAAwCKP4TgRZcUcldFjbSk"
  },
  {
    "title": "Holiday Kashmir",
    "categoryName": "Car leasing service",
    "address": "Ghat No.9, Dalgate, Boulevard Rd, Karapura, Rainawari, Srinagar, Jammu and Kashmir 190001",
    "neighborhood": "Karapura, Rainawari",
    "street": "Ghat No.9, Dalgate, Boulevard Rd",
    "city": "Srinagar",
    "postalCode": "190001",
    "state": "Jammu and Kashmir",
    "countryCode": "IN",
    "website": "http://holidaykashmir.in/",
    "location": {
      "lat": 34.0854635,
      "lng": 74.8369515
    },
    "totalScore": 4.7,
    "permanentlyClosed": false,
    "temporarilyClosed": false,
    "placeId": "ChIJmZt9lKKP4TgRgsKdgJrRq74",
    "categories": [
      "Car leasing service",
      "Boat tour agency",
      "Travel agency",
      "Hotel",
      "Tour agency",
      "Tour operator"
    ],
    "reviewsCount": 56,
    "imagesCount": 152,
    "openingHours": [],
    "imageUrl": "https://media.indianluxurycars.com/google/a37aec5d7ab60140221cfaf452cb41f8efaf9efc11caf05f883aa0e588e5e542.jpg",
    "url": "https://www.google.com/maps/search/?api=1&query=Holiday%20Kashmir&query_place_id=ChIJmZt9lKKP4TgRgsKdgJrRq74"
  },
  {
    "title": "Journey Jive",
    "categoryName": "Car rental agency",
    "address": "Top floor, rather complex, Munawara Abad, Srinagar, Jammu and Kashmir 190001",
    "neighborhood": "Munawara Abad",
    "street": "Top floor, rather complex",
    "city": "Srinagar",
    "postalCode": "190001",
    "state": "Jammu and Kashmir",
    "countryCode": "IN",
    "website": "http://www.journeyjive.in/",
    "phone": "+919906484734",
    "phoneUnformatted": "+919906484734",
    "location": {
      "lat": 34.0808384,
      "lng": 74.8194046
    },
    "totalScore": 4.9,
    "permanentlyClosed": false,
    "temporarilyClosed": false,
    "placeId": "ChIJsRLA40qF4TgRmfh8HNeSrx8",
    "categories": [
      "Car rental agency",
      "Car leasing service",
      "Travel agency",
      "Taxi service",
      "Tour operator"
    ],
    "reviewsCount": 194,
    "imagesCount": 135,
    "openingHours": [
      {
        "day": "Monday",
        "hours": "9 AM to 7 PM"
      },
      {
        "day": "Tuesday",
        "hours": "9 AM to 7 PM"
      },
      {
        "day": "Wednesday",
        "hours": "9 AM to 7 PM"
      },
      {
        "day": "Thursday",
        "hours": "9 AM to 7 PM"
      },
      {
        "day": "Friday",
        "hours": "9 AM to 7 PM"
      },
      {
        "day": "Saturday",
        "hours": "9 AM to 7 PM"
      },
      {
        "day": "Sunday",
        "hours": "12 to 5 PM"
      }
    ],
    "imageUrl": "https://media.indianluxurycars.com/google/88c972f4e71b2c63e0a8773fb26ea13e249437856c6c33bc57d3dcd8fc5fb920.jpg",
    "url": "https://www.google.com/maps/search/?api=1&query=Journey%20Jive&query_place_id=ChIJsRLA40qF4TgRmfh8HNeSrx8"
  },
  {
    "title": "Kash wheels",
    "categoryName": "Used car dealer",
    "address": "Hyderpora, Srinagar, Jammu and Kashmir 190014",
    "neighborhood": "Hyderpora",
    "city": "Srinagar",
    "state": "Jammu and Kashmir",
    "countryCode": "IN",
    "phone": "+918860622414",
    "phoneUnformatted": "+918860622414",
    "location": {
      "lat": 34.0444594,
      "lng": 74.7886261
    },
    "totalScore": 4.7,
    "permanentlyClosed": false,
    "temporarilyClosed": false,
    "placeId": "ChIJxctbNwCP4TgRD4_7QcaooWc",
    "categories": [
      "Used car dealer"
    ],
    "reviewsCount": 46,
    "imagesCount": 24,
    "openingHours": [
      {
        "day": "Monday",
        "hours": "10:30 AM to 6:30 PM"
      },
      {
        "day": "Tuesday",
        "hours": "10:30 AM to 6:30 PM"
      },
      {
        "day": "Wednesday",
        "hours": "10:30 AM to 6:30 PM"
      },
      {
        "day": "Thursday",
        "hours": "10:30 AM to 6:30 PM"
      },
      {
        "day": "Friday",
        "hours": "10:30 AM to 6:30 PM"
      },
      {
        "day": "Saturday",
        "hours": "10:30 AM to 6:30 PM"
      },
      {
        "day": "Sunday",
        "hours": "Closed"
      }
    ],
    "imageUrl": "https://media.indianluxurycars.com/google/96f881a1076394147e0607aecb711a52553f2681c3fd7a8f088b29866e8a8bae.jpg",
    "url": "https://www.google.com/maps/search/?api=1&query=Kash%20wheels&query_place_id=ChIJxctbNwCP4TgRD4_7QcaooWc"
  },
  {
    "title": "Kashmir Cab Service by Travel My Kashmir",
    "categoryName": "Car rental agency",
    "address": "3RP4+V83, Fateh Kadal, Srinagar, Jammu and Kashmir 190001",
    "neighborhood": "Fateh Kadal",
    "street": "3RP4+V83",
    "city": "Srinagar",
    "postalCode": "190001",
    "state": "Jammu and Kashmir",
    "countryCode": "IN",
    "website": "https://www.travelmykashmir.com/",
    "phone": "+919796466052",
    "phoneUnformatted": "+919796466052",
    "location": {
      "lat": 34.0868584,
      "lng": 74.8058602
    },
    "totalScore": 4.8,
    "permanentlyClosed": false,
    "temporarilyClosed": false,
    "placeId": "ChIJPcE1W2aF4TgR6D6ao_RJFZ4",
    "categories": [
      "Car rental agency",
      "Adventure sports center",
      "Taxi service",
      "Travel agency"
    ],
    "reviewsCount": 1377,
    "imagesCount": 2837,
    "openingHours": [
      {
        "day": "Monday",
        "hours": "Open 24 hours"
      },
      {
        "day": "Tuesday",
        "hours": "Open 24 hours"
      },
      {
        "day": "Wednesday",
        "hours": "Open 24 hours"
      },
      {
        "day": "Thursday",
        "hours": "Open 24 hours"
      },
      {
        "day": "Friday",
        "hours": "Open 24 hours"
      },
      {
        "day": "Saturday",
        "hours": "Open 24 hours"
      },
      {
        "day": "Sunday",
        "hours": "Open 24 hours"
      }
    ],
    "imageUrl": "https://media.indianluxurycars.com/google/3cafb4f4c3ef19aafe41b88b3fe9b9e36787fa8476bf0af0bfe0e7f2d2c8e8bb.jpg",
    "url": "https://www.google.com/maps/search/?api=1&query=Kashmir%20Cab%20Service%20by%20Travel%20My%20Kashmir&query_place_id=ChIJPcE1W2aF4TgR6D6ao_RJFZ4"
  },
  {
    "title": "Kashmir Car Rental Tariff",
    "categoryName": "Car rental agency",
    "address": "Bar Bar Shah, S P. College Bund Rd, Kothi Bagh, Srinagar, Jammu and Kashmir 190001",
    "neighborhood": "Kothi Bagh",
    "street": "Bar Bar Shah, S P. College Bund Rd",
    "city": "Srinagar",
    "postalCode": "190001",
    "state": "Jammu and Kashmir",
    "countryCode": "IN",
    "website": "https://kashmircarrentaltariff.com/",
    "phone": "+918825062819",
    "phoneUnformatted": "+918825062819",
    "location": {
      "lat": 34.0780059,
      "lng": 74.8144304
    },
    "totalScore": 4.9,
    "permanentlyClosed": false,
    "temporarilyClosed": false,
    "placeId": "ChIJGxn80yiP4TgRt9HYpPXGgwI",
    "categories": [
      "Car rental agency",
      "Taxi service",
      "Transportation service",
      "Travel agency"
    ],
    "reviewsCount": 476,
    "imagesCount": 715,
    "openingHours": [
      {
        "day": "Monday",
        "hours": "Open 24 hours"
      },
      {
        "day": "Tuesday",
        "hours": "Open 24 hours"
      },
      {
        "day": "Wednesday",
        "hours": "Open 24 hours"
      },
      {
        "day": "Thursday",
        "hours": "Open 24 hours"
      },
      {
        "day": "Friday",
        "hours": "Open 24 hours"
      },
      {
        "day": "Saturday",
        "hours": "Open 24 hours"
      },
      {
        "day": "Sunday",
        "hours": "Open 24 hours"
      }
    ],
    "imageUrl": "https://media.indianluxurycars.com/google/8d64ed836945ad297114544be00aeedfe7656e92d407c8b7dedcea74e2e2eebc.png",
    "url": "https://www.google.com/maps/search/?api=1&query=Kashmir%20Car%20Rental%20Tariff&query_place_id=ChIJGxn80yiP4TgRt9HYpPXGgwI"
  },
  {
    "title": "Kashmir Caravan Holidays",
    "categoryName": "Car leasing service",
    "address": "210 kohan khan, Dalgate Bridge, Kashmir Golf Course, Nohata, Srinagar, Jammu and Kashmir 190001",
    "neighborhood": "Kashmir Golf Course, Nohata",
    "street": "210 kohan khan, Dalgate Bridge",
    "city": "Srinagar",
    "postalCode": "190001",
    "state": "Jammu and Kashmir",
    "countryCode": "IN",
    "website": "https://www.kashmircaravan.com/",
    "phone": "+919622705813",
    "phoneUnformatted": "+919622705813",
    "location": {
      "lat": 34.0831331,
      "lng": 74.8246277
    },
    "totalScore": 5,
    "permanentlyClosed": false,
    "temporarilyClosed": false,
    "placeId": "ChIJNfWZxXKP4TgRaeHV1SSIq0I",
    "categories": [
      "Car leasing service",
      "Travel agency"
    ],
    "reviewsCount": 4,
    "imagesCount": 4,
    "openingHours": [],
    "imageUrl": "https://media.indianluxurycars.com/google/f17defca5bf489a2671c3a8c327ef9c4ba55a9321ee563509a9e7855b5d25b2c.jpg",
    "url": "https://www.google.com/maps/search/?api=1&query=Kashmir%20Caravan%20Holidays&query_place_id=ChIJNfWZxXKP4TgRaeHV1SSIq0I"
  },
  {
    "title": "Kashmir connect car rental",
    "categoryName": "Car rental agency",
    "address": "Fateh Kadal, Lal Din Masjid, Zaldagar, Srinagar, Jammu and Kashmir 190002",
    "neighborhood": "Zaldagar",
    "street": "Fateh Kadal, Lal Din Masjid",
    "city": "Srinagar",
    "postalCode": "190002",
    "state": "Jammu and Kashmir",
    "countryCode": "IN",
    "website": "https://kashmircarrent.in/",
    "phone": "+917006535609",
    "phoneUnformatted": "+917006535609",
    "location": {
      "lat": 34.0889716,
      "lng": 74.8059565
    },
    "totalScore": 5,
    "permanentlyClosed": false,
    "temporarilyClosed": false,
    "placeId": "ChIJQ6X5QNaF4TgRbt8Z-xVHIBk",
    "categories": [
      "Car rental agency",
      "Car leasing service",
      "Taxi service"
    ],
    "reviewsCount": 41,
    "imagesCount": 46,
    "openingHours": [
      {
        "day": "Monday",
        "hours": "Open 24 hours"
      },
      {
        "day": "Tuesday",
        "hours": "Open 24 hours"
      },
      {
        "day": "Wednesday",
        "hours": "Open 24 hours"
      },
      {
        "day": "Thursday",
        "hours": "Open 24 hours"
      },
      {
        "day": "Friday",
        "hours": "Open 24 hours"
      },
      {
        "day": "Saturday",
        "hours": "Open 24 hours"
      },
      {
        "day": "Sunday",
        "hours": "Open 24 hours"
      }
    ],
    "imageUrl": "https://media.indianluxurycars.com/google/f98505c222dddcf0e7292c5235a061ad8a946312c910d49bd465dc3fc229bef0.jpg",
    "url": "https://www.google.com/maps/search/?api=1&query=Kashmir%20connect%20car%20rental&query_place_id=ChIJQ6X5QNaF4TgRbt8Z-xVHIBk"
  },
  {
    "title": "Kashmir Luxury Car Rental",
    "categoryName": "Car rental agency",
    "address": "Airport Rd, Barzulla, Srinagar, Jammu and Kashmir 190015",
    "neighborhood": "Barzulla",
    "street": "Airport Rd",
    "city": "Srinagar",
    "postalCode": "190015",
    "state": "Jammu and Kashmir",
    "countryCode": "IN",
    "phone": "+919149555161",
    "phoneUnformatted": "+919149555161",
    "location": {
      "lat": 34.0494376,
      "lng": 74.8018143
    },
    "totalScore": 5,
    "permanentlyClosed": false,
    "temporarilyClosed": false,
    "placeId": "ChIJ28aElVOP4TgRtpw334fJiDQ",
    "categories": [
      "Car rental agency",
      "Car leasing service"
    ],
    "reviewsCount": 70,
    "imagesCount": 98,
    "openingHours": [],
    "imageUrl": "https://media.indianluxurycars.com/google/5628753b9df0af0340be693e6818787d07278db5e58ced5b1993ac74e719836e.jpg",
    "url": "https://www.google.com/maps/search/?api=1&query=Kashmir%20Luxury%20Car%20Rental&query_place_id=ChIJ28aElVOP4TgRtpw334fJiDQ"
  },
  {
    "title": "Kashmir Taxi Cab Rental | Book Taxi for Kashmir | Srinagar Cab Services",
    "categoryName": "Car leasing service",
    "address": "Nowhatta, Srinagar, Jammu and Kashmir 190002",
    "neighborhood": "Nowhatta",
    "city": "Srinagar",
    "postalCode": "190002",
    "state": "Jammu and Kashmir",
    "countryCode": "IN",
    "website": "https://cabs.craftmytrip.com/",
    "phone": "+919149531009",
    "phoneUnformatted": "+919149531009",
    "location": {
      "lat": 34.098612,
      "lng": 74.811004
    },
    "totalScore": 4.5,
    "permanentlyClosed": false,
    "temporarilyClosed": false,
    "placeId": "ChIJ6YnNXG-F4TgRnq6ZmCJ5CAo",
    "categories": [
      "Car leasing service",
      "Taxi service",
      "Transportation service"
    ],
    "reviewsCount": 2,
    "imagesCount": 79,
    "openingHours": [
      {
        "day": "Monday",
        "hours": "Open 24 hours"
      },
      {
        "day": "Tuesday",
        "hours": "Open 24 hours"
      },
      {
        "day": "Wednesday",
        "hours": "Open 24 hours"
      },
      {
        "day": "Thursday",
        "hours": "Open 24 hours"
      },
      {
        "day": "Friday",
        "hours": "Open 24 hours"
      },
      {
        "day": "Saturday",
        "hours": "Open 24 hours"
      },
      {
        "day": "Sunday",
        "hours": "Open 24 hours"
      }
    ],
    "imageUrl": "https://media.indianluxurycars.com/google/81876554538eb20143112676976bb6d0fac9fe140f2696dda2be1879912bee9d.jpg",
    "url": "https://www.google.com/maps/search/?api=1&query=Kashmir%20Taxi%20Cab%20Rental%20%7C%20Book%20Taxi%20for%20Kashmir%20%7C%20Srinagar%20Cab%20Services&query_place_id=ChIJ6YnNXG-F4TgRnq6ZmCJ5CAo"
  },
  {
    "title": "Kashmir Taxi Service- Kashmir Car Rental-Tourism Approved",
    "categoryName": "Car leasing service",
    "address": "Lake Dal Rd, Durgjan, Srinagar, Jammu and Kashmir 190001",
    "neighborhood": "Durgjan",
    "street": "Lake Dal Rd",
    "city": "Srinagar",
    "postalCode": "190001",
    "state": "Jammu and Kashmir",
    "countryCode": "IN",
    "location": {
      "lat": 34.080696,
      "lng": 74.830501
    },
    "totalScore": 2.5,
    "permanentlyClosed": false,
    "temporarilyClosed": false,
    "placeId": "ChIJS2qKrXmP4TgRKPYZhCYzu78",
    "categories": [
      "Car leasing service",
      "Taxi service",
      "Transportation service"
    ],
    "reviewsCount": 2,
    "imagesCount": 7,
    "openingHours": [],
    "imageUrl": "https://media.indianluxurycars.com/google/e0b07eae035f795b6ecc26be8b0e646e49c03aff23ecc18aac8dbc918a4efb2d.jpg",
    "url": "https://www.google.com/maps/search/?api=1&query=Kashmir%20Taxi%20Service-%20Kashmir%20Car%20Rental-Tourism%20Approved&query_place_id=ChIJS2qKrXmP4TgRKPYZhCYzu78"
  },
  {
    "title": "Kashmir Tour Operator Indeed Holidays",
    "categoryName": "Car leasing service",
    "address": "Boulevard Rd, Ghat Number 9, Durgjan, Srinagar, Jammu and Kashmir 190001",
    "neighborhood": "Ghat Number 9, Durgjan",
    "street": "Boulevard Rd",
    "city": "Srinagar",
    "postalCode": "190001",
    "state": "Jammu and Kashmir",
    "countryCode": "IN",
    "website": "https://indeedholidays.com/",
    "phone": "+917006904605",
    "phoneUnformatted": "+917006904605",
    "location": {
      "lat": 34.084533,
      "lng": 74.8368983
    },
    "totalScore": 4.7,
    "permanentlyClosed": false,
    "temporarilyClosed": false,
    "placeId": "ChIJ_YH71aOP4TgRiIUW8wD4sG8",
    "categories": [
      "Car leasing service",
      "Tour operator",
      "Travel agency"
    ],
    "reviewsCount": 105,
    "imagesCount": 151,
    "openingHours": [
      {
        "day": "Monday",
        "hours": "Open 24 hours"
      },
      {
        "day": "Tuesday",
        "hours": "Open 24 hours"
      },
      {
        "day": "Wednesday",
        "hours": "Open 24 hours"
      },
      {
        "day": "Thursday",
        "hours": "Open 24 hours"
      },
      {
        "day": "Friday",
        "hours": "Open 24 hours"
      },
      {
        "day": "Saturday",
        "hours": "Open 24 hours"
      },
      {
        "day": "Sunday",
        "hours": "Open 24 hours"
      }
    ],
    "imageUrl": "https://media.indianluxurycars.com/google/e034852fcd803142429a02480eee192cacc57f575ca34d427ffeee5b6d4298a8.jpg",
    "url": "https://www.google.com/maps/search/?api=1&query=Kashmir%20Tour%20Operator%20Indeed%20Holidays&query_place_id=ChIJ_YH71aOP4TgRiIUW8wD4sG8"
  },
  {
    "title": "Luxe Car Rentals",
    "categoryName": "Car rental agency",
    "address": "Solina, Elachi Bagh, Srinagar, Jammu and Kashmir 190001",
    "neighborhood": "Solina, Elachi Bagh",
    "city": "Srinagar",
    "postalCode": "190001",
    "state": "Jammu and Kashmir",
    "countryCode": "IN",
    "location": {
      "lat": 34.0575796,
      "lng": 74.8025027
    },
    "totalScore": 5,
    "permanentlyClosed": false,
    "temporarilyClosed": false,
    "placeId": "ChIJrbfDm2GP4TgRoeLqseof6b0",
    "categories": [
      "Car rental agency"
    ],
    "reviewsCount": 6,
    "imagesCount": 11,
    "openingHours": [
      {
        "day": "Monday",
        "hours": "Open 24 hours"
      },
      {
        "day": "Tuesday",
        "hours": "Open 24 hours"
      },
      {
        "day": "Wednesday",
        "hours": "Open 24 hours"
      },
      {
        "day": "Thursday",
        "hours": "Open 24 hours"
      },
      {
        "day": "Friday",
        "hours": "Open 24 hours"
      },
      {
        "day": "Saturday",
        "hours": "Open 24 hours"
      },
      {
        "day": "Sunday",
        "hours": "Open 24 hours"
      }
    ],
    "imageUrl": "https://media.indianluxurycars.com/google/02927366fddfe96b0c12306115970b1562a03a443f5448dfc64ed62ec7268dec.jpg",
    "url": "https://www.google.com/maps/search/?api=1&query=Luxe%20Car%20Rentals&query_place_id=ChIJrbfDm2GP4TgRoeLqseof6b0"
  },
  {
    "title": "Luxury Rental Cars",
    "categoryName": "Car leasing service",
    "address": "Hyderpora, Srinagar, Jammu and Kashmir 190014",
    "neighborhood": "Hyderpora",
    "city": "Srinagar",
    "postalCode": "190014",
    "state": "Jammu and Kashmir",
    "countryCode": "IN",
    "phone": "+919541677569",
    "phoneUnformatted": "+919541677569",
    "location": {
      "lat": 34.0564141,
      "lng": 74.7815636
    },
    "totalScore": 5,
    "permanentlyClosed": false,
    "temporarilyClosed": false,
    "placeId": "ChIJ1RDFB6CR4TgROvlsdO1w-ZU",
    "categories": [
      "Car leasing service"
    ],
    "reviewsCount": 198,
    "imagesCount": 48,
    "openingHours": [
      {
        "day": "Monday",
        "hours": "9 AM to 8:30 PM"
      },
      {
        "day": "Tuesday",
        "hours": "9 AM to 9 PM"
      },
      {
        "day": "Wednesday",
        "hours": "9 AM to 9 PM"
      },
      {
        "day": "Thursday",
        "hours": "9 AM to 9 PM"
      },
      {
        "day": "Friday",
        "hours": "9 AM to 9 PM"
      },
      {
        "day": "Saturday",
        "hours": "9 AM to 9 PM"
      },
      {
        "day": "Sunday",
        "hours": "9 AM to 9 PM"
      }
    ],
    "imageUrl": "https://media.indianluxurycars.com/google/db3847889361dd6771692015b7f1d898a677dae9735a0602d9f65e7c4faf0f9b.jpg",
    "url": "https://www.google.com/maps/search/?api=1&query=Luxury%20Rental%20Cars&query_place_id=ChIJ1RDFB6CR4TgROvlsdO1w-ZU"
  },
  {
    "title": "Marias Kashmir Holidays Tour & Travel",
    "categoryName": "Car leasing service",
    "address": "4R5M+6RJ Ranger stop, Marias Hotel Saida Kadal, Road, Nagin Bagh, Srinagar, Jammu and Kashmir 190003",
    "neighborhood": "Karapura, Nagin Bagh",
    "street": "4R5M+6RJ Ranger stop, Marias Hotel Saida Kadal, Road",
    "city": "Srinagar",
    "postalCode": "190003",
    "state": "Jammu and Kashmir",
    "countryCode": "IN",
    "website": "http://www.mariaskashmir.in/",
    "phone": "+919797977697",
    "phoneUnformatted": "+919797977697",
    "location": {
      "lat": 34.1080995,
      "lng": 74.8345062
    },
    "totalScore": 4.8,
    "permanentlyClosed": false,
    "temporarilyClosed": false,
    "placeId": "ChIJq5mCFjiF4TgR9pPculfOHYo",
    "categories": [
      "Car leasing service",
      "Airline ticket agency",
      "ATV rental service",
      "Travel agency",
      "Hotel",
      "Houseboat rental service",
      "Transportation service"
    ],
    "reviewsCount": 52,
    "imagesCount": 59,
    "openingHours": [],
    "imageUrl": "https://media.indianluxurycars.com/google/f807274a175d710c6c976b59f076fa3f25fe0e47f7e71d9826549fdf961cb731.jpg",
    "url": "https://www.google.com/maps/search/?api=1&query=Marias%20Kashmir%20Holidays%20Tour%20%26%20Travel&query_place_id=ChIJq5mCFjiF4TgR9pPculfOHYo"
  },
  {
    "title": "Moosa Transport",
    "categoryName": "Car leasing service",
    "address": "Barbar Shah, Habba Kadal, Srinagar, Jammu and Kashmir 190001",
    "neighborhood": "Barbar Shah, Habba Kadal",
    "city": "Srinagar",
    "postalCode": "190001",
    "state": "Jammu and Kashmir",
    "countryCode": "IN",
    "website": "https://moosatransporter.com/",
    "location": {
      "lat": 34.0785031,
      "lng": 74.8095787
    },
    "totalScore": 4.9,
    "permanentlyClosed": false,
    "temporarilyClosed": false,
    "placeId": "ChIJHS0aBbqP4TgRVMrH9wK_icY",
    "categories": [
      "Car leasing service",
      "Taxi service"
    ],
    "reviewsCount": 424,
    "imagesCount": 349,
    "openingHours": [],
    "imageUrl": "https://media.indianluxurycars.com/google/fe2f07c043668ae35b84ed612f5d571b77e74aeaa12866f762089aa9a03b138c.jpg",
    "url": "https://www.google.com/maps/search/?api=1&query=Moosa%20Transport&query_place_id=ChIJHS0aBbqP4TgRVMrH9wK_icY"
  },
  {
    "title": "New Choice Car Bazar",
    "categoryName": "Used car dealer",
    "address": "Karan Nagar, Srinagar, Jammu and Kashmir 190010",
    "neighborhood": "Karan Nagar",
    "city": "Srinagar",
    "postalCode": "190010",
    "state": "Jammu and Kashmir",
    "countryCode": "IN",
    "phone": "+917889325590",
    "phoneUnformatted": "+917889325590",
    "location": {
      "lat": 34.0823125,
      "lng": 74.7984375
    },
    "totalScore": 4.9,
    "permanentlyClosed": false,
    "temporarilyClosed": false,
    "placeId": "ChIJc-uB7LiP4TgRJar3CcEKkHM",
    "categories": [
      "Used car dealer"
    ],
    "reviewsCount": 18,
    "imagesCount": 47,
    "openingHours": [
      {
        "day": "Monday",
        "hours": "9 AM to 7:30 PM"
      },
      {
        "day": "Tuesday",
        "hours": "9 AM to 7:30 PM"
      },
      {
        "day": "Wednesday",
        "hours": "9 AM to 7:30 PM"
      },
      {
        "day": "Thursday",
        "hours": "9 AM to 7:30 PM"
      },
      {
        "day": "Friday",
        "hours": "9 AM to 7:30 PM"
      },
      {
        "day": "Saturday",
        "hours": "9 AM to 7:30 PM"
      },
      {
        "day": "Sunday",
        "hours": "Closed"
      }
    ],
    "imageUrl": "https://media.indianluxurycars.com/google/e9b00423df51e8801823208aa2ff3883f94ddcaf84ec875f285fbd42072c58dc.jpg",
    "url": "https://www.google.com/maps/search/?api=1&query=New%20Choice%20Car%20Bazar&query_place_id=ChIJc-uB7LiP4TgRJar3CcEKkHM"
  },
  {
    "title": "New Kashmir Taxi Service",
    "categoryName": "Car rental agency",
    "address": "Dalgate Bridge, Durgjan, Srinagar, Jammu and Kashmir 190001",
    "neighborhood": "Durgjan",
    "street": "Dalgate Bridge",
    "city": "Srinagar",
    "postalCode": "190001",
    "state": "Jammu and Kashmir",
    "countryCode": "IN",
    "website": "https://www.newkashmirtaxiservice.com/",
    "phone": "+917006088619",
    "phoneUnformatted": "+917006088619",
    "location": {
      "lat": 34.082728,
      "lng": 74.8343586
    },
    "totalScore": 5,
    "permanentlyClosed": false,
    "temporarilyClosed": false,
    "placeId": "ChIJP_s-TJ2P4TgRFperSE1gaM0",
    "categories": [
      "Car rental agency",
      "Car leasing service",
      "Taxi service",
      "Tour operator",
      "Tourist attraction",
      "Transportation service"
    ],
    "reviewsCount": 159,
    "imagesCount": 24,
    "openingHours": [],
    "imageUrl": "https://media.indianluxurycars.com/google/47e57dc2b37afc99058c702898ccf2e78cc465e1e3f36ec0cd408090f3a29167.jpg",
    "url": "https://www.google.com/maps/search/?api=1&query=New%20Kashmir%20Taxi%20Service&query_place_id=ChIJP_s-TJ2P4TgRFperSE1gaM0"
  },
  {
    "title": "Online Kashmir",
    "categoryName": "Car rental agency",
    "address": "2nd Floor, near Hotel Namrose, Munawara Abad, Srinagar, Jammu and Kashmir 190001",
    "neighborhood": "Munawara Abad",
    "street": "2nd Floor, near Hotel Namrose",
    "city": "Srinagar",
    "postalCode": "190001",
    "state": "Jammu and Kashmir",
    "countryCode": "IN",
    "website": "https://www.onlinekashmir.com/",
    "location": {
      "lat": 34.0810142,
      "lng": 74.8170844
    },
    "totalScore": 5,
    "permanentlyClosed": false,
    "temporarilyClosed": false,
    "placeId": "ChIJLU9qXkCP4TgR_4zR26EUVOU",
    "categories": [
      "Car rental agency",
      "Tour operator",
      "Travel agency"
    ],
    "reviewsCount": 12,
    "imagesCount": 2,
    "openingHours": [
      {
        "day": "Monday",
        "hours": "9 AM to 7 PM"
      },
      {
        "day": "Tuesday",
        "hours": "9 AM to 7 PM"
      },
      {
        "day": "Wednesday",
        "hours": "9 AM to 7 PM"
      },
      {
        "day": "Thursday",
        "hours": "9 AM to 7 PM"
      },
      {
        "day": "Friday",
        "hours": "9 AM to 7 PM"
      },
      {
        "day": "Saturday",
        "hours": "9 AM to 7 PM"
      },
      {
        "day": "Sunday",
        "hours": "11 AM to 5 PM"
      }
    ],
    "imageUrl": "https://media.indianluxurycars.com/google/55043ad3992d29da83ce6d96ed6be0d0c269d93bcfa8e2241eceecb2d3e7564a.jpg",
    "url": "https://www.google.com/maps/search/?api=1&query=Online%20Kashmir&query_place_id=ChIJLU9qXkCP4TgR_4zR26EUVOU"
  },
  {
    "title": "Pearl Cabs",
    "categoryName": "Car rental agency",
    "address": "Munawar Link Road, Munawara Abad, Srinagar, Jammu and Kashmir 190001",
    "neighborhood": "Munawara Abad",
    "street": "Munawar Link Road",
    "city": "Srinagar",
    "postalCode": "190001",
    "state": "Jammu and Kashmir",
    "countryCode": "IN",
    "website": "http://pearlcabs.com/",
    "phone": "+916006485747",
    "phoneUnformatted": "+916006485747",
    "location": {
      "lat": 34.0723572,
      "lng": 74.8239153
    },
    "permanentlyClosed": false,
    "temporarilyClosed": true,
    "placeId": "ChIJsU6oO4SP4TgR3ZyHesg1Brk",
    "categories": [
      "Car rental agency",
      "Tour operator"
    ],
    "imagesCount": 5,
    "openingHours": [],
    "imageUrl": "https://media.indianluxurycars.com/google/c169779f443fec0229a88531f9e613f4a3ff36ef6106c27fd897ab5b83eb8d55.png",
    "url": "https://www.google.com/maps/search/?api=1&query=Pearl%20Cabs&query_place_id=ChIJsU6oO4SP4TgR3ZyHesg1Brk"
  },
  {
    "title": "ROVER (A Car Showroom & Accessories)",
    "categoryName": "Car dealer",
    "address": "near Mirwaiz Manzil, Rajouri Kadal, Sokalipora, Srinagar, Jammu and Kashmir 190001",
    "neighborhood": "Rajouri Kadal, Sokalipora",
    "street": "near Mirwaiz Manzil",
    "city": "Srinagar",
    "postalCode": "190001",
    "state": "Jammu and Kashmir",
    "countryCode": "IN",
    "location": {
      "lat": 34.0989994,
      "lng": 74.8057604
    },
    "totalScore": 4.5,
    "permanentlyClosed": false,
    "temporarilyClosed": false,
    "placeId": "ChIJ10Vb6_SF4TgRksDj_jPTe0k",
    "categories": [
      "Car dealer"
    ],
    "reviewsCount": 13,
    "imagesCount": 3,
    "openingHours": [],
    "imageUrl": "https://media.indianluxurycars.com/google/0a03c1ed7b80e40fb9e8d2ba62bcc6b13d29f7bae643d1ec6692c8dba0b38f75.jpg",
    "url": "https://www.google.com/maps/search/?api=1&query=ROVER%20(A%20Car%20Showroom%20%26%20Accessories)&query_place_id=ChIJ10Vb6_SF4TgRksDj_jPTe0k"
  },
  {
    "title": "Royal Group of Super Deluxe House Boats",
    "categoryName": "Car leasing service",
    "address": "behind Hotel Leeward, Dallake Nehru park, Rainawari, Srinagar, Jammu and Kashmir 190001",
    "neighborhood": "Dallake Nehru park, Rainawari",
    "street": "behind Hotel Leeward",
    "city": "Srinagar",
    "postalCode": "190001",
    "state": "Jammu and Kashmir",
    "countryCode": "IN",
    "website": "http://www.royalhouseboats.com/",
    "location": {
      "lat": 34.0943595,
      "lng": 74.8443856
    },
    "totalScore": 4.4,
    "permanentlyClosed": false,
    "temporarilyClosed": false,
    "placeId": "ChIJA7S0wYuP4TgRD8LO58fCcLM",
    "categories": [
      "Car leasing service",
      "Houseboat rental service",
      "Tour operator",
      "Travel agency"
    ],
    "reviewsCount": 160,
    "imagesCount": 863,
    "openingHours": [
      {
        "day": "Monday",
        "hours": "Open 24 hours"
      },
      {
        "day": "Tuesday",
        "hours": "Open 24 hours"
      },
      {
        "day": "Wednesday",
        "hours": "Open 24 hours"
      },
      {
        "day": "Thursday",
        "hours": "Open 24 hours"
      },
      {
        "day": "Friday",
        "hours": "Open 24 hours"
      },
      {
        "day": "Saturday",
        "hours": "Open 24 hours"
      },
      {
        "day": "Sunday",
        "hours": "Open 24 hours"
      }
    ],
    "imageUrl": "https://media.indianluxurycars.com/google/63e65c4e15a0f33a7b37e0829b178364f854e4a931c541c4c22de6aade0c4df8.jpg",
    "url": "https://www.google.com/maps/search/?api=1&query=Royal%20Group%20of%20Super%20Deluxe%20House%20Boats&query_place_id=ChIJA7S0wYuP4TgRD8LO58fCcLM"
  },
  {
    "title": "Royal India Expedition",
    "categoryName": "Car rental agency",
    "address": "Kursu Padshai Bagh, Kashmir, Srinagar, Jammu and Kashmir 190008",
    "neighborhood": "Padshahi Bagh, K P Bagh",
    "street": "Kursu Padshai Bagh, Kashmir",
    "city": "Srinagar",
    "postalCode": "190008",
    "state": "Jammu and Kashmir",
    "countryCode": "IN",
    "website": "http://www.royalindiaexpedition.com/",
    "phone": "+919858726252",
    "phoneUnformatted": "+919858726252",
    "location": {
      "lat": 34.0578592,
      "lng": 74.8238299
    },
    "totalScore": 4.6,
    "permanentlyClosed": false,
    "temporarilyClosed": false,
    "placeId": "ChIJs8OBd3uP4TgRkxKLcOMkMt8",
    "categories": [
      "Car rental agency",
      "Car leasing service",
      "Travel agency",
      "Sightseeing tour agency",
      "Tour agency",
      "Tour operator",
      "Tourist information center"
    ],
    "reviewsCount": 37,
    "imagesCount": 192,
    "openingHours": [
      {
        "day": "Monday",
        "hours": "Open 24 hours"
      },
      {
        "day": "Tuesday",
        "hours": "Open 24 hours"
      },
      {
        "day": "Wednesday",
        "hours": "Open 24 hours"
      },
      {
        "day": "Thursday",
        "hours": "Open 24 hours"
      },
      {
        "day": "Friday",
        "hours": "Open 24 hours"
      },
      {
        "day": "Saturday",
        "hours": "Open 24 hours"
      },
      {
        "day": "Sunday",
        "hours": "Open 24 hours"
      }
    ],
    "imageUrl": "https://media.indianluxurycars.com/google/95e8620c7114789611bfe0186ed81490a71a2655858442b5fcbf5a89c4e0f561.jpg",
    "url": "https://www.google.com/maps/search/?api=1&query=Royal%20India%20Expedition&query_place_id=ChIJs8OBd3uP4TgRkxKLcOMkMt8"
  },
  {
    "title": "ROYALCARBAZAR",
    "categoryName": "Car dealer",
    "address": "neelam chowk, Karan Nagar, Srinagar, Jammu and Kashmir 190010",
    "neighborhood": "Karan Nagar",
    "street": "neelam chowk",
    "city": "Srinagar",
    "postalCode": "190010",
    "state": "Jammu and Kashmir",
    "countryCode": "IN",
    "phone": "+917006563356",
    "phoneUnformatted": "+917006563356",
    "location": {
      "lat": 34.077736,
      "lng": 74.8016536
    },
    "totalScore": 4.7,
    "permanentlyClosed": false,
    "temporarilyClosed": false,
    "placeId": "ChIJjVUjg_yP4TgR42HrCh9SU6Q",
    "categories": [
      "Car dealer"
    ],
    "reviewsCount": 15,
    "imagesCount": 17,
    "openingHours": [
      {
        "day": "Monday",
        "hours": "9 AM to 7:30 PM"
      },
      {
        "day": "Tuesday",
        "hours": "9 AM to 7:30 PM"
      },
      {
        "day": "Wednesday",
        "hours": "9 AM to 7:30 PM"
      },
      {
        "day": "Thursday",
        "hours": "9 AM to 7:30 PM"
      },
      {
        "day": "Friday",
        "hours": "9 AM to 7 PM"
      },
      {
        "day": "Saturday",
        "hours": "9:30 AM to 7:30 PM"
      },
      {
        "day": "Sunday",
        "hours": "Closed"
      }
    ],
    "imageUrl": "https://media.indianluxurycars.com/google/d2121982ed925394de62cc67d19777373703e7b6c5797aa0e9adc774c31e0819.jpg",
    "url": "https://www.google.com/maps/search/?api=1&query=ROYALCARBAZAR&query_place_id=ChIJjVUjg_yP4TgR42HrCh9SU6Q"
  },
  {
    "title": "Ruhail Motors",
    "categoryName": "Car dealer",
    "address": "Shop Number 3, 4, Saida Kadal Bridge, Karapura, Rainawari, Srinagar, Jammu and Kashmir 190003",
    "neighborhood": "Karapura, Rainawari",
    "street": "Shop Number 3, 4, Saida Kadal Bridge",
    "city": "Srinagar",
    "postalCode": "190003",
    "state": "Jammu and Kashmir",
    "countryCode": "IN",
    "phone": "+919682686396",
    "phoneUnformatted": "+919682686396",
    "location": {
      "lat": 34.1050709,
      "lng": 74.8321756
    },
    "totalScore": 4.4,
    "permanentlyClosed": false,
    "temporarilyClosed": false,
    "placeId": "ChIJ1wueJe2F4TgRFdREFwMSnLs",
    "categories": [
      "Car dealer"
    ],
    "reviewsCount": 58,
    "imagesCount": 158,
    "openingHours": [
      {
        "day": "Monday",
        "hours": "10 AM to 6 PM"
      },
      {
        "day": "Tuesday",
        "hours": "10 AM to 6 PM"
      },
      {
        "day": "Wednesday",
        "hours": "10 AM to 6 PM"
      },
      {
        "day": "Thursday",
        "hours": "10 AM to 6 PM"
      },
      {
        "day": "Friday",
        "hours": "10 AM to 6 PM"
      },
      {
        "day": "Saturday",
        "hours": "10 AM to 6 PM"
      },
      {
        "day": "Sunday",
        "hours": "Closed"
      }
    ],
    "imageUrl": "https://media.indianluxurycars.com/google/ddd0f3607f621a23280a8be29b03ba2a194ebe35672fe21e96589dbe3b878df2.jpg",
    "url": "https://www.google.com/maps/search/?api=1&query=Ruhail%20Motors&query_place_id=ChIJ1wueJe2F4TgRFdREFwMSnLs"
  },
  {
    "title": "self drive car rental in srinagar kashmir",
    "categoryName": "Car rental agency",
    "address": "Nowpora- Bishember Nagar Link, near Green Masjid, Naupura, Srinagar, Jammu and Kashmir 190003",
    "neighborhood": "Naupura",
    "street": "Nowpora- Bishember Nagar Link, near Green Masjid",
    "city": "Srinagar",
    "postalCode": "190003",
    "state": "Jammu and Kashmir",
    "countryCode": "IN",
    "website": "https://carrentalssrinagar.com/",
    "phone": "+919149795579",
    "phoneUnformatted": "+919149795579",
    "location": {
      "lat": 34.0888238,
      "lng": 74.8229485
    },
    "totalScore": 4.9,
    "permanentlyClosed": false,
    "temporarilyClosed": false,
    "placeId": "ChIJ3aOOhWOF4TgR34PRoZ4Fo8M",
    "categories": [
      "Car rental agency"
    ],
    "reviewsCount": 31,
    "imagesCount": 89,
    "openingHours": [
      {
        "day": "Monday",
        "hours": "Open 24 hours"
      },
      {
        "day": "Tuesday",
        "hours": "Open 24 hours"
      },
      {
        "day": "Wednesday",
        "hours": "Open 24 hours"
      },
      {
        "day": "Thursday",
        "hours": "Open 24 hours"
      },
      {
        "day": "Friday",
        "hours": "Open 24 hours"
      },
      {
        "day": "Saturday",
        "hours": "Open 24 hours"
      },
      {
        "day": "Sunday",
        "hours": "Open 24 hours"
      }
    ],
    "imageUrl": "https://media.indianluxurycars.com/google/ff04ffabba67ceb7f05c0fc7737e28eb5df328b8ae004c1ca89b0448a975f455.jpg",
    "url": "https://www.google.com/maps/search/?api=1&query=self%20drive%20car%20rental%20in%20srinagar%20kashmir&query_place_id=ChIJ3aOOhWOF4TgR34PRoZ4Fo8M"
  },
  {
    "title": "Self Drive cars in Srinagar",
    "categoryName": "Car rental agency",
    "address": "Channa Mohalla, Chhatabal, Srinagar, Jammu and Kashmir 190010",
    "neighborhood": "Channa Mohalla, Chhatabal",
    "city": "Srinagar",
    "postalCode": "190010",
    "state": "Jammu and Kashmir",
    "countryCode": "IN",
    "website": "https://valleywheels.in/self-driven-car-rentals/",
    "phone": "+919103333450",
    "phoneUnformatted": "+919103333450",
    "location": {
      "lat": 34.0856209,
      "lng": 74.7854706
    },
    "totalScore": 4.9,
    "permanentlyClosed": false,
    "temporarilyClosed": false,
    "placeId": "ChIJy1d09QeF4TgRhIyOx5-A1zo",
    "categories": [
      "Car rental agency"
    ],
    "reviewsCount": 18,
    "imagesCount": 41,
    "openingHours": [
      {
        "day": "Monday",
        "hours": "Open 24 hours"
      },
      {
        "day": "Tuesday",
        "hours": "Open 24 hours"
      },
      {
        "day": "Wednesday",
        "hours": "Open 24 hours"
      },
      {
        "day": "Thursday",
        "hours": "Open 24 hours"
      },
      {
        "day": "Friday",
        "hours": "Open 24 hours"
      },
      {
        "day": "Saturday",
        "hours": "Open 24 hours"
      },
      {
        "day": "Sunday",
        "hours": "Open 24 hours"
      }
    ],
    "imageUrl": "https://media.indianluxurycars.com/google/75b1c5d671b16142b78453356c4d3d1dffd5615fbbd8bc2c0ba8ac8e857ce753.jpg",
    "url": "https://www.google.com/maps/search/?api=1&query=Self%20Drive%20cars%20in%20Srinagar&query_place_id=ChIJy1d09QeF4TgRhIyOx5-A1zo"
  },
  {
    "title": "Self driving cars on rent",
    "categoryName": "Car rental agency",
    "address": "Abi Buchwara, Dalgate Bridge, near hotel arjumand, Karapura, Rainawari, Srinagar, Jammu and Kashmir 190001",
    "neighborhood": "Karapura, Rainawari",
    "street": "Abi Buchwara, Dalgate Bridge, near hotel arjumand",
    "city": "Srinagar",
    "postalCode": "190001",
    "state": "Jammu and Kashmir",
    "countryCode": "IN",
    "location": {
      "lat": 34.081005,
      "lng": 74.8286097
    },
    "permanentlyClosed": false,
    "temporarilyClosed": false,
    "placeId": "ChIJcQMN7iuP4TgRkDG40OF5xgc",
    "categories": [
      "Car rental agency"
    ],
    "openingHours": [
      {
        "day": "Monday",
        "hours": "7 AM to 10 PM"
      },
      {
        "day": "Tuesday",
        "hours": "7 AM to 10 PM"
      },
      {
        "day": "Wednesday",
        "hours": "7 AM to 10 PM"
      },
      {
        "day": "Thursday",
        "hours": "9 AM to 10 PM"
      },
      {
        "day": "Friday",
        "hours": "9 AM to 10 PM"
      },
      {
        "day": "Saturday",
        "hours": "9 AM to 10 PM"
      },
      {
        "day": "Sunday",
        "hours": "9 AM to 10 PM"
      }
    ],
    "url": "https://www.google.com/maps/search/?api=1&query=Self%20driving%20cars%20on%20rent&query_place_id=ChIJcQMN7iuP4TgRkDG40OF5xgc"
  },
  {
    "title": "Selfdrive cars in kashmir",
    "categoryName": "Car rental agency",
    "address": "Barbar Shah, Habba Kadal, Srinagar, Jammu and Kashmir 190001",
    "neighborhood": "Barbar Shah, Habba Kadal",
    "city": "Srinagar",
    "postalCode": "190001",
    "state": "Jammu and Kashmir",
    "countryCode": "IN",
    "website": "http://www.selfdrivecarskashmir.com/",
    "phone": "+917889716818",
    "phoneUnformatted": "+917889716818",
    "location": {
      "lat": 34.0784909,
      "lng": 74.8096775
    },
    "totalScore": 4.9,
    "permanentlyClosed": false,
    "temporarilyClosed": false,
    "placeId": "ChIJ02fKrv2P4TgR-b2r20oXvUw",
    "categories": [
      "Car rental agency"
    ],
    "reviewsCount": 188,
    "imagesCount": 352,
    "openingHours": [
      {
        "day": "Monday",
        "hours": "Open 24 hours"
      },
      {
        "day": "Tuesday",
        "hours": "Open 24 hours"
      },
      {
        "day": "Wednesday",
        "hours": "Open 24 hours"
      },
      {
        "day": "Thursday",
        "hours": "Open 24 hours"
      },
      {
        "day": "Friday",
        "hours": "Open 24 hours"
      },
      {
        "day": "Saturday",
        "hours": "Open 24 hours"
      },
      {
        "day": "Sunday",
        "hours": "Open 24 hours"
      }
    ],
    "imageUrl": "https://media.indianluxurycars.com/google/0a1bde4d9c2a0a80e2b0899a4d76063ab17e3dfd1bcbb6a583bb2b42cf6e31ec.png",
    "url": "https://www.google.com/maps/search/?api=1&query=Selfdrive%20cars%20in%20kashmir&query_place_id=ChIJ02fKrv2P4TgR-b2r20oXvUw"
  },
  {
    "title": "Snow Valley Tours",
    "categoryName": "Car leasing service",
    "address": "Jawahar Nagar, Srinagar, Jammu and Kashmir 190008",
    "neighborhood": "Jawahar Nagar",
    "city": "Srinagar",
    "postalCode": "190008",
    "state": "Jammu and Kashmir",
    "countryCode": "IN",
    "website": "http://www.snowvalleytours.com/",
    "phone": "+919796568277",
    "phoneUnformatted": "+919796568277",
    "location": {
      "lat": 34.0603185,
      "lng": 74.8186437
    },
    "totalScore": 4.6,
    "permanentlyClosed": false,
    "temporarilyClosed": false,
    "placeId": "ChIJ6U6eLqOP4TgRVlT2xtwuJxI",
    "categories": [
      "Car leasing service",
      "Travel agency",
      "Hotel",
      "Houseboat rental service",
      "Tour agency",
      "Tour operator"
    ],
    "reviewsCount": 56,
    "imagesCount": 46,
    "openingHours": [],
    "imageUrl": "https://media.indianluxurycars.com/google/b39375efe088151f16c1cd873c1c586fc054e67faae5029c3c3a357ff5707677.jpg",
    "url": "https://www.google.com/maps/search/?api=1&query=Snow%20Valley%20Tours&query_place_id=ChIJ6U6eLqOP4TgRVlT2xtwuJxI"
  },
  {
    "title": "Srinagar cabs Kashmir Taxi Service",
    "categoryName": "Car leasing service",
    "address": "Khayam, Chowk, Chinar Bagh, Srinagar, Jammu and Kashmir 190001",
    "neighborhood": "Chinar Bagh",
    "street": "Khayam, Chowk",
    "city": "Srinagar",
    "postalCode": "190001",
    "state": "Jammu and Kashmir",
    "countryCode": "IN",
    "website": "http://srinagarcabs.com/",
    "phone": "+919469919211",
    "phoneUnformatted": "+919469919211",
    "location": {
      "lat": 34.0847338,
      "lng": 74.8229369
    },
    "totalScore": 5,
    "permanentlyClosed": false,
    "temporarilyClosed": false,
    "placeId": "ChIJr_dZfVOP4TgRJHKy7c0oALk",
    "categories": [
      "Car leasing service",
      "Travel agency",
      "Tour operator",
      "Transportation escort service",
      "Transportation service"
    ],
    "reviewsCount": 4,
    "imagesCount": 7,
    "openingHours": [
      {
        "day": "Monday",
        "hours": "Open 24 hours"
      },
      {
        "day": "Tuesday",
        "hours": "Open 24 hours"
      },
      {
        "day": "Wednesday",
        "hours": "Open 24 hours"
      },
      {
        "day": "Thursday",
        "hours": "Open 24 hours"
      },
      {
        "day": "Friday",
        "hours": "Open 24 hours"
      },
      {
        "day": "Saturday",
        "hours": "Open 24 hours"
      },
      {
        "day": "Sunday",
        "hours": "Open 24 hours"
      }
    ],
    "imageUrl": "https://media.indianluxurycars.com/google/dcabe6be59f89510b649fa414472d45c384bd4b4b6b30c6d7c2530bf590820b7.jpg",
    "url": "https://www.google.com/maps/search/?api=1&query=Srinagar%20cabs%20Kashmir%20Taxi%20Service&query_place_id=ChIJr_dZfVOP4TgRJHKy7c0oALk"
  },
  {
    "title": "Srinagar Car Rental",
    "categoryName": "Car rental agency",
    "address": "Houseboat New Lucky Star, Karapura, Rainawari, Srinagar, Jammu and Kashmir 190001",
    "neighborhood": "Karapura, Rainawari",
    "street": "Houseboat New Lucky Star",
    "city": "Srinagar",
    "postalCode": "190001",
    "state": "Jammu and Kashmir",
    "countryCode": "IN",
    "website": "https://www.srinagarcarrental.net/",
    "phone": "+917006289916",
    "phoneUnformatted": "+917006289916",
    "location": {
      "lat": 34.0885309,
      "lng": 74.8338207
    },
    "totalScore": 4.2,
    "permanentlyClosed": false,
    "temporarilyClosed": false,
    "placeId": "ChIJQyAvFnaP4TgRoiIVcfljaEo",
    "categories": [
      "Car rental agency",
      "Hotel",
      "Houseboat rental service",
      "Kashmiri restaurant",
      "Minibus taxi service",
      "Sightseeing tour agency",
      "Taxi service",
      "Tour agency",
      "Travel agency"
    ],
    "reviewsCount": 61,
    "imagesCount": 31,
    "openingHours": [],
    "imageUrl": "https://media.indianluxurycars.com/google/5a9c456b0272eed5202ff87bd9ccd283431605bf9fc1dbc615a568e6149b8c57.jpg",
    "url": "https://www.google.com/maps/search/?api=1&query=Srinagar%20Car%20Rental&query_place_id=ChIJQyAvFnaP4TgRoiIVcfljaEo"
  },
  {
    "title": "Srinagar Car Rental Service By Kashmir Taxi Wala",
    "categoryName": "Car leasing service",
    "address": "Dalgate Bridge, near Hotel Metro, Bishember Nagar, Chinar Bagh, Srinagar, Jammu and Kashmir 190001",
    "neighborhood": "Bishember Nagar, Chinar Bagh",
    "street": "Dalgate Bridge, near Hotel Metro",
    "city": "Srinagar",
    "postalCode": "190001",
    "state": "Jammu and Kashmir",
    "countryCode": "IN",
    "website": "https://kashmirtaxiwala.com/",
    "phone": "+919419435836",
    "phoneUnformatted": "+919419435836",
    "location": {
      "lat": 34.0822059,
      "lng": 74.8234031
    },
    "totalScore": 5,
    "permanentlyClosed": false,
    "temporarilyClosed": false,
    "placeId": "ChIJYWy2twKP4TgRt0z9A8Mvlds",
    "categories": [
      "Car leasing service",
      "Airport shuttle service",
      "Bus tour agency",
      "Taxi service",
      "Tour operator"
    ],
    "reviewsCount": 100,
    "imagesCount": 36,
    "openingHours": [],
    "imageUrl": "https://media.indianluxurycars.com/google/e17173be55bd8a041243ade98d0135329ba692e9a83a799c3c836b4b3607065c.jpg",
    "url": "https://www.google.com/maps/search/?api=1&query=Srinagar%20Car%20Rental%20Service%20By%20Kashmir%20Taxi%20Wala&query_place_id=ChIJYWy2twKP4TgRt0z9A8Mvlds"
  },
  {
    "title": "Srinagar Taxi Service | Best Cab Service in Srinagar",
    "categoryName": "Car rental agency",
    "address": "Kalashpora, Bohri Kadal, Srinagar, Jammu and Kashmir 190002",
    "neighborhood": "Bohri Kadal",
    "street": "Kalashpora",
    "city": "Srinagar",
    "postalCode": "190002",
    "state": "Jammu and Kashmir",
    "countryCode": "IN",
    "website": "https://www.srinagartaxiservice.com/",
    "phone": "+917006022199",
    "phoneUnformatted": "+917006022199",
    "location": {
      "lat": 34.0927723,
      "lng": 74.8101391
    },
    "totalScore": 5,
    "permanentlyClosed": false,
    "temporarilyClosed": false,
    "placeId": "ChIJRZCn6O-P4TgR_rboPAw_ebo",
    "categories": [
      "Car rental agency",
      "Car leasing service",
      "Taxi service",
      "Tour operator"
    ],
    "reviewsCount": 202,
    "imagesCount": 69,
    "openingHours": [],
    "imageUrl": "https://media.indianluxurycars.com/google/2ee0c8486a4085a5d65996ed74173489cc212bbfb36d583914837296064b02ea.jpg",
    "url": "https://www.google.com/maps/search/?api=1&query=Srinagar%20Taxi%20Service%20%7C%20Best%20Cab%20Service%20in%20Srinagar&query_place_id=ChIJRZCn6O-P4TgR_rboPAw_ebo"
  },
  {
    "title": "Srinagar Tourism Cabs",
    "categoryName": "Car leasing service",
    "address": "aliyabagh colony, Tailbal, Rainawari, Srinagar, Jammu and Kashmir 190006",
    "neighborhood": "aliyabagh colony, Tailbal, Rainawari",
    "city": "Srinagar",
    "postalCode": "190006",
    "state": "Jammu and Kashmir",
    "countryCode": "IN",
    "website": "https://www.srinagartourismcabs.com/",
    "location": {
      "lat": 34.0938956,
      "lng": 74.8416422
    },
    "totalScore": 5,
    "permanentlyClosed": false,
    "temporarilyClosed": false,
    "placeId": "ChIJyWCSfpqF4TgRvOLX5nZqSyI",
    "categories": [
      "Car leasing service"
    ],
    "reviewsCount": 3,
    "imagesCount": 9,
    "openingHours": [
      {
        "day": "Monday",
        "hours": "Open 24 hours"
      },
      {
        "day": "Tuesday",
        "hours": "Open 24 hours"
      },
      {
        "day": "Wednesday",
        "hours": "Open 24 hours"
      },
      {
        "day": "Thursday",
        "hours": "Open 24 hours"
      },
      {
        "day": "Friday",
        "hours": "Open 24 hours"
      },
      {
        "day": "Saturday",
        "hours": "Open 24 hours"
      },
      {
        "day": "Sunday",
        "hours": "Open 24 hours"
      }
    ],
    "imageUrl": "https://media.indianluxurycars.com/google/6b0295c87e32a215b07bafb879d26c668a7d0d0602d7dea64263645ad785bdcb.jpg",
    "url": "https://www.google.com/maps/search/?api=1&query=Srinagar%20Tourism%20Cabs&query_place_id=ChIJyWCSfpqF4TgRvOLX5nZqSyI"
  },
  {
    "title": "Srinagarentals(Self-drive cars in srinagar,kashmir)",
    "categoryName": "Car rental agency",
    "address": "Era complex, Ram Bagh, Srinagar, Jammu and Kashmir 190009",
    "neighborhood": "Ram Bagh",
    "street": "Era complex",
    "city": "Srinagar",
    "postalCode": "190009",
    "state": "Jammu and Kashmir",
    "countryCode": "IN",
    "website": "https://srinagarentals.com/selfdrivecars.html",
    "phone": "+919541158506",
    "phoneUnformatted": "+919541158506",
    "location": {
      "lat": 34.0519895,
      "lng": 74.8041428
    },
    "totalScore": 5,
    "permanentlyClosed": false,
    "temporarilyClosed": false,
    "placeId": "ChIJTQpbkPiP4TgRQUj2VJaGIz8",
    "categories": [
      "Car rental agency"
    ],
    "reviewsCount": 44,
    "imagesCount": 33,
    "openingHours": [
      {
        "day": "Monday",
        "hours": "Open 24 hours"
      },
      {
        "day": "Tuesday",
        "hours": "Open 24 hours"
      },
      {
        "day": "Wednesday",
        "hours": "Open 24 hours"
      },
      {
        "day": "Thursday",
        "hours": "Open 24 hours"
      },
      {
        "day": "Friday",
        "hours": "Open 24 hours"
      },
      {
        "day": "Saturday",
        "hours": "Open 24 hours"
      },
      {
        "day": "Sunday",
        "hours": "10:30 AM to 4 PM"
      }
    ],
    "imageUrl": "https://media.indianluxurycars.com/google/aff3f2f90e1c0c96d2a44882ebf820e6a499b48dbea89086100c430cc63755f4.png",
    "url": "https://www.google.com/maps/search/?api=1&query=Srinagarentals(Self-drive%20cars%20in%20srinagar%2Ckashmir)&query_place_id=ChIJTQpbkPiP4TgRQUj2VJaGIz8"
  },
  {
    "title": "Stay Pattern",
    "categoryName": "Car leasing service",
    "address": "02nd Floor, Al-Madad Complex, Main, Magarmal Bagh Crossing, IG Road, Saraibal, Srinagar, Jammu and Kashmir 190001",
    "neighborhood": "IG Road, Saraibal",
    "street": "02nd Floor, Al-Madad Complex, Main, Magarmal Bagh Crossing",
    "city": "Srinagar",
    "postalCode": "190001",
    "state": "Jammu and Kashmir",
    "countryCode": "IN",
    "website": "https://staypattern.com/",
    "phone": "+919622333330",
    "phoneUnformatted": "+919622333330",
    "location": {
      "lat": 34.068771,
      "lng": 74.8038597
    },
    "totalScore": 4.9,
    "permanentlyClosed": false,
    "temporarilyClosed": false,
    "placeId": "ChIJo4yCuxqP4TgRM9WnuNBZNlM",
    "categories": [
      "Car leasing service",
      "Travel agency",
      "Minibus taxi service",
      "Sport tour agency",
      "Tour operator",
      "Tourist information center"
    ],
    "reviewsCount": 404,
    "imagesCount": 907,
    "openingHours": [
      {
        "day": "Monday",
        "hours": "Open 24 hours"
      },
      {
        "day": "Tuesday",
        "hours": "Open 24 hours"
      },
      {
        "day": "Wednesday",
        "hours": "Open 24 hours"
      },
      {
        "day": "Thursday",
        "hours": "Open 24 hours"
      },
      {
        "day": "Friday",
        "hours": "Open 24 hours"
      },
      {
        "day": "Saturday",
        "hours": "Open 24 hours"
      },
      {
        "day": "Sunday",
        "hours": "Open 24 hours"
      }
    ],
    "imageUrl": "https://media.indianluxurycars.com/google/dac091a019250c39e046c9ab841cb5da530e1e15a14aed4f7fc6fe6285f6a389.jpg",
    "url": "https://www.google.com/maps/search/?api=1&query=Stay%20Pattern&query_place_id=ChIJo4yCuxqP4TgRM9WnuNBZNlM"
  },
  {
    "title": "Taxi Kashmir Booking",
    "categoryName": "Car rental agency",
    "address": "Fateh Kadal Babademb Road Opposite Aisha Masjid, near Fountain, Srinagar, Jammu and Kashmir 190002",
    "neighborhood": "Fateh Kadal",
    "street": "Fateh Kadal Babademb Road Opposite Aisha Masjid, near Fountain",
    "city": "Srinagar",
    "postalCode": "190002",
    "state": "Jammu and Kashmir",
    "countryCode": "IN",
    "website": "https://taxikashmirbooking.com/",
    "location": {
      "lat": 34.0869866,
      "lng": 74.8110237
    },
    "totalScore": 4.2,
    "permanentlyClosed": false,
    "temporarilyClosed": false,
    "placeId": "ChIJX9nUT-mP4TgRMRrSbaNf3AA",
    "categories": [
      "Car rental agency",
      "Taxi service",
      "Transportation service"
    ],
    "reviewsCount": 5,
    "imagesCount": 34,
    "openingHours": [],
    "imageUrl": "https://media.indianluxurycars.com/google/ff06609b7ab6a653720a4adaf7665f2a5d9cf122683ff9f233147856e554ac9c.jpg",
    "url": "https://www.google.com/maps/search/?api=1&query=Taxi%20Kashmir%20Booking&query_place_id=ChIJX9nUT-mP4TgRMRrSbaNf3AA"
  },
  {
    "title": "The Kashmir Cabs",
    "categoryName": "Car rental agency",
    "address": "Babadam, Road, near Mapple Inn Resort, Habba Kadal, Srinagar, Jammu and Kashmir 190003",
    "neighborhood": "Habba Kadal",
    "street": "Babadam, Road, near Mapple Inn Resort",
    "city": "Srinagar",
    "postalCode": "190003",
    "state": "Jammu and Kashmir",
    "countryCode": "IN",
    "website": "http://thekashmircabs.com/",
    "phone": "+917006068774",
    "phoneUnformatted": "+917006068774",
    "location": {
      "lat": 34.0840307,
      "lng": 74.8106595
    },
    "totalScore": 4.9,
    "permanentlyClosed": false,
    "temporarilyClosed": false,
    "placeId": "ChIJjxsr9kuP4TgRAeitt49Wq3M",
    "categories": [
      "Car rental agency",
      "Taxi service",
      "Travel agency"
    ],
    "reviewsCount": 274,
    "imagesCount": 391,
    "openingHours": [],
    "imageUrl": "https://media.indianluxurycars.com/google/d8bdc821cd2564bef122305bbdb7d2aac9c4d0ecf2281ae9d6e6c9899ef4cb30.jpg",
    "url": "https://www.google.com/maps/search/?api=1&query=The%20Kashmir%20Cabs&query_place_id=ChIJjxsr9kuP4TgRAeitt49Wq3M"
  },
  {
    "title": "The Paradise Motors",
    "categoryName": "Car dealer",
    "address": "Baghat, Srinagar, Jammu and Kashmir 190005",
    "neighborhood": "Baghat",
    "city": "Srinagar",
    "postalCode": "190005",
    "state": "Jammu and Kashmir",
    "countryCode": "IN",
    "website": "http://instagram.com/theparadisemotors",
    "phone": "+919149555161",
    "phoneUnformatted": "+919149555161",
    "location": {
      "lat": 34.0494662,
      "lng": 74.8017884
    },
    "totalScore": 5,
    "permanentlyClosed": false,
    "temporarilyClosed": false,
    "placeId": "ChIJgSDsns2P4TgRLJXVaI8x_DM",
    "categories": [
      "Car dealer"
    ],
    "reviewsCount": 26,
    "imagesCount": 5,
    "openingHours": [
      {
        "day": "Monday",
        "hours": "10 AM to 7 PM"
      },
      {
        "day": "Tuesday",
        "hours": "10 AM to 7 PM"
      },
      {
        "day": "Wednesday",
        "hours": "10 AM to 7 PM"
      },
      {
        "day": "Thursday",
        "hours": "10 AM to 7 PM"
      },
      {
        "day": "Friday",
        "hours": "10 AM to 7 PM"
      },
      {
        "day": "Saturday",
        "hours": "10 AM to 7 PM"
      },
      {
        "day": "Sunday",
        "hours": "Closed"
      }
    ],
    "imageUrl": "https://media.indianluxurycars.com/google/ff8fa649b1873cdfca9eff18402d22e39da2ebfd586c358d69c9d7ee51c63a36.jpg",
    "url": "https://www.google.com/maps/search/?api=1&query=The%20Paradise%20Motors&query_place_id=ChIJgSDsns2P4TgRLJXVaI8x_DM"
  },
  {
    "title": "The Royal Crew Self Drive car in Kashmir",
    "categoryName": "Car rental agency",
    "address": "Mehjoor Nagar, Srinagar, Jammu and Kashmir 190015",
    "neighborhood": "Mehjoor Nagar",
    "city": "Srinagar",
    "postalCode": "190015",
    "state": "Jammu and Kashmir",
    "countryCode": "IN",
    "phone": "+917006793628",
    "phoneUnformatted": "+917006793628",
    "location": {
      "lat": 34.05633,
      "lng": 74.8170491
    },
    "totalScore": 4.8,
    "permanentlyClosed": false,
    "temporarilyClosed": false,
    "placeId": "ChIJf_qsudiP4TgRd_A-Yerapn0",
    "categories": [
      "Car rental agency",
      "Car leasing service"
    ],
    "reviewsCount": 192,
    "imagesCount": 34,
    "openingHours": [
      {
        "day": "Monday",
        "hours": "Open 24 hours"
      },
      {
        "day": "Tuesday",
        "hours": "Open 24 hours"
      },
      {
        "day": "Wednesday",
        "hours": "Open 24 hours"
      },
      {
        "day": "Thursday",
        "hours": "Open 24 hours"
      },
      {
        "day": "Friday",
        "hours": "Open 24 hours"
      },
      {
        "day": "Saturday",
        "hours": "Open 24 hours"
      },
      {
        "day": "Sunday",
        "hours": "Open 24 hours"
      }
    ],
    "imageUrl": "https://media.indianluxurycars.com/google/2e95cd1a60902ba5955041879c2b8a004895208bb1f07b4540024490eb45af8b.jpg",
    "url": "https://www.google.com/maps/search/?api=1&query=The%20Royal%20Crew%20Self%20Drive%20car%20in%20Kashmir&query_place_id=ChIJf_qsudiP4TgRd_A-Yerapn0"
  },
  {
    "title": "Traveligo",
    "categoryName": "Car leasing service",
    "address": "First lane boulevard road, Dalgate Bridge, near Hotel Blooming Dale, Srinagar, Jammu and Kashmir 190001",
    "neighborhood": "Buchwara, Durgjan",
    "street": "First lane boulevard road, Dalgate Bridge, near Hotel Blooming Dale",
    "city": "Srinagar",
    "postalCode": "190001",
    "state": "Jammu and Kashmir",
    "countryCode": "IN",
    "website": "https://www.traveligo.in/",
    "phone": "+917006933649",
    "phoneUnformatted": "+917006933649",
    "location": {
      "lat": 34.0799234,
      "lng": 74.8324917
    },
    "totalScore": 5,
    "permanentlyClosed": false,
    "temporarilyClosed": false,
    "placeId": "ChIJEYz5td6P4TgRR3RtM-eoN-E",
    "categories": [
      "Car leasing service",
      "Airline ticket agency",
      "Travel agency",
      "Horseback riding service",
      "Motorcycle rental agency",
      "Sightseeing tour agency",
      "Tour agency",
      "Tour operator",
      "Tourist information center",
      "Transportation service"
    ],
    "reviewsCount": 84,
    "imagesCount": 79,
    "openingHours": [
      {
        "day": "Monday",
        "hours": "Open 24 hours"
      },
      {
        "day": "Tuesday",
        "hours": "Open 24 hours"
      },
      {
        "day": "Wednesday",
        "hours": "Open 24 hours"
      },
      {
        "day": "Thursday",
        "hours": "Open 24 hours"
      },
      {
        "day": "Friday",
        "hours": "Open 24 hours"
      },
      {
        "day": "Saturday",
        "hours": "Open 24 hours"
      },
      {
        "day": "Sunday",
        "hours": "Open 24 hours"
      }
    ],
    "imageUrl": "https://media.indianluxurycars.com/google/52e79f593ffbf22fc9a4bc52ce79e559a556d133a420e6ce9462a42b17991ef8.jpg",
    "url": "https://www.google.com/maps/search/?api=1&query=Traveligo&query_place_id=ChIJEYz5td6P4TgRR3RtM-eoN-E"
  },
  {
    "title": "Travelogear Holidays",
    "categoryName": "Car leasing service",
    "address": "Babademb, Khan Kah - Fateh Kadal Rd, Shamswari, Srinagar, Jammu and Kashmir 190001",
    "neighborhood": "Shamswari",
    "street": "Babademb, Khan Kah - Fateh Kadal Rd",
    "city": "Srinagar",
    "postalCode": "190001",
    "state": "Jammu and Kashmir",
    "countryCode": "IN",
    "website": "https://travelogearholidays.com/",
    "phone": "+919906903196",
    "phoneUnformatted": "+919906903196",
    "location": {
      "lat": 34.0908107,
      "lng": 74.8085596
    },
    "totalScore": 5,
    "permanentlyClosed": false,
    "temporarilyClosed": false,
    "placeId": "ChIJsTVmOHaF4TgRSCHQL66bhBE",
    "categories": [
      "Car leasing service",
      "Travel agency",
      "Taxi service",
      "Tour agency",
      "Tour operator",
      "Tourist attraction"
    ],
    "reviewsCount": 44,
    "imagesCount": 39,
    "openingHours": [
      {
        "day": "Monday",
        "hours": "Open 24 hours"
      },
      {
        "day": "Tuesday",
        "hours": "Open 24 hours"
      },
      {
        "day": "Wednesday",
        "hours": "Open 24 hours"
      },
      {
        "day": "Thursday",
        "hours": "Open 24 hours"
      },
      {
        "day": "Friday",
        "hours": "Open 24 hours"
      },
      {
        "day": "Saturday",
        "hours": "Open 24 hours"
      },
      {
        "day": "Sunday",
        "hours": "Open 24 hours"
      }
    ],
    "imageUrl": "https://media.indianluxurycars.com/google/83af8538e754963b123c89234c61ad5c68ae61e8c1316db9151833c89ac48db2.jpg",
    "url": "https://www.google.com/maps/search/?api=1&query=Travelogear%20Holidays&query_place_id=ChIJsTVmOHaF4TgRSCHQL66bhBE"
  },
  {
    "title": "Travodise",
    "categoryName": "Car leasing service",
    "address": "3rd Floor, Bhat Complex, R1, Post Office Lane, Shah Anwar Colony, Hyderpora, Srinagar, Jammu and Kashmir 190014",
    "neighborhood": "Shah Anwar Colony, Hyderpora",
    "street": "3rd Floor, Bhat Complex, R1, Post Office Lane",
    "city": "Srinagar",
    "postalCode": "190014",
    "state": "Jammu and Kashmir",
    "countryCode": "IN",
    "website": "http://www.travodise.com/",
    "phone": "+918448231245",
    "phoneUnformatted": "+918448231245",
    "location": {
      "lat": 34.048266,
      "lng": 74.7834189
    },
    "totalScore": 5,
    "permanentlyClosed": false,
    "temporarilyClosed": false,
    "placeId": "ChIJhS52IzKN4TgROAV6ljLo1WE",
    "categories": [
      "Car leasing service",
      "Travel agency",
      "Outdoor activity organiser",
      "Transportation service"
    ],
    "reviewsCount": 125,
    "imagesCount": 251,
    "openingHours": [
      {
        "day": "Monday",
        "hours": "9 AM to 5 PM"
      },
      {
        "day": "Tuesday",
        "hours": "9 AM to 5 PM"
      },
      {
        "day": "Wednesday",
        "hours": "10:30 AM to 6:30 PM"
      },
      {
        "day": "Thursday",
        "hours": "10:30 AM to 6:30 PM"
      },
      {
        "day": "Friday",
        "hours": "Closed"
      },
      {
        "day": "Saturday",
        "hours": "11 AM to 4 PM"
      },
      {
        "day": "Sunday",
        "hours": "Closed"
      }
    ],
    "imageUrl": "https://media.indianluxurycars.com/google/9f8749eac17657b93aa35b2ccb6fdf1e1dc99d464ef9ac28352a167c10379ba0.jpg",
    "url": "https://www.google.com/maps/search/?api=1&query=Travodise&query_place_id=ChIJhS52IzKN4TgROAV6ljLo1WE"
  },
  {
    "title": "Tripmore Tour And Travels",
    "categoryName": "Car rental agency",
    "address": "Munawar Link Road, opposite Bajaj Paris, Chinar Bagh, Srinagar, Jammu and Kashmir 190001",
    "neighborhood": "Chinar Bagh",
    "street": "Munawar Link Road, opposite Bajaj Paris",
    "city": "Srinagar",
    "postalCode": "190001",
    "state": "Jammu and Kashmir",
    "countryCode": "IN",
    "website": "http://www.tripmore.in/",
    "phone": "+917051909192",
    "phoneUnformatted": "+917051909192",
    "location": {
      "lat": 34.0814858,
      "lng": 74.8197361
    },
    "totalScore": 4.8,
    "permanentlyClosed": false,
    "temporarilyClosed": false,
    "placeId": "ChIJC_ALxp2P4TgRLfzLgNTZwac",
    "categories": [
      "Car rental agency",
      "Travel agency",
      "Minibus taxi service",
      "Taxi service",
      "Tour operator"
    ],
    "reviewsCount": 2215,
    "imagesCount": 2725,
    "openingHours": [
      {
        "day": "Monday",
        "hours": "Open 24 hours"
      },
      {
        "day": "Tuesday",
        "hours": "Open 24 hours"
      },
      {
        "day": "Wednesday",
        "hours": "Open 24 hours"
      },
      {
        "day": "Thursday",
        "hours": "Open 24 hours"
      },
      {
        "day": "Friday",
        "hours": "Open 24 hours"
      },
      {
        "day": "Saturday",
        "hours": "Open 24 hours"
      },
      {
        "day": "Sunday",
        "hours": "Open 24 hours"
      }
    ],
    "imageUrl": "https://media.indianluxurycars.com/google/bfd439b82d9bfdcadb0d202ad19d834921c29041a77330fd3ecfa71ca857b779.jpg",
    "url": "https://www.google.com/maps/search/?api=1&query=Tripmore%20Tour%20And%20Travels&query_place_id=ChIJC_ALxp2P4TgRLfzLgNTZwac"
  },
  {
    "title": "Valley Trip Planner Tour And Travels",
    "categoryName": "Car rental agency",
    "address": "Custodian Court M2 House, Near, Shaheed Gunj, Srinagar, Jammu and Kashmir 190001",
    "neighborhood": "Shaheed Gunj",
    "street": "Custodian Court M2 House, Near",
    "city": "Srinagar",
    "postalCode": "190001",
    "state": "Jammu and Kashmir",
    "countryCode": "IN",
    "website": "https://www.kashmirtourmart.com/",
    "phone": "+919419231659",
    "phoneUnformatted": "+919419231659",
    "location": {
      "lat": 34.0749502,
      "lng": 74.8026693
    },
    "totalScore": 4.9,
    "permanentlyClosed": false,
    "temporarilyClosed": false,
    "placeId": "ChIJZQAAQCyO4TgR_xUVkvJtUVI",
    "categories": [
      "Car rental agency",
      "Bus tour agency",
      "Car leasing service",
      "Travel agency",
      "Sightseeing tour agency",
      "Taxi service",
      "Tour agency",
      "Tour operator"
    ],
    "reviewsCount": 486,
    "imagesCount": 1602,
    "openingHours": [
      {
        "day": "Monday",
        "hours": "Open 24 hours"
      },
      {
        "day": "Tuesday",
        "hours": "Open 24 hours"
      },
      {
        "day": "Wednesday",
        "hours": "Open 24 hours"
      },
      {
        "day": "Thursday",
        "hours": "Open 24 hours"
      },
      {
        "day": "Friday",
        "hours": "Open 24 hours"
      },
      {
        "day": "Saturday",
        "hours": "Open 24 hours"
      },
      {
        "day": "Sunday",
        "hours": "Open 24 hours"
      }
    ],
    "imageUrl": "https://media.indianluxurycars.com/google/1baf959e445e2af7c84fc5485c2925a523407c52cd0cdee6b8f0bbc8ceff05cc.jpg",
    "url": "https://www.google.com/maps/search/?api=1&query=Valley%20Trip%20Planner%20Tour%20And%20Travels&query_place_id=ChIJZQAAQCyO4TgR_xUVkvJtUVI"
  },
  {
    "title": "Velocity Kashmir Tour and Travels",
    "categoryName": "Car leasing service",
    "address": "Main Market, Chanpora, Srinagar, Jammu and Kashmir 190015",
    "neighborhood": "Chanpora",
    "street": "Main Market",
    "city": "Srinagar",
    "postalCode": "190015",
    "state": "Jammu and Kashmir",
    "countryCode": "IN",
    "website": "https://www.velocitykashmir.com/",
    "phone": "+919419422699",
    "phoneUnformatted": "+919419422699",
    "location": {
      "lat": 34.0328395,
      "lng": 74.8087388
    },
    "totalScore": 5,
    "permanentlyClosed": false,
    "temporarilyClosed": false,
    "placeId": "ChIJ8dlxFZSP4TgRSbhUojBAg2w",
    "categories": [
      "Car leasing service",
      "Travel agency",
      "Hotel",
      "Houseboat rental service",
      "Religious destination",
      "Sightseeing tour agency",
      "Taxi service",
      "Tour agency",
      "Tourist information center"
    ],
    "reviewsCount": 50,
    "imagesCount": 37,
    "openingHours": [],
    "imageUrl": "https://media.indianluxurycars.com/google/18e1086a92bc45e64568fe38193cf83e966403b6a6dc622616a63456f00be2a9.jpg",
    "url": "https://www.google.com/maps/search/?api=1&query=Velocity%20Kashmir%20Tour%20and%20Travels&query_place_id=ChIJ8dlxFZSP4TgRSbhUojBAg2w"
  }
]
