[
  {
    "title": "Azura Wrap Store & Paint Protection Film - PPF",
    "categoryName": "Car accessories store",
    "address": "Shop No. - 9B, Kantareshwar apt, New Civil Road, Navjivan Cir, beside Maruti Hardware, nr. Kapadia Health Club Street, Janta Nagar, Ambanagar, Surat, Gujarat 395002, India",
    "neighborhood": "Janta Nagar, Ambanagar",
    "street": "Shop No. - 9B, Kantareshwar apt, New Civil Road, Navjivan Cir, beside Maruti Hardware, nr. Kapadia Health Club Street",
    "city": "Surat",
    "postalCode": "395002",
    "state": "Gujarat",
    "countryCode": "IN",
    "website": "https://www.instagram.com/azura_wrapstore?igsh=MTlsMXd5MXN0eHAwbg==",
    "phone": "+917041444426",
    "phoneUnformatted": "+917041444426",
    "location": {
      "lat": 21.1716666,
      "lng": 72.8202462
    },
    "totalScore": 5,
    "permanentlyClosed": false,
    "temporarilyClosed": false,
    "placeId": "ChIJDd-xeQBP4DsR7wnwLEMe5c4",
    "categories": [
      "Car accessories store",
      "Vehicle wrapping service",
      "Window tinting service"
    ],
    "reviewsCount": 17,
    "imagesCount": 9,
    "openingHours": [
      {
        "day": "Monday",
        "hours": "10 AM to 9 PM"
      },
      {
        "day": "Tuesday",
        "hours": "10 AM to 9 PM"
      },
      {
        "day": "Wednesday",
        "hours": "10 AM to 9 PM"
      },
      {
        "day": "Thursday",
        "hours": "10 AM to 9 PM"
      },
      {
        "day": "Friday",
        "hours": "10 AM to 9 PM"
      },
      {
        "day": "Saturday",
        "hours": "10 AM to 9 PM"
      },
      {
        "day": "Sunday",
        "hours": "10 AM to 5 PM"
      }
    ],
    "imageUrl": "https://lh3.googleusercontent.com/p/AF1QipPushaSve4m2vzrjmwhajvfqdGpuFl7jqx9_5eT=w408-h408-k-no",
    "url": "https://www.google.com/maps/search/?api=1&query=Azura%20Wrap%20Store%20%26%20Paint%20Protection%20Film%20-%20PPF&query_place_id=ChIJDd-xeQBP4DsR7wnwLEMe5c4"
  },
  {
    "title": "BELEZA MOTORS & DECORATORS",
    "subTitle": "બેલેઝા મોટર્સ & ડેકોરેટર્સ",
    "categoryName": "Car dealer",
    "address": "Royal Palace, New Rander Rd, next to BSNL Adajan Office, Govind Nagar Society, Adajan, Surat, Gujarat 395009, India",
    "neighborhood": "Govind Nagar Society, Adajan",
    "street": "Royal Palace, New Rander Rd, next to BSNL Adajan Office",
    "city": "Surat",
    "postalCode": "395009",
    "state": "Gujarat",
    "countryCode": "IN",
    "website": "https://www.instagram.com/beleza_motors_decorators?igsh=aHhzMnAwN3Z2aG5n",
    "phone": "+918200756753",
    "phoneUnformatted": "+918200756753",
    "location": {
      "lat": 21.1989428,
      "lng": 72.7986737
    },
    "totalScore": 4.8,
    "permanentlyClosed": false,
    "temporarilyClosed": false,
    "placeId": "ChIJF2EiSgdP4DsR8MLMSoJArA0",
    "categories": [
      "Car dealer",
      "Auto body shop",
      "Auto broker",
      "Auto repair shop",
      "Auto accessories wholesaler"
    ],
    "reviewsCount": 107,
    "imagesCount": 270,
    "openingHours": [
      {
        "day": "Monday",
        "hours": "10 AM to 8:30 PM"
      },
      {
        "day": "Tuesday",
        "hours": "10 AM to 8:30 PM"
      },
      {
        "day": "Wednesday",
        "hours": "10 AM to 8:30 PM"
      },
      {
        "day": "Thursday",
        "hours": "10 AM to 8:30 PM"
      },
      {
        "day": "Friday",
        "hours": "10 AM to 8:30 PM"
      },
      {
        "day": "Saturday",
        "hours": "10 AM to 8:30 PM"
      },
      {
        "day": "Sunday",
        "hours": "10:30 AM to 4 PM"
      }
    ],
    "imageUrl": "https://lh3.googleusercontent.com/p/AF1QipMXkCD-JUdYLqQFzFZ5ue3BuBjMxiHwgGM4Qisi=w408-h544-k-no",
    "url": "https://www.google.com/maps/search/?api=1&query=BELEZA%20MOTORS%20%26%20DECORATORS&query_place_id=ChIJF2EiSgdP4DsR8MLMSoJArA0"
  },
  {
    "title": "Brocab Taxi services",
    "categoryName": "Car rental agency",
    "address": "Fazal Shopping Center, B-24, New Rander Rd, Ganga Sagar Society, Adajan Patiya, Surat, Gujarat 395009, India",
    "neighborhood": "Ganga Sagar Society, Adajan Patiya",
    "street": "Fazal Shopping Center, B-24, New Rander Rd",
    "city": "Surat",
    "postalCode": "395009",
    "state": "Gujarat",
    "countryCode": "IN",
    "website": "https://brocab.in/",
    "phone": "+918490965574",
    "phoneUnformatted": "+918490965574",
    "location": {
      "lat": 21.2019212,
      "lng": 72.8082638
    },
    "totalScore": 4.9,
    "permanentlyClosed": false,
    "temporarilyClosed": false,
    "placeId": "ChIJbyMepC1P4DsRjBDM0A2TBXo",
    "categories": [
      "Car rental agency",
      "Taxi service",
      "Tour agency",
      "Travel agency"
    ],
    "reviewsCount": 75,
    "imagesCount": 245,
    "openingHours": [],
    "imageUrl": "https://lh3.googleusercontent.com/p/AF1QipN2iZeymgeonIPdEtc0B90C0y2FFn9b9jnIPToS=w408-h408-k-no",
    "url": "https://www.google.com/maps/search/?api=1&query=Brocab%20Taxi%20services&query_place_id=ChIJbyMepC1P4DsRjBDM0A2TBXo"
  },
  {
    "title": "Burhani Tours & Travels",
    "subTitle": "બુરહાની ટુર્સ & ટ્રાવેલ્સ",
    "categoryName": "Car rental agency",
    "address": "JAMALI BUILDING, 4/3444-45, Noorpura Road, Zampa Bazaar, Begampura, Surat, Gujarat 395003, India",
    "neighborhood": "Zampa Bazaar, Begampura",
    "street": "JAMALI BUILDING, 4/3444-45, Noorpura Road",
    "city": "Surat",
    "postalCode": "395003",
    "state": "Gujarat",
    "countryCode": "IN",
    "phone": "+919825352852",
    "phoneUnformatted": "+919825352852",
    "location": {
      "lat": 21.1950387,
      "lng": 72.8332433
    },
    "totalScore": 3.4,
    "permanentlyClosed": false,
    "temporarilyClosed": false,
    "placeId": "ChIJ3zPpsV5O4DsRjRxxYwQiOmg",
    "categories": [
      "Car rental agency",
      "Travel agency",
      "Tour agency"
    ],
    "reviewsCount": 22,
    "imagesCount": 54,
    "openingHours": [
      {
        "day": "Monday",
        "hours": "9 AM to 9 PM"
      },
      {
        "day": "Tuesday",
        "hours": "9 AM to 9 PM"
      },
      {
        "day": "Wednesday",
        "hours": "9 AM to 9 PM"
      },
      {
        "day": "Thursday",
        "hours": "9 AM to 9 PM"
      },
      {
        "day": "Friday",
        "hours": "9 AM to 9 PM"
      },
      {
        "day": "Saturday",
        "hours": "9 AM to 9 PM"
      },
      {
        "day": "Sunday",
        "hours": "9 AM to 9 PM"
      }
    ],
    "imageUrl": "https://lh3.googleusercontent.com/p/AF1QipN1qpEgyy3qstRWYIm0cEariARGqTPWfj-ititp=w408-h351-k-no",
    "url": "https://www.google.com/maps/search/?api=1&query=Burhani%20Tours%20%26%20Travels&query_place_id=ChIJ3zPpsV5O4DsRjRxxYwQiOmg"
  },
  {
    "title": "CarBazaar",
    "subTitle": "કાર બજાર",
    "categoryName": "Used car dealer",
    "address": "opp. santikunj park, d mart road, behind mc donald, TGB, Adajan, Surat, Gujarat 395009, India",
    "neighborhood": "TGB, Hariom Nagar Society,Adajan Gam, Adajan Gam, Adajan",
    "street": "opp. santikunj park, d mart road, behind mc donald",
    "city": "Surat",
    "postalCode": "395009",
    "state": "Gujarat",
    "countryCode": "IN",
    "website": "https://www.mahindrafirstchoice.com/dealer/detail/surat/surat/car-bazaar",
    "phone": "+917043897979",
    "phoneUnformatted": "+917043897979",
    "location": {
      "lat": 21.1944126,
      "lng": 72.7889141
    },
    "totalScore": 4,
    "permanentlyClosed": false,
    "temporarilyClosed": false,
    "placeId": "ChIJl-ei3MxN4DsRoQYznpVha78",
    "categories": [
      "Used car dealer"
    ],
    "reviewsCount": 121,
    "imagesCount": 51,
    "openingHours": [
      {
        "day": "Monday",
        "hours": "10 AM to 7 PM"
      },
      {
        "day": "Tuesday",
        "hours": "10 AM to 7 PM"
      },
      {
        "day": "Wednesday",
        "hours": "10 AM to 7 PM"
      },
      {
        "day": "Thursday",
        "hours": "10 AM to 7 PM"
      },
      {
        "day": "Friday",
        "hours": "10 AM to 7 PM"
      },
      {
        "day": "Saturday",
        "hours": "10 AM to 7 PM"
      },
      {
        "day": "Sunday",
        "hours": "10 AM to 5 PM"
      }
    ],
    "imageUrl": "https://lh3.googleusercontent.com/p/AF1QipN6bUWsWrm3P2qQZ7KL6XpzxNfHt2FdMgtMFWlq=w443-h240-k-no",
    "url": "https://www.google.com/maps/search/?api=1&query=CarBazaar&query_place_id=ChIJl-ei3MxN4DsRoQYznpVha78"
  },
  {
    "title": "CarRac કારરેક Preowned cars",
    "categoryName": "Used car dealer",
    "address": "block no.3,satyanagar soc,opp silicon shoping center south zone, Udhana Main Rd, thin rasta, Surat, Gujarat 394210, India",
    "neighborhood": "Satyanagar Society, thin rasta, Udhana",
    "street": "block no.3,satyanagar soc,opp silicon shoping center south zone, Udhana Main Rd",
    "city": "Surat",
    "postalCode": "394210",
    "state": "Gujarat",
    "countryCode": "IN",
    "website": "https://www.carrac.in/",
    "phone": "+919925467990",
    "phoneUnformatted": "+919925467990",
    "location": {
      "lat": 21.1730254,
      "lng": 72.8390845
    },
    "totalScore": 5,
    "permanentlyClosed": false,
    "temporarilyClosed": false,
    "placeId": "ChIJ3eCZ3TBP4DsRpHU1aB49JxM",
    "categories": [
      "Used car dealer"
    ],
    "reviewsCount": 10,
    "imagesCount": 27,
    "openingHours": [
      {
        "day": "Monday",
        "hours": "10 AM to 7:30 PM"
      },
      {
        "day": "Tuesday",
        "hours": "10 AM to 7:30 PM"
      },
      {
        "day": "Wednesday",
        "hours": "10 AM to 7:30 PM"
      },
      {
        "day": "Thursday",
        "hours": "10 AM to 7:30 PM"
      },
      {
        "day": "Friday",
        "hours": "10 AM to 7:30 PM"
      },
      {
        "day": "Saturday",
        "hours": "10 AM to 7:30 PM"
      },
      {
        "day": "Sunday",
        "hours": "10 AM to 2:30 PM"
      }
    ],
    "imageUrl": "https://lh3.googleusercontent.com/p/AF1QipOalt5VdBI14uTG0e--QVXjuI4SkGHvTHkQs9Ep=w430-h240-k-no",
    "url": "https://www.google.com/maps/search/?api=1&query=CarRac%20%E0%AA%95%E0%AA%BE%E0%AA%B0%E0%AA%B0%E0%AB%87%E0%AA%95%20Preowned%20cars&query_place_id=ChIJ3eCZ3TBP4DsRpHU1aB49JxM"
  },
  {
    "title": "Dana Car Rental",
    "categoryName": "Car rental agency",
    "address": "Adajan Patiya, Surat, Gujarat 395009, India",
    "neighborhood": "Adajan Patiya",
    "city": "Surat",
    "postalCode": "395009",
    "state": "Gujarat",
    "countryCode": "IN",
    "website": "https://business.google.com/v/dana-car-rental/06079920882466165654/f144/_",
    "phone": "+919979113868",
    "phoneUnformatted": "+919979113868",
    "location": {
      "lat": 21.2030855,
      "lng": 72.8066341
    },
    "totalScore": 4.9,
    "permanentlyClosed": false,
    "temporarilyClosed": false,
    "placeId": "ChIJQVH4-79W7yYRS2bs4jpT5_k",
    "categories": [
      "Car rental agency",
      "Car leasing service",
      "Marriage or relationship counselor"
    ],
    "reviewsCount": 7,
    "imagesCount": 15,
    "openingHours": [
      {
        "day": "Monday",
        "hours": "Open 24 hours"
      },
      {
        "day": "Tuesday",
        "hours": "Open 24 hours"
      },
      {
        "day": "Wednesday",
        "hours": "Open 24 hours"
      },
      {
        "day": "Thursday",
        "hours": "Open 24 hours"
      },
      {
        "day": "Friday",
        "hours": "Open 24 hours"
      },
      {
        "day": "Saturday",
        "hours": "Open 24 hours"
      },
      {
        "day": "Sunday",
        "hours": "Open 24 hours"
      }
    ],
    "imageUrl": "https://lh3.googleusercontent.com/p/AF1QipOgS4ixLECy-9EXD_TALwkJZUcwef_fLCkztaLK=w408-h408-k-no",
    "url": "https://www.google.com/maps/search/?api=1&query=Dana%20Car%20Rental&query_place_id=ChIJQVH4-79W7yYRS2bs4jpT5_k"
  },
  {
    "title": "DEALKARDE",
    "subTitle": "ડીલકાર્ડે",
    "categoryName": "Car accessories store",
    "address": "P - 230 - 232, Ground Floor, S K Industrial - 2, opp. Shiv Temple, Near Sosyo Circle, Gandhi Kutir, Surat, Gujarat 395017, India",
    "neighborhood": "Near Sosyo Circle, Gandhi Kutir",
    "street": "P - 230 - 232, Ground Floor, S K Industrial - 2, opp. Shiv Temple",
    "city": "Surat",
    "postalCode": "395017",
    "state": "Gujarat",
    "countryCode": "IN",
    "website": "https://www.dealkarde.in/",
    "phone": "+918460588000",
    "phoneUnformatted": "+918460588000",
    "location": {
      "lat": 21.1683412,
      "lng": 72.8242656
    },
    "totalScore": 4.8,
    "permanentlyClosed": false,
    "temporarilyClosed": false,
    "placeId": "ChIJ8-p_fl5P4DsRL6n9CGTiZ-E",
    "categories": [
      "Car accessories store",
      "Auto accessories wholesaler"
    ],
    "reviewsCount": 265,
    "imagesCount": 208,
    "openingHours": [
      {
        "day": "Monday",
        "hours": "9 AM to 6 PM"
      },
      {
        "day": "Tuesday",
        "hours": "9 AM to 6 PM"
      },
      {
        "day": "Wednesday",
        "hours": "9 AM to 6 PM"
      },
      {
        "day": "Thursday",
        "hours": "9 AM to 6 PM"
      },
      {
        "day": "Friday",
        "hours": "9 AM to 6 PM"
      },
      {
        "day": "Saturday",
        "hours": "9 AM to 6 PM"
      },
      {
        "day": "Sunday",
        "hours": "Closed"
      }
    ],
    "imageUrl": "https://lh3.googleusercontent.com/gps-cs-s/AG0ilSx1sHM46g--_6AlTRNVDN7EuLTd_qeRIgPpSAQY_q78sDSf0yxUbFqhkigdBAUKoh54-7eYzrpk_UDtGfvfSpmR6yIix5rcECW7m9Ph6lcqqzKKmuVkx0LHpB0jzVh9CtvRHIJk8WFkHDhf=w408-h544-k-no",
    "url": "https://www.google.com/maps/search/?api=1&query=DEALKARDE&query_place_id=ChIJ8-p_fl5P4DsRL6n9CGTiZ-E"
  },
  {
    "title": "Easy Motors Used Cars",
    "subTitle": "Easy Motors Used cars",
    "categoryName": "Used car dealer",
    "address": "L-10, Udhana Main Rd, near Sarvottam Restaurant, Udhana Village, Udhana, Surat, Gujarat 394210, India",
    "neighborhood": "Udhana Village, Udhana",
    "street": "L-10, Udhana Main Rd, near Sarvottam Restaurant",
    "city": "Surat",
    "postalCode": "394210",
    "state": "Gujarat",
    "countryCode": "IN",
    "website": "https://www.easymotors.in/",
    "phone": "+919574184786",
    "phoneUnformatted": "+919574184786",
    "location": {
      "lat": 21.1730222,
      "lng": 72.8381255
    },
    "totalScore": 4.5,
    "permanentlyClosed": false,
    "temporarilyClosed": false,
    "placeId": "ChIJVVVVVdFP4DsRIOJ97QGME6I",
    "categories": [
      "Used car dealer",
      "Motor vehicle dealer"
    ],
    "reviewsCount": 53,
    "imagesCount": 224,
    "openingHours": [
      {
        "day": "Monday",
        "hours": "10 AM to 8 PM"
      },
      {
        "day": "Tuesday",
        "hours": "10 AM to 8 PM"
      },
      {
        "day": "Wednesday",
        "hours": "10 AM to 8 PM"
      },
      {
        "day": "Thursday",
        "hours": "10 AM to 8 PM"
      },
      {
        "day": "Friday",
        "hours": "10 AM to 8 PM"
      },
      {
        "day": "Saturday",
        "hours": "10 AM to 8 PM"
      },
      {
        "day": "Sunday",
        "hours": "10 AM to 8 PM"
      }
    ],
    "imageUrl": "https://lh3.googleusercontent.com/gps-cs-s/AG0ilSx7uI1m25ObdKyfROwwRw37zULpf3QLUjCl9-IXCWHk0v4NsMsoFrpn5aJDVR0699TIrAxWZyt-hCxviSBrNWHsKMegVADxVkwCY5swIQymrv8rzL-0Y23nfHuqRstW-VFKWa4=w426-h240-k-no",
    "url": "https://www.google.com/maps/search/?api=1&query=Easy%20Motors%20Used%20Cars&query_place_id=ChIJVVVVVdFP4DsRIOJ97QGME6I"
  },
  {
    "title": "Exim Tours & Travels",
    "categoryName": "Car rental agency",
    "address": "310-SANGINI MAGNUS RUSHABH CROSS ROAD, Rander Rd, Surat, Gujarat 395009, India",
    "neighborhood": "Ghanshyam Society, Adajan",
    "street": "310-SANGINI MAGNUS RUSHABH CROSS ROAD, Rander Rd",
    "city": "Surat",
    "postalCode": "395009",
    "state": "Gujarat",
    "countryCode": "IN",
    "phone": "+919974086129",
    "phoneUnformatted": "+919974086129",
    "location": {
      "lat": 21.2004533,
      "lng": 72.8037994
    },
    "totalScore": 4.5,
    "permanentlyClosed": false,
    "temporarilyClosed": false,
    "placeId": "ChIJebnCRSlM4DsRLsFQtXwyrJU",
    "categories": [
      "Car rental agency",
      "Bus company",
      "Travel agency"
    ],
    "reviewsCount": 43,
    "imagesCount": 127,
    "openingHours": [
      {
        "day": "Monday",
        "hours": "Open 24 hours"
      },
      {
        "day": "Tuesday",
        "hours": "Open 24 hours"
      },
      {
        "day": "Wednesday",
        "hours": "Open 24 hours"
      },
      {
        "day": "Thursday",
        "hours": "Open 24 hours"
      },
      {
        "day": "Friday",
        "hours": "Open 24 hours"
      },
      {
        "day": "Saturday",
        "hours": "Open 24 hours"
      },
      {
        "day": "Sunday",
        "hours": "Open 24 hours"
      }
    ],
    "imageUrl": "https://lh3.googleusercontent.com/p/AF1QipMCoBaFwc5pekk41QqPu2EqanpU0WHpRNigl8yB=w426-h240-k-no",
    "url": "https://www.google.com/maps/search/?api=1&query=Exim%20Tours%20%26%20Travels&query_place_id=ChIJebnCRSlM4DsRLsFQtXwyrJU"
  },
  {
    "title": "Filmshoppee - Car Facelift Studio",
    "categoryName": "Car accessories store",
    "address": "Shop 2, Jolly Enclave Shopping, Near Varachha Zone Office, Old Bombay Market, L H Road,, Surat, Gujarat 395006, India",
    "neighborhood": "Trikamnagar Society, Mafat Nagar, Umarwada",
    "street": "Shop 2, Jolly Enclave Shopping, Near Varachha Zone Office, Old Bombay Market, L H Road,",
    "city": "Surat",
    "postalCode": "395006",
    "state": "Gujarat",
    "countryCode": "IN",
    "website": "https://www.filmshoppee.com/",
    "phone": "+919925019911",
    "phoneUnformatted": "+919925019911",
    "location": {
      "lat": 21.200961,
      "lng": 72.846216
    },
    "totalScore": 4.6,
    "permanentlyClosed": false,
    "temporarilyClosed": false,
    "placeId": "ChIJAylU-lVO4DsRY57ZyuP0GYE",
    "categories": [
      "Car accessories store",
      "Auto body shop",
      "Auto painting",
      "Auto restoration service",
      "Auto sunroof shop",
      "Chauffeur service",
      "Car wash"
    ],
    "reviewsCount": 246,
    "imagesCount": 511,
    "openingHours": [
      {
        "day": "Monday",
        "hours": "9:30 AM to 7 PM"
      },
      {
        "day": "Tuesday",
        "hours": "9:30 AM to 7 PM"
      },
      {
        "day": "Wednesday",
        "hours": "9:30 AM to 7 PM"
      },
      {
        "day": "Thursday",
        "hours": "9:30 AM to 7 PM"
      },
      {
        "day": "Friday",
        "hours": "9:30 AM to 7 PM"
      },
      {
        "day": "Saturday",
        "hours": "9:30 AM to 7 PM"
      },
      {
        "day": "Sunday",
        "hours": "Closed"
      }
    ],
    "imageUrl": "https://lh3.googleusercontent.com/p/AF1QipObJ3saR0l-RRI2ecml-TsHqDl_43vt534q7ZNH=w480-h240-k-no",
    "url": "https://www.google.com/maps/search/?api=1&query=Filmshoppee%20-%20Car%20Facelift%20Studio&query_place_id=ChIJAylU-lVO4DsRY57ZyuP0GYE"
  },
  {
    "title": "Gayatri Taxi Service",
    "categoryName": "Car rental agency",
    "address": "maruti complex, D 105, Umiyadham Rd, Varachha, Surat, Gujarat 395006, India",
    "neighborhood": "Varachha",
    "street": "maruti complex, D 105, Umiyadham Rd",
    "city": "Surat",
    "postalCode": "395006",
    "state": "Gujarat",
    "countryCode": "IN",
    "website": "https://gayatritaxiservice.in/",
    "location": {
      "lat": 21.2132696,
      "lng": 72.8479799
    },
    "totalScore": 5,
    "permanentlyClosed": false,
    "temporarilyClosed": false,
    "placeId": "ChIJ7x3zEiFP4DsR2e4HtGIgaDA",
    "categories": [
      "Car rental agency",
      "Car leasing service",
      "Taxi service"
    ],
    "reviewsCount": 1,
    "imagesCount": 10,
    "openingHours": [],
    "imageUrl": "https://lh3.googleusercontent.com/p/AF1QipMhrc5v9AJ11TO_WwABvL7up-cXFYsVzDH1R0bm=w408-h272-k-no",
    "url": "https://www.google.com/maps/search/?api=1&query=Gayatri%20Taxi%20Service&query_place_id=ChIJ7x3zEiFP4DsR2e4HtGIgaDA"
  },
  {
    "title": "Ghumo Car Rent (Self Drive Cars)",
    "categoryName": "Car rental agency",
    "address": "Ring Rd, Japan Market, Begampura, Surat, Gujarat 395003, India",
    "neighborhood": "Japan Market, Begampura",
    "street": "Ring Rd",
    "city": "Surat",
    "postalCode": "395003",
    "state": "Gujarat",
    "countryCode": "IN",
    "phone": "+919409301779",
    "phoneUnformatted": "+919409301779",
    "location": {
      "lat": 21.2005911,
      "lng": 72.8401933
    },
    "totalScore": 4.9,
    "permanentlyClosed": false,
    "temporarilyClosed": false,
    "placeId": "ChIJW5VQJaxP4DsRLM9kVxczLts",
    "categories": [
      "Car rental agency"
    ],
    "reviewsCount": 201,
    "imagesCount": 28,
    "openingHours": [
      {
        "day": "Monday",
        "hours": "10 AM to 8 PM"
      },
      {
        "day": "Tuesday",
        "hours": "10 AM to 8 PM"
      },
      {
        "day": "Wednesday",
        "hours": "10 AM to 8 PM"
      },
      {
        "day": "Thursday",
        "hours": "10 AM to 8 PM"
      },
      {
        "day": "Friday",
        "hours": "10 AM to 8 PM"
      },
      {
        "day": "Saturday",
        "hours": "10 AM to 8 PM"
      },
      {
        "day": "Sunday",
        "hours": "6 AM to 12 PM"
      }
    ],
    "imageUrl": "https://lh3.googleusercontent.com/gps-cs-s/AG0ilSyzcDRRPtGoJr7B0qH4CMlbw0Os6yQ3xJaULjbHYBUmaGpdD73WQmOe0j_hEoi4iZ99tQEO18GgnAi1sOIWBwcGJx4Q5FiMSW9YLHVufMELuy1WzCj39w3uEbz3ETLc29jm2kND=w408-h544-k-no",
    "url": "https://www.google.com/maps/search/?api=1&query=Ghumo%20Car%20Rent%20(Self%20Drive%20Cars)&query_place_id=ChIJW5VQJaxP4DsRLM9kVxczLts"
  },
  {
    "title": "GoMechanic Accessories - Kamal Car Decor",
    "categoryName": "Car stereo store",
    "address": "Abhilasha Hiahestn, Near Kiran Motors, Intercity Twp Society, Parvat Patiya, Surat, Gujarat 395010, India",
    "neighborhood": "Near Kiran Motors, Intercity Township Society, Parvat Patiya",
    "street": "Abhilasha Hiahestn",
    "city": "Surat",
    "postalCode": "395010",
    "state": "Gujarat",
    "countryCode": "IN",
    "phone": "+918398970970",
    "phoneUnformatted": "+918398970970",
    "location": {
      "lat": 21.1914552,
      "lng": 72.8594063
    },
    "totalScore": 3.3,
    "permanentlyClosed": false,
    "temporarilyClosed": false,
    "placeId": "ChIJx3GT7f5O4DsRaup4YQvL3gU",
    "categories": [
      "Car stereo store",
      "Auto upholsterer"
    ],
    "reviewsCount": 9,
    "imagesCount": 150,
    "openingHours": [
      {
        "day": "Monday",
        "hours": "8 AM to 8 PM"
      },
      {
        "day": "Tuesday",
        "hours": "8 AM to 8 PM"
      },
      {
        "day": "Wednesday",
        "hours": "8 AM to 8 PM"
      },
      {
        "day": "Thursday",
        "hours": "8 AM to 8 PM"
      },
      {
        "day": "Friday",
        "hours": "8 AM to 8 PM"
      },
      {
        "day": "Saturday",
        "hours": "8 AM to 8 PM"
      },
      {
        "day": "Sunday",
        "hours": "8 AM to 8 PM"
      }
    ],
    "imageUrl": "https://lh3.googleusercontent.com/p/AF1QipNfC0oFcFy8_Z0_14J_HQtcliB4MpK1L8xAwlVv=w426-h240-k-no",
    "url": "https://www.google.com/maps/search/?api=1&query=GoMechanic%20Accessories%20-%20Kamal%20Car%20Decor&query_place_id=ChIJx3GT7f5O4DsRaup4YQvL3gU"
  },
  {
    "title": "Harihar Travels",
    "categoryName": "Car rental agency",
    "address": "Shop No 23, Ved Rd, Opp Hari Om Mill, Surat, Gujarat 395004, India",
    "neighborhood": "Prannath Society, Katargam",
    "street": "Shop No 23, Ved Rd, Opp Hari Om Mill",
    "city": "Surat",
    "postalCode": "395004",
    "state": "Gujarat",
    "countryCode": "IN",
    "location": {
      "lat": 21.216517,
      "lng": 72.8229111
    },
    "permanentlyClosed": false,
    "temporarilyClosed": true,
    "placeId": "ChIJPfJTCJRO4DsRvc597bO22LI",
    "categories": [
      "Car rental agency"
    ],
    "imagesCount": 53,
    "openingHours": [],
    "imageUrl": "https://lh3.googleusercontent.com/p/AF1QipMmMqprOcqZ408HWLeiuofrNysjXjEh4Wo_LfPE=w408-h544-k-no",
    "url": "https://www.google.com/maps/search/?api=1&query=Harihar%20Travels&query_place_id=ChIJPfJTCJRO4DsRvc597bO22LI"
  },
  {
    "title": "Kiana Cab",
    "categoryName": "Car rental agency",
    "address": "Uttran, Surat, Gujarat 394105, India",
    "neighborhood": "Uttran",
    "city": "Surat",
    "postalCode": "394105",
    "state": "Gujarat",
    "countryCode": "IN",
    "phone": "+919909019596",
    "phoneUnformatted": "+919909019596",
    "location": {
      "lat": 21.2315453,
      "lng": 72.8662668
    },
    "totalScore": 5,
    "permanentlyClosed": false,
    "temporarilyClosed": false,
    "placeId": "ChIJIaNah_FP4DsRULEvGbjkIg4",
    "categories": [
      "Car rental agency",
      "Car leasing service"
    ],
    "reviewsCount": 2,
    "imagesCount": 125,
    "openingHours": [
      {
        "day": "Monday",
        "hours": "Open 24 hours"
      },
      {
        "day": "Tuesday",
        "hours": "Open 24 hours"
      },
      {
        "day": "Wednesday",
        "hours": "Open 24 hours"
      },
      {
        "day": "Thursday",
        "hours": "Open 24 hours"
      },
      {
        "day": "Friday",
        "hours": "Open 24 hours"
      },
      {
        "day": "Saturday",
        "hours": "Open 24 hours"
      },
      {
        "day": "Sunday",
        "hours": "Open 24 hours"
      }
    ],
    "imageUrl": "https://lh3.googleusercontent.com/p/AF1QipN7WaY6CXzMEdJ1gzcmLoPt6bfkKVxb-o9Rjx_t=w408-h270-k-no",
    "url": "https://www.google.com/maps/search/?api=1&query=Kiana%20Cab&query_place_id=ChIJIaNah_FP4DsRULEvGbjkIg4"
  },
  {
    "title": "Luxury car rental self car drive",
    "categoryName": "Car leasing service",
    "address": "elephanta business, ab hab, Dabholi Char Rasta, Gayatri Nagar, Katargam, Surat, Gujarat 395004, India",
    "neighborhood": "Dabholi Char Rasta, Gayatri Nagar, Katargam",
    "street": "elephanta business, ab hab",
    "city": "Surat",
    "postalCode": "395004",
    "state": "Gujarat",
    "countryCode": "IN",
    "location": {
      "lat": 21.2304465,
      "lng": 72.8214524
    },
    "permanentlyClosed": false,
    "temporarilyClosed": false,
    "placeId": "ChIJi9RA1M9P4DsRsfSngn-Kgrc",
    "categories": [
      "Car leasing service"
    ],
    "openingHours": [
      {
        "day": "Monday",
        "hours": "Open 24 hours"
      },
      {
        "day": "Tuesday",
        "hours": "Open 24 hours"
      },
      {
        "day": "Wednesday",
        "hours": "Open 24 hours"
      },
      {
        "day": "Thursday",
        "hours": "Open 24 hours"
      },
      {
        "day": "Friday",
        "hours": "Open 24 hours"
      },
      {
        "day": "Saturday",
        "hours": "Open 24 hours"
      },
      {
        "day": "Sunday",
        "hours": "Open 24 hours"
      }
    ],
    "url": "https://www.google.com/maps/search/?api=1&query=Luxury%20car%20rental%20self%20car%20drive&query_place_id=ChIJi9RA1M9P4DsRsfSngn-Kgrc"
  },
  {
    "title": "Mahavir Auto Consultant",
    "subTitle": "મહાવીર ઓટો સલાહકાર",
    "categoryName": "Used car dealer",
    "address": "Shop no-7, Navjivan Shopping Center, Civil char rasta, building, Bamroli Rd, opp. Center Point, Surat, Gujarat 395002, India",
    "neighborhood": "Khatodra Wadi",
    "street": "Shop no-7, Navjivan Shopping Center, Civil char rasta, building, Bamroli Rd, opp. Center Point",
    "city": "Surat",
    "postalCode": "395002",
    "state": "Gujarat",
    "countryCode": "IN",
    "website": "https://www.mahavirautoconsultant.com/",
    "phone": "+919227470000",
    "phoneUnformatted": "+919227470000",
    "location": {
      "lat": 21.1799801,
      "lng": 72.82475
    },
    "totalScore": 4.5,
    "permanentlyClosed": false,
    "temporarilyClosed": false,
    "placeId": "ChIJKxs4rmtO4DsRYlu4a-cR2OQ",
    "categories": [
      "Used car dealer",
      "Car dealer"
    ],
    "reviewsCount": 26,
    "imagesCount": 86,
    "openingHours": [
      {
        "day": "Monday",
        "hours": "9:30 AM to 8 PM"
      },
      {
        "day": "Tuesday",
        "hours": "9:30 AM to 8 PM"
      },
      {
        "day": "Wednesday",
        "hours": "9:30 AM to 8 PM"
      },
      {
        "day": "Thursday",
        "hours": "9:30 AM to 8 PM"
      },
      {
        "day": "Friday",
        "hours": "9:30 AM to 8 PM"
      },
      {
        "day": "Saturday",
        "hours": "9:30 AM to 8 PM"
      },
      {
        "day": "Sunday",
        "hours": "Closed"
      }
    ],
    "imageUrl": "https://lh3.googleusercontent.com/p/AF1QipOHZSEnSDLP6_vWpnapQznFamIcPLfx5syBCqvx=w426-h240-k-no",
    "url": "https://www.google.com/maps/search/?api=1&query=Mahavir%20Auto%20Consultant&query_place_id=ChIJKxs4rmtO4DsRYlu4a-cR2OQ"
  },
  {
    "title": "MD Cab Service",
    "categoryName": "Car rental agency",
    "address": "Krishna Parking Soc, Uttran, Surat, Gujarat 394105, India",
    "neighborhood": "Uttran",
    "street": "Krishna Parking Soc",
    "city": "Surat",
    "postalCode": "394105",
    "state": "Gujarat",
    "countryCode": "IN",
    "phone": "+919274086433",
    "phoneUnformatted": "+919274086433",
    "location": {
      "lat": 21.2288804,
      "lng": 72.8630252
    },
    "totalScore": 5,
    "permanentlyClosed": false,
    "temporarilyClosed": false,
    "placeId": "ChIJIWub8K9P4DsRuhNDbf8J4pg",
    "categories": [
      "Car rental agency",
      "Taxi service"
    ],
    "reviewsCount": 217,
    "imagesCount": 34,
    "openingHours": [],
    "imageUrl": "https://lh3.googleusercontent.com/p/AF1QipOIMaacaRbEaqF4xXmbAN08ZS487crn5Kltxq0=w408-h544-k-no",
    "url": "https://www.google.com/maps/search/?api=1&query=MD%20Cab%20Service&query_place_id=ChIJIWub8K9P4DsRuhNDbf8J4pg"
  },
  {
    "title": "NEXA (Dhru Motors, Magob, Kumbhariya Road)",
    "subTitle": "નેક્સા (ધ્રુ મોટર્સ)",
    "categoryName": "Car dealer",
    "address": "14-17, Surat - Kadodara Rd, Puna Khumbhariya, Bhavani Industrial Estate, Magob, Surat, Gujarat 395011, India",
    "neighborhood": "Puna Khumbhariya, Bhavani Industrial Estate, Magob",
    "street": "14-17, Surat - Kadodara Rd",
    "city": "Surat",
    "postalCode": "395011",
    "state": "Gujarat",
    "countryCode": "IN",
    "website": "https://www.nexaofpunakumbhariya.com/?utm_source=gmb&utm_medium=google",
    "phone": "+918062511531",
    "phoneUnformatted": "+918062511531",
    "location": {
      "lat": 21.189964,
      "lng": 72.873225
    },
    "totalScore": 4.6,
    "permanentlyClosed": false,
    "temporarilyClosed": false,
    "placeId": "ChIJWwQAFb1P4DsReaaCgVBR1Hk",
    "categories": [
      "Car dealer"
    ],
    "reviewsCount": 402,
    "imagesCount": 253,
    "openingHours": [
      {
        "day": "Monday",
        "hours": "9 AM to 10 PM"
      },
      {
        "day": "Tuesday",
        "hours": "9 AM to 10 PM"
      },
      {
        "day": "Wednesday",
        "hours": "9 AM to 10 PM"
      },
      {
        "day": "Thursday",
        "hours": "9 AM to 10 PM"
      },
      {
        "day": "Friday",
        "hours": "9 AM to 10 PM"
      },
      {
        "day": "Saturday",
        "hours": "9 AM to 10 PM"
      },
      {
        "day": "Sunday",
        "hours": "9 AM to 10 PM"
      }
    ],
    "imageUrl": "https://lh3.googleusercontent.com/gps-cs-s/AG0ilSyfHzRiIUihMwEYkeTUodwomo7nYAHLwXrSpfyvWu9sye5HHatROmbCNPPdr0S45VfuSJRC7J_7DKhBTneoNc8_StClWx4zZzs2BE0Uzj9-QW7Mm-g4yZZFKzwnP70qWrN0AZS_yg=w408-h306-k-no",
    "url": "https://www.google.com/maps/search/?api=1&query=NEXA%20(Dhru%20Motors%2C%20Magob%2C%20Kumbhariya%20Road)&query_place_id=ChIJWwQAFb1P4DsReaaCgVBR1Hk"
  },
  {
    "title": "Omkar Car World",
    "subTitle": "ઓમકાર કાર વર્લ્ડ",
    "categoryName": "Used car dealer",
    "address": "17A, Surat - Kamrej Hwy, Green Park Society, Kodiyar Nagar, Surat, Gujarat 395006, India",
    "neighborhood": "Green Park Society, Kodiyar Nagar",
    "street": "17A, Surat - Kamrej Hwy",
    "city": "Surat",
    "postalCode": "395006",
    "state": "Gujarat",
    "countryCode": "IN",
    "location": {
      "lat": 21.2087162,
      "lng": 72.8448173
    },
    "totalScore": 4.4,
    "permanentlyClosed": false,
    "temporarilyClosed": false,
    "placeId": "ChIJ3SN7nU5P4DsRJ25D9bSXT-Q",
    "categories": [
      "Used car dealer"
    ],
    "reviewsCount": 26,
    "imagesCount": 14,
    "openingHours": [
      {
        "day": "Monday",
        "hours": "9 AM to 8 PM"
      },
      {
        "day": "Tuesday",
        "hours": "9 AM to 8 PM"
      },
      {
        "day": "Wednesday",
        "hours": "9 AM to 8 PM"
      },
      {
        "day": "Thursday",
        "hours": "9 AM to 8 PM"
      },
      {
        "day": "Friday",
        "hours": "9 AM to 8 PM"
      },
      {
        "day": "Saturday",
        "hours": "9 AM to 8 PM"
      },
      {
        "day": "Sunday",
        "hours": "9 AM to 8 PM"
      }
    ],
    "imageUrl": "https://lh3.googleusercontent.com/gps-cs-s/AG0ilSypDbgCDBSH6qS4RTC3-1YJtpFVX9Vk3hV4ZExPJuSljy3ViIhYqOCK5UFtPB9oSPdQDrFAzpWxRPxb2JdxLPsK0pjd2GpZysxHVkI88d7gNCdOZsi9yGpakL-1RpXfi8P29Rgt=w408-h306-k-no",
    "url": "https://www.google.com/maps/search/?api=1&query=Omkar%20Car%20World&query_place_id=ChIJ3SN7nU5P4DsRJ25D9bSXT-Q"
  },
  {
    "title": "Safari Travels",
    "categoryName": "Car rental agency",
    "address": "Cinema Rd, opposite Meghani Tower, Near Meghani Tower, Lakkabkhod, Begampura, Surat, Gujarat 395003, India",
    "neighborhood": "Near Meghani Tower, Lakkabkhod, Begampura",
    "street": "Cinema Rd, opposite Meghani Tower",
    "city": "Surat",
    "postalCode": "395003",
    "state": "Gujarat",
    "countryCode": "IN",
    "phone": "+919824182175",
    "phoneUnformatted": "+919824182175",
    "location": {
      "lat": 21.2010354,
      "lng": 72.838027
    },
    "totalScore": 4,
    "permanentlyClosed": false,
    "temporarilyClosed": false,
    "placeId": "ChIJS2Mv3PdO4DsR3vVXw5NNN14",
    "categories": [
      "Car rental agency",
      "Car leasing service"
    ],
    "reviewsCount": 15,
    "imagesCount": 11,
    "openingHours": [
      {
        "day": "Monday",
        "hours": "Open 24 hours"
      },
      {
        "day": "Tuesday",
        "hours": "Open 24 hours"
      },
      {
        "day": "Wednesday",
        "hours": "Open 24 hours"
      },
      {
        "day": "Thursday",
        "hours": "Open 24 hours"
      },
      {
        "day": "Friday",
        "hours": "Open 24 hours"
      },
      {
        "day": "Saturday",
        "hours": "Open 24 hours"
      },
      {
        "day": "Sunday",
        "hours": "Open 24 hours"
      }
    ],
    "imageUrl": "https://lh3.googleusercontent.com/p/AF1QipMGDvuTJcYodU6eNO9hOUFWQM5ZLjAuj8Of99Vc=w426-h240-k-no",
    "url": "https://www.google.com/maps/search/?api=1&query=Safari%20Travels&query_place_id=ChIJS2Mv3PdO4DsR3vVXw5NNN14"
  },
  {
    "title": "SAI luxury wedding car rental",
    "categoryName": "Car leasing service",
    "address": "2, New Kosad Rd, Hariom Nagar, Mahavir Dham-2, Amroli, Surat, Gujarat 394107, India",
    "neighborhood": "Hariom Nagar, Mahavir Dham-2, Amroli",
    "street": "2, New Kosad Rd",
    "city": "Surat",
    "postalCode": "394107",
    "state": "Gujarat",
    "countryCode": "IN",
    "website": "https://www.instagram.com/audi_a4_for_rent?igsh=MW41dXhvdHRwdnZlOA==",
    "location": {
      "lat": 21.238659,
      "lng": 72.8551259
    },
    "totalScore": 5,
    "permanentlyClosed": false,
    "temporarilyClosed": false,
    "placeId": "ChIJO7IK-TlP4DsRbQpqIGqGsMs",
    "categories": [
      "Car leasing service"
    ],
    "reviewsCount": 2,
    "imagesCount": 11,
    "openingHours": [
      {
        "day": "Monday",
        "hours": "Open 24 hours"
      },
      {
        "day": "Tuesday",
        "hours": "Open 24 hours"
      },
      {
        "day": "Wednesday",
        "hours": "Open 24 hours"
      },
      {
        "day": "Thursday",
        "hours": "Open 24 hours"
      },
      {
        "day": "Friday",
        "hours": "Open 24 hours"
      },
      {
        "day": "Saturday",
        "hours": "Open 24 hours"
      },
      {
        "day": "Sunday",
        "hours": "Open 24 hours"
      }
    ],
    "imageUrl": "https://lh3.googleusercontent.com/p/AF1QipNd1ShV8byajlmfgMC8uPtIe_h3m1tbqRJWxkzi=w533-h240-k-no",
    "url": "https://www.google.com/maps/search/?api=1&query=SAI%20luxury%20wedding%20car%20rental&query_place_id=ChIJO7IK-TlP4DsRbQpqIGqGsMs"
  },
  {
    "title": "Shiva Self Drive Car Rental",
    "categoryName": "Car rental agency",
    "address": "2, Varachha Main Rd, Varachha, Surat, Gujarat 395006, India",
    "neighborhood": "Varachha",
    "street": "2, Varachha Main Rd",
    "city": "Surat",
    "postalCode": "395006",
    "state": "Gujarat",
    "countryCode": "IN",
    "phone": "+916353977607",
    "phoneUnformatted": "+916353977607",
    "location": {
      "lat": 21.2195367,
      "lng": 72.8722258
    },
    "totalScore": 4.8,
    "permanentlyClosed": false,
    "temporarilyClosed": false,
    "placeId": "ChIJJf7VCRNP4DsRP0qNY9oXr_s",
    "categories": [
      "Car rental agency"
    ],
    "reviewsCount": 147,
    "imagesCount": 95,
    "openingHours": [
      {
        "day": "Monday",
        "hours": "Open 24 hours"
      },
      {
        "day": "Tuesday",
        "hours": "Open 24 hours"
      },
      {
        "day": "Wednesday",
        "hours": "Open 24 hours"
      },
      {
        "day": "Thursday",
        "hours": "Open 24 hours"
      },
      {
        "day": "Friday",
        "hours": "Open 24 hours"
      },
      {
        "day": "Saturday",
        "hours": "Open 24 hours"
      },
      {
        "day": "Sunday",
        "hours": "Open 24 hours"
      }
    ],
    "imageUrl": "https://lh3.googleusercontent.com/p/AF1QipNtc02XT_JfC3suvZkzssjbBZwoV2mJUFpyowWV=w408-h544-k-no",
    "url": "https://www.google.com/maps/search/?api=1&query=Shiva%20Self%20Drive%20Car%20Rental&query_place_id=ChIJJf7VCRNP4DsRP0qNY9oXr_s"
  },
  {
    "title": "Shreeji Car Decor",
    "subTitle": "શ્રીજી કાર ડેકોર",
    "categoryName": "Car accessories store",
    "address": "Shop No-5, Sai Residency, below Ashish Restaurant, Kailashdham Society, Mahavir Nagar Society, Katargam, Surat, Gujarat 395004, India",
    "neighborhood": "Kailashdham Society, Mahavir Nagar Society, Katargam",
    "street": "Shop No-5, Sai Residency, below Ashish Restaurant",
    "city": "Surat",
    "postalCode": "395004",
    "state": "Gujarat",
    "countryCode": "IN",
    "phone": "+919374726821",
    "phoneUnformatted": "+919374726821",
    "location": {
      "lat": 21.2302815,
      "lng": 72.838396
    },
    "totalScore": 4.9,
    "permanentlyClosed": false,
    "temporarilyClosed": false,
    "placeId": "ChIJV4PgvMRO4DsRI4XUiuMc7dI",
    "categories": [
      "Car accessories store"
    ],
    "reviewsCount": 368,
    "imagesCount": 489,
    "openingHours": [
      {
        "day": "Monday",
        "hours": "9 AM to 8 PM"
      },
      {
        "day": "Tuesday",
        "hours": "9 AM to 8 PM"
      },
      {
        "day": "Wednesday",
        "hours": "9 AM to 8 PM"
      },
      {
        "day": "Thursday",
        "hours": "9 AM to 8 PM"
      },
      {
        "day": "Friday",
        "hours": "9 AM to 8 PM"
      },
      {
        "day": "Saturday",
        "hours": "9 AM to 8 PM"
      },
      {
        "day": "Sunday",
        "hours": "9 AM to 1 PM"
      }
    ],
    "imageUrl": "https://lh3.googleusercontent.com/p/AF1QipMxa8HTlZm5TJWOX7qdKJdO87vm5QYCJovFfyBP=w408-h271-k-no",
    "url": "https://www.google.com/maps/search/?api=1&query=Shreeji%20Car%20Decor&query_place_id=ChIJV4PgvMRO4DsRI4XUiuMc7dI"
  },
  {
    "title": "Surat Pre Owned Cars",
    "categoryName": "Used car dealer",
    "address": "Valentino Complex, BRTS Road, Bhatar, Udhana, Surat, Gujarat 395002, India",
    "neighborhood": "Bhatar, Udhana",
    "street": "Valentino Complex, BRTS Road",
    "city": "Surat",
    "postalCode": "395002",
    "state": "Gujarat",
    "countryCode": "IN",
    "location": {
      "lat": 21.1771574,
      "lng": 72.8302833
    },
    "totalScore": 4.9,
    "permanentlyClosed": false,
    "temporarilyClosed": false,
    "placeId": "ChIJ-a1N6gdP4DsR4W_kbpdUvCA",
    "categories": [
      "Used car dealer"
    ],
    "reviewsCount": 98,
    "imagesCount": 2,
    "openingHours": [],
    "imageUrl": "https://lh3.googleusercontent.com/p/AF1QipONYOfdX5rCem9pEdYnfY9Xldx5Wvd0JbX8Blvk=w408-h306-k-no",
    "url": "https://www.google.com/maps/search/?api=1&query=Surat%20Pre%20Owned%20Cars&query_place_id=ChIJ-a1N6gdP4DsR4W_kbpdUvCA"
  },
  {
    "title": "Surat Travels",
    "categoryName": "Car rental agency",
    "address": "Kuberdas ni vadi, 2/2296, Momnawad, Koliwad, Rudrapura, Surat, Gujarat 395001, India",
    "neighborhood": "Momnawad, Koliwad, Rudrapura",
    "street": "Kuberdas ni vadi, 2/2296",
    "city": "Surat",
    "postalCode": "395001",
    "state": "Gujarat",
    "countryCode": "IN",
    "website": "http://surattravels.com/",
    "location": {
      "lat": 21.1896989,
      "lng": 72.8229441
    },
    "permanentlyClosed": false,
    "temporarilyClosed": false,
    "placeId": "ChIJn8TSEJNP4DsRPELUxIdNnNo",
    "categories": [
      "Car rental agency",
      "Car leasing service",
      "Taxi service"
    ],
    "imagesCount": 3,
    "openingHours": [],
    "imageUrl": "https://streetviewpixels-pa.googleapis.com/v1/thumbnail?panoid=wRJqAsC2aM73LgNCWT2Low&cb_client=search.gws-prod.gps&w=408&h=240&yaw=129.52461&pitch=0&thumbfov=100",
    "url": "https://www.google.com/maps/search/?api=1&query=Surat%20Travels&query_place_id=ChIJn8TSEJNP4DsRPELUxIdNnNo"
  },
  {
    "title": "Top 10 Motors",
    "subTitle": "ટોપ 10 મોટર્સ",
    "categoryName": "Car dealer",
    "address": "A-201 Wahed Mension Rustampura Delha Street, Gujarat 395002, India",
    "neighborhood": "Rustampura",
    "street": "A-201 Wahed Mension Rustampura Delha Street",
    "city": "Surat",
    "postalCode": "395002",
    "state": "Gujarat",
    "countryCode": "IN",
    "phone": "+919925125786",
    "phoneUnformatted": "+919925125786",
    "location": {
      "lat": 21.187625,
      "lng": 72.8309283
    },
    "totalScore": 4.9,
    "permanentlyClosed": false,
    "temporarilyClosed": false,
    "placeId": "ChIJjXt_dEtP4DsRHBB11eOKQdI",
    "categories": [
      "Car dealer"
    ],
    "reviewsCount": 41,
    "imagesCount": 42,
    "openingHours": [
      {
        "day": "Monday",
        "hours": "10:30 AM to 7:30 PM"
      },
      {
        "day": "Tuesday",
        "hours": "10:30 AM to 7:30 PM"
      },
      {
        "day": "Wednesday",
        "hours": "10:30 AM to 7:30 PM"
      },
      {
        "day": "Thursday",
        "hours": "10:30 AM to 7:30 PM"
      },
      {
        "day": "Friday",
        "hours": "10:30 AM to 7:30 PM"
      },
      {
        "day": "Saturday",
        "hours": "10:30 AM to 7:30 PM"
      },
      {
        "day": "Sunday",
        "hours": "10:30 AM to 7:30 PM"
      }
    ],
    "imageUrl": "https://lh3.googleusercontent.com/p/AF1QipOQbWo5pKCtktS1wldErh8WHwoOMvXiPKs3Cfcq=w408-h544-k-no",
    "url": "https://www.google.com/maps/search/?api=1&query=Top%2010%20Motors&query_place_id=ChIJjXt_dEtP4DsRHBB11eOKQdI"
  },
  {
    "title": "United Cars",
    "subTitle": "યુનિટેડ કાર્સ",
    "categoryName": "Used car dealer",
    "address": "Pl. 100 Anand Row House Opp. Old Bsnl Office Nr Shreeji Arcade, Adajan, Surat, Gujarat 395009, India",
    "neighborhood": "Adajan Gam, Adajan",
    "street": "Pl. 100 Anand Row House Opp. Old Bsnl Office Nr Shreeji Arcade",
    "city": "Surat",
    "postalCode": "395009",
    "state": "Gujarat",
    "countryCode": "IN",
    "phone": "+917778829537",
    "phoneUnformatted": "+917778829537",
    "location": {
      "lat": 21.1929837,
      "lng": 72.7945903
    },
    "totalScore": 4.3,
    "permanentlyClosed": false,
    "temporarilyClosed": false,
    "placeId": "ChIJTaaPg1ZN4DsRNnALnNIAXZ4",
    "categories": [
      "Used car dealer"
    ],
    "reviewsCount": 56,
    "imagesCount": 63,
    "openingHours": [
      {
        "day": "Monday",
        "hours": "10 AM to 8 PM"
      },
      {
        "day": "Tuesday",
        "hours": "10 AM to 8 PM"
      },
      {
        "day": "Wednesday",
        "hours": "10 AM to 8 PM"
      },
      {
        "day": "Thursday",
        "hours": "10 AM to 8 PM"
      },
      {
        "day": "Friday",
        "hours": "10 AM to 8 PM"
      },
      {
        "day": "Saturday",
        "hours": "10 AM to 8 PM"
      },
      {
        "day": "Sunday",
        "hours": "10 AM to 8 PM"
      }
    ],
    "imageUrl": "https://lh3.googleusercontent.com/gps-cs-s/AG0ilSxlKUTGVPdDwnig7SPJ2gOVfUIMmlxI6DQtSQQcarrzTm_Ns6HUlj2gTcEuyYQ_-KeZkfi9_Lp3GofAW4JsOlrHusMz2tSVgL0TaP3igQpNO7L9k90VJ85VkiJJubPGWMJa9mHD=w408-h306-k-no",
    "url": "https://www.google.com/maps/search/?api=1&query=United%20Cars&query_place_id=ChIJTaaPg1ZN4DsRNnALnNIAXZ4"
  },
  {
    "title": "Valuable Auto Consult",
    "categoryName": "Car dealer",
    "address": "Ring Rd, nr. ICC Building, Sagrampura, Surat, Gujarat 395002, India",
    "neighborhood": "Sagrampura",
    "street": "Ring Rd, nr. ICC Building",
    "city": "Surat",
    "postalCode": "395002",
    "state": "Gujarat",
    "countryCode": "IN",
    "website": "https://carshops.app/car-dealer/n055NaFYSnP07Nh8DOXf",
    "phone": "+919898735734",
    "phoneUnformatted": "+919898735734",
    "location": {
      "lat": 21.181098,
      "lng": 72.8229881
    },
    "totalScore": 5,
    "permanentlyClosed": false,
    "temporarilyClosed": false,
    "placeId": "ChIJ_eWh42tO4DsRbqd7LS_0cNc",
    "categories": [
      "Car dealer"
    ],
    "reviewsCount": 2,
    "imagesCount": 24,
    "openingHours": [
      {
        "day": "Monday",
        "hours": "10 AM to 7:30 PM"
      },
      {
        "day": "Tuesday",
        "hours": "10 AM to 7:30 PM"
      },
      {
        "day": "Wednesday",
        "hours": "10 AM to 7:30 PM"
      },
      {
        "day": "Thursday",
        "hours": "10 AM to 7:30 PM"
      },
      {
        "day": "Friday",
        "hours": "10 AM to 7:30 PM"
      },
      {
        "day": "Saturday",
        "hours": "10 AM to 7:30 PM"
      },
      {
        "day": "Sunday",
        "hours": "10 AM to 5 PM"
      }
    ],
    "imageUrl": "https://lh3.googleusercontent.com/p/AF1QipNa6HR_ix7YIaBTkwUoXBWRqDECmoFX0jIhJZs6=w408-h306-k-no",
    "url": "https://www.google.com/maps/search/?api=1&query=Valuable%20Auto%20Consult&query_place_id=ChIJ_eWh42tO4DsRbqd7LS_0cNc"
  },
  {
    "title": "Vision Cabs",
    "subTitle": "વિઝન કેબ",
    "categoryName": "Car rental agency",
    "address": "A-38, Park avenue, Ankur Society, Muktanand Nagar, Adajan, Surat, Gujarat 395009, India",
    "neighborhood": "Ankur Society, Muktanand Nagar, Adajan",
    "street": "A-38, Park avenue",
    "city": "Surat",
    "postalCode": "395009",
    "state": "Gujarat",
    "countryCode": "IN",
    "phone": "+919879988899",
    "phoneUnformatted": "+919879988899",
    "location": {
      "lat": 21.1954839,
      "lng": 72.8003792
    },
    "totalScore": 4.2,
    "permanentlyClosed": false,
    "temporarilyClosed": false,
    "placeId": "ChIJm0Oow9RN4DsR3FzOPh9Dih8",
    "categories": [
      "Car rental agency",
      "Bus tour agency",
      "Tour operator",
      "Sightseeing tour agency",
      "Taxi service",
      "Tour agency",
      "Train ticket agency",
      "Travel agency"
    ],
    "reviewsCount": 23,
    "imagesCount": 28,
    "openingHours": [
      {
        "day": "Monday",
        "hours": "Open 24 hours"
      },
      {
        "day": "Tuesday",
        "hours": "Open 24 hours"
      },
      {
        "day": "Wednesday",
        "hours": "Open 24 hours"
      },
      {
        "day": "Thursday",
        "hours": "Open 24 hours"
      },
      {
        "day": "Friday",
        "hours": "Open 24 hours"
      },
      {
        "day": "Saturday",
        "hours": "Open 24 hours"
      },
      {
        "day": "Sunday",
        "hours": "Open 24 hours"
      }
    ],
    "imageUrl": "https://lh3.googleusercontent.com/p/AF1QipM6yC6H5xreaJH4pmgA0xe7ep62jmCbwey1uoKi=w408-h285-k-no",
    "url": "https://www.google.com/maps/search/?api=1&query=Vision%20Cabs&query_place_id=ChIJm0Oow9RN4DsR3FzOPh9Dih8"
  },
  {
    "title": "Zeenal Travels",
    "categoryName": "Car rental agency",
    "address": "Rajwadi Party Plot, 10-B, Abhishek Twp, Amroli, Surat, Gujarat 394107, India",
    "neighborhood": "Abhishek Township, Amroli",
    "street": "Rajwadi Party Plot, 10-B",
    "city": "Surat",
    "postalCode": "394107",
    "state": "Gujarat",
    "countryCode": "IN",
    "phone": "+916356544528",
    "phoneUnformatted": "+916356544528",
    "location": {
      "lat": 21.2446778,
      "lng": 72.8568211
    },
    "totalScore": 5,
    "permanentlyClosed": false,
    "temporarilyClosed": true,
    "placeId": "ChIJ8WCrbPpP4DsRiFdnMNV5ySc",
    "categories": [
      "Car rental agency"
    ],
    "reviewsCount": 1,
    "imagesCount": 17,
    "openingHours": [],
    "imageUrl": "https://lh3.googleusercontent.com/p/AF1QipPH8HyRj1gEhlSP_C_klRo8bJbyvD2HTsmj5rzA=w408-h306-k-no",
    "url": "https://www.google.com/maps/search/?api=1&query=Zeenal%20Travels&query_place_id=ChIJ8WCrbPpP4DsRiFdnMNV5ySc"
  },
  {
    "title": "ZIP CAR RENTAL",
    "categoryName": "Car rental agency",
    "address": "Natali St, Sagrampura, Surat, Gujarat 395002, India",
    "neighborhood": "Sagrampura",
    "street": "Natali St",
    "city": "Surat",
    "postalCode": "395002",
    "state": "Gujarat",
    "countryCode": "IN",
    "phone": "+919228199064",
    "phoneUnformatted": "+919228199064",
    "location": {
      "lat": 21.1860903,
      "lng": 72.8247645
    },
    "totalScore": 5,
    "permanentlyClosed": false,
    "temporarilyClosed": false,
    "placeId": "ChIJScGgIr1P4DsRaLfuvDzEQ9Y",
    "categories": [
      "Car rental agency"
    ],
    "reviewsCount": 1,
    "imagesCount": 6,
    "openingHours": [
      {
        "day": "Monday",
        "hours": "Open 24 hours"
      },
      {
        "day": "Tuesday",
        "hours": "Open 24 hours"
      },
      {
        "day": "Wednesday",
        "hours": "Open 24 hours"
      },
      {
        "day": "Thursday",
        "hours": "Open 24 hours"
      },
      {
        "day": "Friday",
        "hours": "Open 24 hours"
      },
      {
        "day": "Saturday",
        "hours": "Open 24 hours"
      },
      {
        "day": "Sunday",
        "hours": "Open 24 hours"
      }
    ],
    "imageUrl": "https://lh3.googleusercontent.com/p/AF1QipNFY0cj5Q-o_wDHa5rcBGajckpdlgJR3rENuACg=w408-h307-k-no",
    "url": "https://www.google.com/maps/search/?api=1&query=ZIP%20CAR%20RENTAL&query_place_id=ChIJScGgIr1P4DsRaLfuvDzEQ9Y"
  }
]
