[
  {
    "title": "Altima Cabs",
    "categoryName": "Car rental agency",
    "address": "TC 11/694, Prem Vihar, Nalanda Ln, Junction, Nanthancodu, Thiruvananthapuram, Kerala 695003, India",
    "neighborhood": "Junction, Nanthancodu",
    "street": "TC 11/694, Prem Vihar, Nalanda Ln",
    "city": "Thiruvananthapuram",
    "postalCode": "695003",
    "state": "Kerala",
    "countryCode": "IN",
    "website": "https://altimacabs.com/",
    "phone": "+917559999009",
    "phoneUnformatted": "+917559999009",
    "location": {
      "lat": 8.5127304,
      "lng": 76.9508764
    },
    "totalScore": 4.9,
    "permanentlyClosed": false,
    "temporarilyClosed": false,
    "placeId": "ChIJW7QAnGm7BTsRgVgJNQhjVR0",
    "categories": [
      "Car rental agency",
      "Airport shuttle service",
      "Car leasing service",
      "Taxi service",
      "Transportation service",
      "Travel agency"
    ],
    "reviewsCount": 400,
    "imagesCount": 72,
    "openingHours": [],
    "imageUrl": "https://lh3.googleusercontent.com/p/AF1QipNFyraiO0lAn7dhPZcuDd8vwA7tKyyyeNUadyuu=w408-h408-k-no",
    "url": "https://www.google.com/maps/search/?api=1&query=Altima%20Cabs&query_place_id=ChIJW7QAnGm7BTsRgVgJNQhjVR0"
  },
  {
    "title": "Apple Car Rentals",
    "subTitle": "ആപ്പിൾ കാർ റെന്റലസ്",
    "categoryName": "Car rental agency",
    "address": "Medayil, International Airport Road TC-36/58(1, Vallakadavu Road, Perunthanni, Thiruvananthapuram, Kerala 695008, India",
    "neighborhood": "Perunthanni, Eanchakkal",
    "street": "Medayil, International Airport Road TC-36/58(1, Vallakadavu Road",
    "city": "Thiruvananthapuram",
    "postalCode": "695008",
    "state": "Kerala",
    "countryCode": "IN",
    "website": "http://www.applecarrentals.com/",
    "phone": "+919447795539",
    "phoneUnformatted": "+919447795539",
    "location": {
      "lat": 8.4835818,
      "lng": 76.9303631
    },
    "totalScore": 4.3,
    "permanentlyClosed": false,
    "temporarilyClosed": false,
    "placeId": "ChIJi84cMJ27BTsR1Yz-xIGnCww",
    "categories": [
      "Car rental agency",
      "Taxi service",
      "Tour operator",
      "Travel agency"
    ],
    "reviewsCount": 142,
    "imagesCount": 404,
    "openingHours": [
      {
        "day": "Monday",
        "hours": "Open 24 hours"
      },
      {
        "day": "Tuesday",
        "hours": "Open 24 hours"
      },
      {
        "day": "Wednesday",
        "hours": "Open 24 hours"
      },
      {
        "day": "Thursday",
        "hours": "Open 24 hours"
      },
      {
        "day": "Friday",
        "hours": "Open 24 hours"
      },
      {
        "day": "Saturday",
        "hours": "Open 24 hours"
      },
      {
        "day": "Sunday",
        "hours": "Open 24 hours"
      }
    ],
    "imageUrl": "https://lh3.googleusercontent.com/p/AF1QipPlUL0due_2ij8kFiJp3k8hq2kl-o_u6CyQzFTg=w500-h240-k-no",
    "url": "https://www.google.com/maps/search/?api=1&query=Apple%20Car%20Rentals&query_place_id=ChIJi84cMJ27BTsR1Yz-xIGnCww"
  },
  {
    "title": "Apple Cars - Self Drive Rent a Car Trivandrum",
    "subTitle": "ആപ്പിൾ കാർസ്",
    "categoryName": "Car rental agency",
    "address": "Puliyarthala, TC 847/1 IFRA 125 Pulayanarkotta, PO, Kumarapuram, Thiruvananthapuram, Kerala 695011, India",
    "neighborhood": "Kumarapuram",
    "street": "Puliyarthala, TC 847/1 IFRA 125 Pulayanarkotta, PO",
    "city": "Thiruvananthapuram",
    "postalCode": "695011",
    "state": "Kerala",
    "countryCode": "IN",
    "website": "https://applecarrentals.com/",
    "phone": "+918157095539",
    "phoneUnformatted": "+918157095539",
    "location": {
      "lat": 8.5202093,
      "lng": 76.9182107
    },
    "totalScore": 4.4,
    "permanentlyClosed": false,
    "temporarilyClosed": false,
    "placeId": "ChIJK4F9e_C7BTsRqNyKDBrcHuI",
    "categories": [
      "Car rental agency",
      "Car leasing service",
      "Taxi service",
      "Tour operator",
      "Travel agency"
    ],
    "reviewsCount": 977,
    "imagesCount": 797,
    "openingHours": [
      {
        "day": "Monday",
        "hours": "Open 24 hours"
      },
      {
        "day": "Tuesday",
        "hours": "Open 24 hours"
      },
      {
        "day": "Wednesday",
        "hours": "Open 24 hours"
      },
      {
        "day": "Thursday",
        "hours": "Open 24 hours"
      },
      {
        "day": "Friday",
        "hours": "Open 24 hours"
      },
      {
        "day": "Saturday",
        "hours": "Open 24 hours"
      },
      {
        "day": "Sunday",
        "hours": "Open 24 hours"
      }
    ],
    "imageUrl": "https://lh3.googleusercontent.com/p/AF1QipPcVGqmO2rwOcx59vYe1VxxS405jq98ncZeT6Cb=w408-h243-k-no",
    "url": "https://www.google.com/maps/search/?api=1&query=Apple%20Cars%20-%20Self%20Drive%20Rent%20a%20Car%20Trivandrum&query_place_id=ChIJK4F9e_C7BTsRqNyKDBrcHuI"
  },
  {
    "title": "Apple Cars rentals",
    "subTitle": "ആപ്പിൾ കാർസ്",
    "categoryName": "Car rental agency",
    "address": "Tc 31/2717 Swathi Nagar lane 4 near SAP Camp, Kerala 695005, India",
    "neighborhood": "Sawthi Nagar, Pipinmoodu",
    "street": "Tc 31/2717 Swathi Nagar lane 4 near SAP Camp",
    "city": "Thiruvananthapuram",
    "postalCode": "695005",
    "state": "Kerala",
    "countryCode": "IN",
    "website": "https://applecarrentals.com/",
    "phone": "+917510781111",
    "phoneUnformatted": "+917510781111",
    "location": {
      "lat": 8.522844,
      "lng": 76.973719
    },
    "totalScore": 4.8,
    "permanentlyClosed": false,
    "temporarilyClosed": false,
    "placeId": "ChIJPZec7yi6BTsRF1pjSHHA5xk",
    "categories": [
      "Car rental agency",
      "Cabin rental agency"
    ],
    "reviewsCount": 58,
    "imagesCount": 75,
    "openingHours": [
      {
        "day": "Monday",
        "hours": "Open 24 hours"
      },
      {
        "day": "Tuesday",
        "hours": "Open 24 hours"
      },
      {
        "day": "Wednesday",
        "hours": "Open 24 hours"
      },
      {
        "day": "Thursday",
        "hours": "Open 24 hours"
      },
      {
        "day": "Friday",
        "hours": "Open 24 hours"
      },
      {
        "day": "Saturday",
        "hours": "Open 24 hours"
      },
      {
        "day": "Sunday",
        "hours": "Open 24 hours"
      }
    ],
    "imageUrl": "https://lh3.googleusercontent.com/p/AF1QipNB1z6abYOG19S1x1CHQ5yGQ72wKmAI_uD4WBs0=w500-h240-k-no",
    "url": "https://www.google.com/maps/search/?api=1&query=Apple%20Cars%20rentals&query_place_id=ChIJPZec7yi6BTsRF1pjSHHA5xk"
  },
  {
    "title": "Arrow Cabs – Self Drive Car Rentals Trivandrum | Airport Delivery Service",
    "categoryName": "Car rental agency",
    "address": "112, Scra Rd, Killipalam, Karamana, Thiruvananthapuram, Kerala 695002, India",
    "neighborhood": "Killipalam, Karamana",
    "street": "112, Scra Rd",
    "city": "Thiruvananthapuram",
    "postalCode": "695002",
    "state": "Kerala",
    "countryCode": "IN",
    "website": "https://arrowcabs.co.in/",
    "phone": "+919895546090",
    "phoneUnformatted": "+919895546090",
    "location": {
      "lat": 8.4797794,
      "lng": 76.9615108
    },
    "totalScore": 5,
    "permanentlyClosed": false,
    "temporarilyClosed": false,
    "placeId": "ChIJUaSyBL-7BTsRr7FlHHEPzjA",
    "categories": [
      "Car rental agency",
      "Car leasing service",
      "Minibus taxi service",
      "Taxi service"
    ],
    "reviewsCount": 207,
    "imagesCount": 56,
    "openingHours": [
      {
        "day": "Monday",
        "hours": "Open 24 hours"
      },
      {
        "day": "Tuesday",
        "hours": "Open 24 hours"
      },
      {
        "day": "Wednesday",
        "hours": "Open 24 hours"
      },
      {
        "day": "Thursday",
        "hours": "Open 24 hours"
      },
      {
        "day": "Friday",
        "hours": "Open 24 hours"
      },
      {
        "day": "Saturday",
        "hours": "Open 24 hours"
      },
      {
        "day": "Sunday",
        "hours": "Open 24 hours"
      }
    ],
    "imageUrl": "https://lh3.googleusercontent.com/p/AF1QipPaHwWQQiOcMq-cyJ0Ejz6B8WQ-2U3bCoPgYj2F=w408-h306-k-no",
    "url": "https://www.google.com/maps/search/?api=1&query=Arrow%20Cabs%20%E2%80%93%20Self%20Drive%20Car%20Rentals%20Trivandrum%20%7C%20Airport%20Delivery%20Service&query_place_id=ChIJUaSyBL-7BTsRr7FlHHEPzjA"
  },
  {
    "title": "Arrow Cabs – Self Drive Rent a car Trivandrum",
    "categoryName": "Car rental agency",
    "address": "near, Kesavan Nair Rd, near Sabari Hotel, Shastri Nagar, Poojapura, Thiruvananthapuram, Kerala 695012, India",
    "neighborhood": "Shastri Nagar, Poojapura",
    "street": "near, Kesavan Nair Rd, near Sabari Hotel",
    "city": "Thiruvananthapuram",
    "postalCode": "695012",
    "state": "Kerala",
    "countryCode": "IN",
    "website": "https://arrow-cabs.com/",
    "phone": "+919895546090",
    "phoneUnformatted": "+919895546090",
    "location": {
      "lat": 8.4846912,
      "lng": 76.9780009
    },
    "totalScore": 5,
    "permanentlyClosed": false,
    "temporarilyClosed": false,
    "placeId": "ChIJ0931kaa7BTsR6OKe9ndbtHA",
    "categories": [
      "Car rental agency"
    ],
    "reviewsCount": 89,
    "imagesCount": 32,
    "openingHours": [
      {
        "day": "Monday",
        "hours": "Open 24 hours"
      },
      {
        "day": "Tuesday",
        "hours": "Open 24 hours"
      },
      {
        "day": "Wednesday",
        "hours": "Open 24 hours"
      },
      {
        "day": "Thursday",
        "hours": "Open 24 hours"
      },
      {
        "day": "Friday",
        "hours": "Open 24 hours"
      },
      {
        "day": "Saturday",
        "hours": "Open 24 hours"
      },
      {
        "day": "Sunday",
        "hours": "Open 24 hours"
      }
    ],
    "imageUrl": "https://lh3.googleusercontent.com/p/AF1QipMpyrhSAWj1MVMhtFFPbpfRQebQxBy8-dhzhVW3=w408-h408-k-no",
    "url": "https://www.google.com/maps/search/?api=1&query=Arrow%20Cabs%20%E2%80%93%20Self%20Drive%20Rent%20a%20car%20Trivandrum&query_place_id=ChIJ0931kaa7BTsR6OKe9ndbtHA"
  },
  {
    "title": "Car Link",
    "subTitle": "കാർ ലിങ്ക്‌ തിരുവനന്തപുരം",
    "categoryName": "Used car dealer",
    "address": "Kallummoodu, Chacka, Thiruvananthapuram, Kerala 695029, India",
    "neighborhood": "Kallummoodu, Chacka",
    "city": "Thiruvananthapuram",
    "postalCode": "695029",
    "state": "Kerala",
    "countryCode": "IN",
    "website": "http://www.carlinktvm.com/",
    "phone": "+919072525277",
    "phoneUnformatted": "+919072525277",
    "location": {
      "lat": 8.5012209,
      "lng": 76.9141449
    },
    "totalScore": 4.1,
    "permanentlyClosed": false,
    "temporarilyClosed": false,
    "placeId": "ChIJnbaE63S8BTsRCi35eyTmMuI",
    "categories": [
      "Used car dealer"
    ],
    "reviewsCount": 268,
    "imagesCount": 103,
    "openingHours": [
      {
        "day": "Monday",
        "hours": "9:30 AM to 7:30 PM"
      },
      {
        "day": "Tuesday",
        "hours": "9:30 AM to 7:30 PM"
      },
      {
        "day": "Wednesday",
        "hours": "9:30 AM to 7:30 PM"
      },
      {
        "day": "Thursday",
        "hours": "9:30 AM to 7:30 PM"
      },
      {
        "day": "Friday",
        "hours": "9:30 AM to 7:30 PM"
      },
      {
        "day": "Saturday",
        "hours": "9:30 AM to 7:30 PM"
      },
      {
        "day": "Sunday",
        "hours": "10 AM to 5 PM"
      }
    ],
    "imageUrl": "https://lh3.googleusercontent.com/gps-cs-s/AG0ilSxRhh2HjNuzrm40jlZ3PO_pX6xa6D77V7Jtig0k6YCVqiMDwnjAJMcEkPbwtfAaqVqnrXIaM8qB_qfsDefOI4InS9BmAY83j0E7UGkpvqNgk-Y2H5pJsCm5Dq_KbJxzdHFKz-I=w478-h240-k-no",
    "url": "https://www.google.com/maps/search/?api=1&query=Car%20Link&query_place_id=ChIJnbaE63S8BTsRCi35eyTmMuI"
  },
  {
    "title": "Car Palace",
    "subTitle": "കാർ പാലസ്",
    "categoryName": "Car accessories store",
    "address": "Kesavadasapuram Rd, Kailash Nagar, Vivekananda Nagar, Pattom, Thiruvananthapuram, Kerala 695004, India",
    "neighborhood": "Kailash Nagar, Vivekananda Nagar, Pattom",
    "street": "Kesavadasapuram Rd",
    "city": "Thiruvananthapuram",
    "postalCode": "695004",
    "state": "Kerala",
    "countryCode": "IN",
    "phone": "+919446211111",
    "phoneUnformatted": "+919446211111",
    "location": {
      "lat": 8.528066,
      "lng": 76.938831
    },
    "totalScore": 3.6,
    "permanentlyClosed": false,
    "temporarilyClosed": false,
    "placeId": "ChIJay9drl-5BTsRtXMJGHVzePE",
    "categories": [
      "Car accessories store",
      "Auto air conditioning service",
      "Auto electrical service",
      "Auto parts store"
    ],
    "reviewsCount": 545,
    "imagesCount": 201,
    "openingHours": [
      {
        "day": "Monday",
        "hours": "10 AM to 9:30 PM"
      },
      {
        "day": "Tuesday",
        "hours": "10 AM to 9:30 PM"
      },
      {
        "day": "Wednesday",
        "hours": "10 AM to 9:30 PM"
      },
      {
        "day": "Thursday",
        "hours": "10 AM to 9:30 PM"
      },
      {
        "day": "Friday",
        "hours": "10 AM to 9:30 PM"
      },
      {
        "day": "Saturday",
        "hours": "10 AM to 9:30 PM"
      },
      {
        "day": "Sunday",
        "hours": "Closed"
      }
    ],
    "imageUrl": "https://lh3.googleusercontent.com/gps-cs-s/AG0ilSykK2WqVACfkQ4hH-n_-YuIjQ0YcwnnxQUVg88xlrTJKHM724WC6rdvlKAjFS0m4mb-glt5f9mWsA63p2ukQ9lsrPoYujRMRD3XUOaYm6EmakUgtQ-vLj-dDJAKdgG06ZXmABxQiQ=w408-h306-k-no",
    "url": "https://www.google.com/maps/search/?api=1&query=Car%20Palace&query_place_id=ChIJay9drl-5BTsRtXMJGHVzePE"
  },
  {
    "title": "Car Park",
    "subTitle": "കാർ പാർക്ക്",
    "categoryName": "Car accessories store",
    "address": "Railway Station, Mathevan Medicals Building Near Tampanoor, Chenthitta, Thiruvananthapuram, Kerala 695036, India",
    "neighborhood": "Chenthitta, Chalai Bazaar, Chalai",
    "street": "Railway Station, Mathevan Medicals Building Near Tampanoor",
    "city": "Thiruvananthapuram",
    "postalCode": "695036",
    "state": "Kerala",
    "countryCode": "IN",
    "phone": "+919995322223",
    "phoneUnformatted": "+919995322223",
    "location": {
      "lat": 8.4854653,
      "lng": 76.9547755
    },
    "totalScore": 4.1,
    "permanentlyClosed": false,
    "temporarilyClosed": false,
    "placeId": "ChIJMZAcWKi7BTsRlKS4m3vMOb0",
    "categories": [
      "Car accessories store",
      "Car security system installer",
      "Car stereo store"
    ],
    "reviewsCount": 605,
    "imagesCount": 299,
    "openingHours": [
      {
        "day": "Monday",
        "hours": "9:30 AM to 8:30 PM"
      },
      {
        "day": "Tuesday",
        "hours": "9:30 AM to 8:30 PM"
      },
      {
        "day": "Wednesday",
        "hours": "9:30 AM to 8:30 PM"
      },
      {
        "day": "Thursday",
        "hours": "9:30 AM to 8:30 PM"
      },
      {
        "day": "Friday",
        "hours": "9:30 AM to 8:30 PM"
      },
      {
        "day": "Saturday",
        "hours": "9:30 AM to 8:30 PM"
      },
      {
        "day": "Sunday",
        "hours": "Closed"
      }
    ],
    "imageUrl": "https://lh3.googleusercontent.com/gps-cs-s/AG0ilSyPDCtaELcquHl2N8-mKWZTMvWLvkofcnKg-gAR8YOPJ0MSJAw_UKVPwAGiiYSEYXeGPaUww8xa68Ewq0reiModDgytONe3ttxusQI5_6b3smCLJdLx4WSTCpxdmO-zR-dDZxrs=w408-h306-k-no",
    "url": "https://www.google.com/maps/search/?api=1&query=Car%20Park&query_place_id=ChIJMZAcWKi7BTsRlKS4m3vMOb0"
  },
  {
    "title": "CarMax",
    "subTitle": "കാർമാക്സ്",
    "categoryName": "Used car dealer",
    "address": "NH Bypass Road,, Anayara PO, near Karikkakom Temple, Thiruvananthapuram, Kerala 695029, India",
    "neighborhood": "Karikkakam",
    "street": "NH Bypass Road,, Anayara PO, near Karikkakom Temple",
    "city": "Thiruvananthapuram",
    "postalCode": "695029",
    "state": "Kerala",
    "countryCode": "IN",
    "phone": "+919061505888",
    "phoneUnformatted": "+919061505888",
    "location": {
      "lat": 8.5067641,
      "lng": 76.9071946
    },
    "totalScore": 4.4,
    "permanentlyClosed": false,
    "temporarilyClosed": false,
    "placeId": "ChIJHYQ1lg28BTsRxj-iOEwOblA",
    "categories": [
      "Used car dealer"
    ],
    "reviewsCount": 24,
    "imagesCount": 6,
    "openingHours": [
      {
        "day": "Monday",
        "hours": "9:30 AM to 8:30 PM"
      },
      {
        "day": "Tuesday",
        "hours": "9:30 AM to 8:30 PM"
      },
      {
        "day": "Wednesday",
        "hours": "9:30 AM to 8:30 PM"
      },
      {
        "day": "Thursday",
        "hours": "9:30 AM to 8:30 PM"
      },
      {
        "day": "Friday",
        "hours": "9:30 AM to 8:30 PM"
      },
      {
        "day": "Saturday",
        "hours": "9:30 AM to 8:30 PM"
      },
      {
        "day": "Sunday",
        "hours": "9:30 AM to 8:30 PM"
      }
    ],
    "imageUrl": "https://lh3.googleusercontent.com/gps-cs-s/AG0ilSx7mUBTP9idEeSBJL6HkYEFA-CaLcO6fSGfOIkdHys4soBtBHDIQyWRSHt6legrFMyg4iwOIRQ161ar34tMcFmfQDwlpBzZHaMkGR6eQwX57kGRBCe-8r7908yOYs5g-hpUceSY6A=w408-h272-k-no",
    "url": "https://www.google.com/maps/search/?api=1&query=CarMax&query_place_id=ChIJHYQ1lg28BTsRxj-iOEwOblA"
  },
  {
    "title": "CARWALE",
    "subTitle": "കാർവാലേ",
    "categoryName": "Used car dealer",
    "address": "FW7R+39M, Aryankuzhi, Muttathara, Thiruvananthapuram, Kerala 695008, India",
    "neighborhood": "Aryankuzhi, Muttathara",
    "street": "FW7R+39M",
    "city": "Thiruvananthapuram",
    "postalCode": "695008",
    "state": "Kerala",
    "countryCode": "IN",
    "website": "http://www.carwale.com/",
    "location": {
      "lat": 8.4627138,
      "lng": 76.9409245
    },
    "totalScore": 3.7,
    "permanentlyClosed": false,
    "temporarilyClosed": false,
    "placeId": "ChIJo2iEO6-7BTsRu8e8alpdxRM",
    "categories": [
      "Used car dealer"
    ],
    "reviewsCount": 3,
    "imagesCount": 4,
    "openingHours": [
      {
        "day": "Monday",
        "hours": "9:30 AM to 6:30 PM"
      },
      {
        "day": "Tuesday",
        "hours": "9:30 AM to 6:30 PM"
      },
      {
        "day": "Wednesday",
        "hours": "9:30 AM to 6:30 PM"
      },
      {
        "day": "Thursday",
        "hours": "9:30 AM to 6:30 PM"
      },
      {
        "day": "Friday",
        "hours": "9:30 AM to 6:30 PM"
      },
      {
        "day": "Saturday",
        "hours": "9:30 AM to 6:30 PM"
      },
      {
        "day": "Sunday",
        "hours": "Closed"
      }
    ],
    "imageUrl": "https://lh3.googleusercontent.com/gps-cs-s/AG0ilSzNIEF87Ce-2cpjMTSx4x6yv76Q8E8oxtI1-B1nWsFfbNzoQMayttn5WprvTqG3Lnev9qRYrSWK82Oyh8C7rp4Qg0aCdON-IZknRPavTAi4x5HKqVz7uD3j65tNVY_jttoYNagr=w484-h240-k-no",
    "url": "https://www.google.com/maps/search/?api=1&query=CARWALE&query_place_id=ChIJo2iEO6-7BTsRu8e8alpdxRM"
  },
  {
    "title": "Elightcabs | Taxi Service | Self Drive Car | Luxury Car for Rent in Trivandrum",
    "subTitle": "എലൈറ്റ്കാർ",
    "categoryName": "Car rental agency",
    "address": "Flat Number 122 GroundFloor, Block, 6, Vanchiyoor Rd, E M S Nagar, P.O, Pattoor, Thiruvananthapuram, Kerala 695035, India",
    "neighborhood": "E M S Nagar, P.O, Pattoor",
    "street": "Flat Number 122 GroundFloor, Block, 6, Vanchiyoor Rd",
    "city": "Thiruvananthapuram",
    "postalCode": "695035",
    "state": "Kerala",
    "countryCode": "IN",
    "website": "https://www.elightcabs.com/",
    "phone": "+917736565333",
    "phoneUnformatted": "+917736565333",
    "location": {
      "lat": 8.5002564,
      "lng": 76.9377514
    },
    "totalScore": 4.5,
    "permanentlyClosed": false,
    "temporarilyClosed": false,
    "placeId": "ChIJGUGhu667BTsRcp8-DiE78GA",
    "categories": [
      "Car rental agency",
      "Car leasing service",
      "Minibus taxi service",
      "Taxi service"
    ],
    "reviewsCount": 651,
    "imagesCount": 14,
    "openingHours": [
      {
        "day": "Monday",
        "hours": "Open 24 hours"
      },
      {
        "day": "Tuesday",
        "hours": "Open 24 hours"
      },
      {
        "day": "Wednesday",
        "hours": "Open 24 hours"
      },
      {
        "day": "Thursday",
        "hours": "Open 24 hours"
      },
      {
        "day": "Friday",
        "hours": "Open 24 hours"
      },
      {
        "day": "Saturday",
        "hours": "Open 24 hours"
      },
      {
        "day": "Sunday",
        "hours": "Open 24 hours"
      }
    ],
    "imageUrl": "https://lh3.googleusercontent.com/gps-cs-s/AG0ilSwog4WxHFXLZFOVJF9vPzmZmjQTBf4ZwoHcSsFnEFhr734AkELka_Lgiw0ir6-UjAdYJyJFopi7MhUvt7PQtAuXQvF5OmJfR3yXXnh_LAv3WZkLvGFV0ALNvJWSbviTLpkp6m8=w426-h240-k-no",
    "url": "https://www.google.com/maps/search/?api=1&query=Elightcabs%20%7C%20Taxi%20Service%20%7C%20Self%20Drive%20Car%20%7C%20Luxury%20Car%20for%20Rent%20in%20Trivandrum&query_place_id=ChIJGUGhu667BTsRcp8-DiE78GA"
  },
  {
    "title": "Elite Car",
    "subTitle": "എലൈറ്റ് കാർ",
    "categoryName": "Car rental agency",
    "address": "TC 18, 1356, behind Metro Vision Opticals, near Hotel Chinnus, NSP Nagar, Kesavadasapuram, Thiruvananthapuram, Kerala 695004, India",
    "neighborhood": "NSP Nagar, Kesavadasapuram",
    "street": "TC 18, 1356, behind Metro Vision Opticals, near Hotel Chinnus",
    "city": "Thiruvananthapuram",
    "postalCode": "695004",
    "state": "Kerala",
    "countryCode": "IN",
    "website": "https://www.facebook.com/elite.car.rentals/",
    "phone": "+917561845867",
    "phoneUnformatted": "+917561845867",
    "location": {
      "lat": 8.5300978,
      "lng": 76.9393846
    },
    "totalScore": 4.7,
    "permanentlyClosed": false,
    "temporarilyClosed": false,
    "placeId": "ChIJAySFg0a5BTsR2QDFXpQRtLQ",
    "categories": [
      "Car rental agency",
      "Car wash",
      "Taxi service",
      "Tour operator",
      "Travel agency"
    ],
    "reviewsCount": 72,
    "imagesCount": 150,
    "openingHours": [
      {
        "day": "Monday",
        "hours": "10 AM to 5 PM"
      },
      {
        "day": "Tuesday",
        "hours": "10 AM to 5 PM"
      },
      {
        "day": "Wednesday",
        "hours": "10 AM to 5 PM"
      },
      {
        "day": "Thursday",
        "hours": "10 AM to 5 PM"
      },
      {
        "day": "Friday",
        "hours": "10 AM to 12 PM"
      },
      {
        "day": "Saturday",
        "hours": "10 AM to 12 PM"
      },
      {
        "day": "Sunday",
        "hours": "10 AM to 5 PM"
      }
    ],
    "imageUrl": "https://lh3.googleusercontent.com/p/AF1QipMp5ACLUS1Izr5mUJgThnPBn6lUT-J9i2yo9OR2=w424-h240-k-no",
    "url": "https://www.google.com/maps/search/?api=1&query=Elite%20Car&query_place_id=ChIJAySFg0a5BTsR2QDFXpQRtLQ"
  },
  {
    "title": "EVM AUTOKRAFT INDIA EVM TRIVANDRUM SHOWROOM BMW",
    "subTitle": "ഈ വി എം ഔട്ടോക്രാഫ്റ്റ് ഇന്ത്യ തിരുവനന്തപുരം ബി എം ഡബ്ല്യൂ ഷോറൂം",
    "categoryName": "BMW dealer",
    "address": "Survey No. 947, Kadakampally V, Thiruvananthapuram Byp, Thiruvananthapuram, Kerala 695029, India",
    "neighborhood": "Karikkakam",
    "street": "Survey No. 947, Kadakampally V, Thiruvananthapuram Byp",
    "city": "Thiruvananthapuram",
    "postalCode": "695029",
    "state": "Kerala",
    "countryCode": "IN",
    "website": "https://www.bmw-evmautokraft.in/",
    "phone": "+919778411065",
    "phoneUnformatted": "+919778411065",
    "location": {
      "lat": 8.5011445,
      "lng": 76.9134025
    },
    "totalScore": 4.5,
    "permanentlyClosed": false,
    "temporarilyClosed": false,
    "placeId": "ChIJVdQykXS8BTsRu7OWD-PxFmY",
    "categories": [
      "BMW dealer",
      "Car dealer"
    ],
    "reviewsCount": 213,
    "imagesCount": 399,
    "openingHours": [],
    "imageUrl": "https://lh3.googleusercontent.com/gps-cs-s/AG0ilSy1_d-cFDZakivuSX2MmvvINfDF3NgyqmR8okHHxxLQeDiIRMDP2QW-p7ZnMc8TdIhD3Yp5a2ak_7Zfq5lDEZEuTHuA_bIieiIkljpMVSmyZBpyPYgmpak36Hb8ZvpWDW1A76Ucig=w408-h306-k-no",
    "url": "https://www.google.com/maps/search/?api=1&query=EVM%20AUTOKRAFT%20INDIA%20EVM%20TRIVANDRUM%20SHOWROOM%20BMW&query_place_id=ChIJVdQykXS8BTsRu7OWD-PxFmY"
  },
  {
    "title": "EVM WHEELS, Self Drive Rent A Car Company in Thiruvananthapuram/Trivandrum",
    "categoryName": "Car rental agency",
    "address": "91/1042(2):GF: Tritvam Building, NH Byepass, 1, Anayara Rd, near Karikkakom Temple, Thiruvananthapuram, 695029, India",
    "neighborhood": "Karikkakam",
    "street": "91/1042(2):GF: Tritvam Building, NH Byepass, 1, Anayara Rd, near Karikkakom Temple",
    "city": "Thiruvananthapuram",
    "postalCode": "695029",
    "state": "Kerala",
    "countryCode": "IN",
    "website": "https://www.evmwheels.com/",
    "phone": "+917902810000",
    "phoneUnformatted": "+917902810000",
    "location": {
      "lat": 8.5067689,
      "lng": 76.9072432
    },
    "totalScore": 4.7,
    "permanentlyClosed": false,
    "temporarilyClosed": false,
    "placeId": "ChIJFU3cwH-9BTsRK6_eGznqW9s",
    "categories": [
      "Car rental agency",
      "Car leasing service"
    ],
    "reviewsCount": 1067,
    "imagesCount": 242,
    "openingHours": [
      {
        "day": "Monday",
        "hours": "Open 24 hours"
      },
      {
        "day": "Tuesday",
        "hours": "Open 24 hours"
      },
      {
        "day": "Wednesday",
        "hours": "Open 24 hours"
      },
      {
        "day": "Thursday",
        "hours": "Open 24 hours"
      },
      {
        "day": "Friday",
        "hours": "Open 24 hours"
      },
      {
        "day": "Saturday",
        "hours": "Open 24 hours"
      },
      {
        "day": "Sunday",
        "hours": "Open 24 hours"
      }
    ],
    "imageUrl": "https://lh3.googleusercontent.com/p/AF1QipOud0WiplaxLe_nQYC_EJ013qIBwWn99gtbtSrF=w408-h273-k-no",
    "url": "https://www.google.com/maps/search/?api=1&query=EVM%20WHEELS%2C%20Self%20Drive%20Rent%20A%20Car%20Company%20in%20Thiruvananthapuram%2FTrivandrum&query_place_id=ChIJFU3cwH-9BTsRK6_eGznqW9s"
  },
  {
    "title": "Florence Car Care Sasthamangalam",
    "subTitle": "ഫ്ലോറൻസ് കാർ കെയർ",
    "categoryName": "Car wash",
    "address": "Sankar Rd, Althara Nagar, Sasthamangalam, Thiruvananthapuram, Kerala 695010, India",
    "neighborhood": "Althara Nagar, Sasthamangalam",
    "street": "Sankar Rd",
    "city": "Thiruvananthapuram",
    "postalCode": "695010",
    "state": "Kerala",
    "countryCode": "IN",
    "website": "https://facebook.com/FlorenceCarCare/",
    "phone": "+918593027788",
    "phoneUnformatted": "+918593027788",
    "location": {
      "lat": 8.5089103,
      "lng": 76.9709888
    },
    "totalScore": 4.1,
    "permanentlyClosed": false,
    "temporarilyClosed": false,
    "placeId": "ChIJbeDbvTa6BTsRot_7La7QHbk",
    "categories": [
      "Car wash",
      "Auto restoration service"
    ],
    "reviewsCount": 411,
    "imagesCount": 128,
    "openingHours": [
      {
        "day": "Monday",
        "hours": "8 AM to 8 PM"
      },
      {
        "day": "Tuesday",
        "hours": "8 AM to 8 PM"
      },
      {
        "day": "Wednesday",
        "hours": "8 AM to 8 PM"
      },
      {
        "day": "Thursday",
        "hours": "8 AM to 8 PM"
      },
      {
        "day": "Friday",
        "hours": "8 AM to 8 PM"
      },
      {
        "day": "Saturday",
        "hours": "8 AM to 8 PM"
      },
      {
        "day": "Sunday",
        "hours": "8 AM to 8 PM"
      }
    ],
    "imageUrl": "https://lh3.googleusercontent.com/gps-cs-s/AG0ilSwriUD6Q_sswRss-vyua7s4QaXSfV6S5e0j5VV7m0-ESqk0FchQHOrddpcrxEtj79iL0K2Kh_wgo28QL6AWYls7HPj2QXNPU7lG2Yfa8X7pDeBNTIS2GBk52YSEVP9nY4XM7H5Fcg=w421-h240-k-no",
    "url": "https://www.google.com/maps/search/?api=1&query=Florence%20Car%20Care%20Sasthamangalam&query_place_id=ChIJbeDbvTa6BTsRot_7La7QHbk"
  },
  {
    "title": "Fresh Go Self Drive Car Rentals",
    "categoryName": "Car rental agency",
    "address": "Shankar Nagar, Akshaya Nagar, Neeramankara, Pappanamcode, Thiruvananthapuram, Kerala 695040, India",
    "neighborhood": "Akshaya Nagar, Neeramankara, Pappanamcode",
    "street": "Shankar Nagar",
    "city": "Thiruvananthapuram",
    "postalCode": "695040",
    "state": "Kerala",
    "countryCode": "IN",
    "website": "https://freshgotvm.com/",
    "phone": "+919946008077",
    "phoneUnformatted": "+919946008077",
    "location": {
      "lat": 8.4739687,
      "lng": 76.9711305
    },
    "totalScore": 4.4,
    "permanentlyClosed": false,
    "temporarilyClosed": false,
    "placeId": "ChIJhZ2dx2C7BTsRPAThlVn-jmM",
    "categories": [
      "Car rental agency"
    ],
    "reviewsCount": 14,
    "imagesCount": 6,
    "openingHours": [
      {
        "day": "Monday",
        "hours": "Open 24 hours"
      },
      {
        "day": "Tuesday",
        "hours": "Open 24 hours"
      },
      {
        "day": "Wednesday",
        "hours": "Open 24 hours"
      },
      {
        "day": "Thursday",
        "hours": "Open 24 hours"
      },
      {
        "day": "Friday",
        "hours": "Open 24 hours"
      },
      {
        "day": "Saturday",
        "hours": "Open 24 hours"
      },
      {
        "day": "Sunday",
        "hours": "Open 24 hours"
      }
    ],
    "imageUrl": "https://lh3.googleusercontent.com/p/AF1QipM_qg5Dl_YU81Ki-GhnlCL0WEbLShV8W80NU3ii=w408-h315-k-no",
    "url": "https://www.google.com/maps/search/?api=1&query=Fresh%20Go%20Self%20Drive%20Car%20Rentals&query_place_id=ChIJhZ2dx2C7BTsRPAThlVn-jmM"
  },
  {
    "title": "Genuine Cars",
    "subTitle": "ജനുവിൻ കാർസ്",
    "categoryName": "Used car dealer",
    "address": "Ulloor Brg, near FCI, Aiswarya Nagar, Kesavadasapuram, Thiruvananthapuram, Kerala 695004, India",
    "neighborhood": "Aiswarya Nagar, Kesavadasapuram",
    "street": "Ulloor Brg, near FCI",
    "city": "Thiruvananthapuram",
    "postalCode": "695004",
    "state": "Kerala",
    "countryCode": "IN",
    "website": "http://www.genuinecars.in/",
    "phone": "+919447055822",
    "phoneUnformatted": "+919447055822",
    "location": {
      "lat": 8.5287682,
      "lng": 76.9347408
    },
    "totalScore": 4.7,
    "permanentlyClosed": false,
    "temporarilyClosed": false,
    "placeId": "ChIJ6z3uOVm5BTsRbi23w_hxWQc",
    "categories": [
      "Used car dealer"
    ],
    "reviewsCount": 1077,
    "imagesCount": 264,
    "openingHours": [
      {
        "day": "Monday",
        "hours": "9 AM to 7 PM"
      },
      {
        "day": "Tuesday",
        "hours": "9 AM to 7 PM"
      },
      {
        "day": "Wednesday",
        "hours": "9 AM to 7 PM"
      },
      {
        "day": "Thursday",
        "hours": "9 AM to 7 PM"
      },
      {
        "day": "Friday",
        "hours": "9 AM to 7 PM"
      },
      {
        "day": "Saturday",
        "hours": "9 AM to 7 PM"
      },
      {
        "day": "Sunday",
        "hours": "10:30 AM to 2 PM"
      }
    ],
    "imageUrl": "https://lh3.googleusercontent.com/gps-cs-s/AG0ilSxZvAMF9xus__MPHy9k4-bP4iaHiqypQJHZQ7639bsIY-hmM2m-cogWi2qrjyksr7EDQXnu-YHDMjSGaXa0H1U9KcBWkR8GcugVY_dkDX2QpTAXFCavyOodhyxvnDeP6vFQ0b-M8w=w408-h544-k-no",
    "url": "https://www.google.com/maps/search/?api=1&query=Genuine%20Cars&query_place_id=ChIJ6z3uOVm5BTsRbi23w_hxWQc"
  },
  {
    "title": "Hercules Premium Pre-Owned Cars",
    "subTitle": "ഹെർക്കുലീസ് പ്രീ-ഓണേഡ് കാർസ്",
    "categoryName": "Used car dealer",
    "address": "Vazhuthacaud - Poojappura Rd, Jagathy, Thiruvananthapuram, Kerala 695014, India",
    "neighborhood": "Jagathy",
    "street": "Vazhuthacaud - Poojappura Rd",
    "city": "Thiruvananthapuram",
    "postalCode": "695014",
    "state": "Kerala",
    "countryCode": "IN",
    "location": {
      "lat": 8.4948403,
      "lng": 76.9637209
    },
    "totalScore": 3.8,
    "permanentlyClosed": false,
    "temporarilyClosed": false,
    "placeId": "ChIJx766sLK7BTsRSsfP_Qrg7eE",
    "categories": [
      "Used car dealer"
    ],
    "reviewsCount": 25,
    "imagesCount": 23,
    "openingHours": [
      {
        "day": "Monday",
        "hours": "9 AM to 7 PM"
      },
      {
        "day": "Tuesday",
        "hours": "9 AM to 7 PM"
      },
      {
        "day": "Wednesday",
        "hours": "9 AM to 7 PM"
      },
      {
        "day": "Thursday",
        "hours": "9 AM to 7 PM"
      },
      {
        "day": "Friday",
        "hours": "9 AM to 7 PM"
      },
      {
        "day": "Saturday",
        "hours": "9 AM to 7 PM"
      },
      {
        "day": "Sunday",
        "hours": "Closed"
      }
    ],
    "imageUrl": "https://lh3.googleusercontent.com/p/AF1QipNuchaephdq47lxTtvAHFGq82NwzLZ3AW-14DBn=w408-h306-k-no",
    "url": "https://www.google.com/maps/search/?api=1&query=Hercules%20Premium%20Pre-Owned%20Cars&query_place_id=ChIJx766sLK7BTsRSsfP_Qrg7eE"
  },
  {
    "title": "Hindustan Cabs",
    "subTitle": "ഹിന്ദുസ്ഥാൻ ക്യാബ്സ്",
    "categoryName": "Car rental agency",
    "address": "Kadiapattanam Lane, Puthenkotta, Manacaud, Thiruvananthapuram, Kerala 695009, India",
    "neighborhood": "Puthenkotta, Manacaud",
    "street": "Kadiapattanam Lane",
    "city": "Thiruvananthapuram",
    "postalCode": "695009",
    "state": "Kerala",
    "countryCode": "IN",
    "website": "http://hindustancabs.com/",
    "phone": "+918590066999",
    "phoneUnformatted": "+918590066999",
    "location": {
      "lat": 8.477168,
      "lng": 76.957769
    },
    "totalScore": 4.6,
    "permanentlyClosed": false,
    "temporarilyClosed": false,
    "placeId": "ChIJW2KmHAS7BTsRMb_ywNFW5vE",
    "categories": [
      "Car rental agency",
      "Car leasing service",
      "Taxi service",
      "Houseboat rental service",
      "Tour agency"
    ],
    "reviewsCount": 84,
    "imagesCount": 13,
    "openingHours": [],
    "imageUrl": "https://lh3.googleusercontent.com/p/AF1QipMaAZ3hWuR4SMeu3Gct7BNAAKxG9D8yfQlbDOIs=w408-h268-k-no",
    "url": "https://www.google.com/maps/search/?api=1&query=Hindustan%20Cabs&query_place_id=ChIJW2KmHAS7BTsRMb_ywNFW5vE"
  },
  {
    "title": "I Grape luxury car rental",
    "categoryName": "Car rental agency",
    "address": "MRA Rd, Mithilapuri, Perunthanni, Palkulangara, Thiruvananthapuram, Kerala 695008, India",
    "neighborhood": "Perunthanni, Palkulangara",
    "street": "MRA Rd, Mithilapuri",
    "city": "Thiruvananthapuram",
    "postalCode": "695008",
    "state": "Kerala",
    "countryCode": "IN",
    "location": {
      "lat": 8.4847285,
      "lng": 76.9345062
    },
    "totalScore": 5,
    "permanentlyClosed": false,
    "temporarilyClosed": false,
    "placeId": "ChIJR4Q2uYK7BTsRbAROGg4hPWU",
    "categories": [
      "Car rental agency"
    ],
    "reviewsCount": 5,
    "imagesCount": 35,
    "openingHours": [
      {
        "day": "Monday",
        "hours": "Open 24 hours"
      },
      {
        "day": "Tuesday",
        "hours": "Open 24 hours"
      },
      {
        "day": "Wednesday",
        "hours": "Open 24 hours"
      },
      {
        "day": "Thursday",
        "hours": "Open 24 hours"
      },
      {
        "day": "Friday",
        "hours": "Open 24 hours"
      },
      {
        "day": "Saturday",
        "hours": "Open 24 hours"
      },
      {
        "day": "Sunday",
        "hours": "Open 24 hours"
      }
    ],
    "imageUrl": "https://lh3.googleusercontent.com/p/AF1QipNo1agN6Hh_ry-Ih3aKjv1EpChZPMeHQRymZo87=w408-h544-k-no",
    "url": "https://www.google.com/maps/search/?api=1&query=I%20Grape%20luxury%20car%20rental&query_place_id=ChIJR4Q2uYK7BTsRbAROGg4hPWU"
  },
  {
    "title": "infinity wedding cars Rentals",
    "categoryName": "Car leasing service",
    "address": "Hari Sree Sasthri Nagar South S43, Karamana, Thiruvananthapuram, Kerala 695002, India",
    "neighborhood": "Karamana",
    "street": "Hari Sree Sasthri Nagar South S43",
    "city": "Thiruvananthapuram",
    "postalCode": "695002",
    "state": "Kerala",
    "countryCode": "IN",
    "website": "https://www.infinityweddingcars.com/",
    "phone": "+918606227856",
    "phoneUnformatted": "+918606227856",
    "location": {
      "lat": 8.4811446,
      "lng": 76.9713809
    },
    "totalScore": 5,
    "permanentlyClosed": false,
    "temporarilyClosed": false,
    "placeId": "ChIJO67djqq7BTsRU5kQ6xjJcA4",
    "categories": [
      "Car leasing service"
    ],
    "reviewsCount": 64,
    "imagesCount": 40,
    "openingHours": [
      {
        "day": "Monday",
        "hours": "Open 24 hours"
      },
      {
        "day": "Tuesday",
        "hours": "Open 24 hours"
      },
      {
        "day": "Wednesday",
        "hours": "Open 24 hours"
      },
      {
        "day": "Thursday",
        "hours": "Open 24 hours"
      },
      {
        "day": "Friday",
        "hours": "Open 24 hours"
      },
      {
        "day": "Saturday",
        "hours": "Open 24 hours"
      },
      {
        "day": "Sunday",
        "hours": "Open 24 hours"
      }
    ],
    "imageUrl": "https://lh3.googleusercontent.com/p/AF1QipO4A2Dk4lOMYolAu2GAf8CIez5efEXlcTYvOFaN=w408-h544-k-no",
    "url": "https://www.google.com/maps/search/?api=1&query=infinity%20wedding%20cars%20Rentals&query_place_id=ChIJO67djqq7BTsRU5kQ6xjJcA4"
  },
  {
    "title": "Jazz Travels",
    "subTitle": "ജാസ് ട്രാവൽസ്",
    "categoryName": "Car rental agency",
    "address": "kallattumuk, Manacaud, Thiruvananthapuram, Kerala 695009, India",
    "neighborhood": "Manacaud",
    "street": "kallattumuk",
    "city": "Thiruvananthapuram",
    "postalCode": "695009",
    "state": "Kerala",
    "countryCode": "IN",
    "phone": "+916235655559",
    "phoneUnformatted": "+916235655559",
    "location": {
      "lat": 8.4599089,
      "lng": 76.9505874
    },
    "totalScore": 5,
    "permanentlyClosed": false,
    "temporarilyClosed": false,
    "placeId": "ChIJi2lX0TO7BTsRMgnVzh8ws9Y",
    "categories": [
      "Car rental agency"
    ],
    "reviewsCount": 14,
    "imagesCount": 27,
    "openingHours": [
      {
        "day": "Monday",
        "hours": "Open 24 hours"
      },
      {
        "day": "Tuesday",
        "hours": "Open 24 hours"
      },
      {
        "day": "Wednesday",
        "hours": "Open 24 hours"
      },
      {
        "day": "Thursday",
        "hours": "Open 24 hours"
      },
      {
        "day": "Friday",
        "hours": "Open 24 hours"
      },
      {
        "day": "Saturday",
        "hours": "Open 24 hours"
      },
      {
        "day": "Sunday",
        "hours": "Open 24 hours"
      }
    ],
    "imageUrl": "https://lh3.googleusercontent.com/p/AF1QipOkCNeQB1hQlFFYbfWxXmPUqq17ind09qbDGm8E=w520-h240-k-no",
    "url": "https://www.google.com/maps/search/?api=1&query=Jazz%20Travels&query_place_id=ChIJi2lX0TO7BTsRMgnVzh8ws9Y"
  },
  {
    "title": "Kerala Cars",
    "subTitle": "കേരള കാർസ്",
    "categoryName": "Car rental agency",
    "address": "Akshara Veedi, Eanchakkal, Thiruvananthapuram, Kerala 695008, India",
    "neighborhood": "Eanchakkal",
    "street": "Akshara Veedi",
    "city": "Thiruvananthapuram",
    "postalCode": "695008",
    "state": "Kerala",
    "countryCode": "IN",
    "website": "https://keralacars.in/",
    "phone": "+919400021234",
    "phoneUnformatted": "+919400021234",
    "location": {
      "lat": 8.4825214,
      "lng": 76.9332271
    },
    "totalScore": 4.8,
    "permanentlyClosed": false,
    "temporarilyClosed": false,
    "placeId": "ChIJaY2xiJ27BTsRfhkxE1d7jcg",
    "categories": [
      "Car rental agency",
      "Bus company",
      "Bus tour agency",
      "Car leasing service",
      "Minibus taxi service",
      "Taxi service"
    ],
    "reviewsCount": 163,
    "imagesCount": 16,
    "openingHours": [
      {
        "day": "Monday",
        "hours": "8 AM to 8 PM"
      },
      {
        "day": "Tuesday",
        "hours": "8 AM to 8 PM"
      },
      {
        "day": "Wednesday",
        "hours": "8 AM to 8 PM"
      },
      {
        "day": "Thursday",
        "hours": "8 AM to 8 PM"
      },
      {
        "day": "Friday",
        "hours": "8 AM to 8 PM"
      },
      {
        "day": "Saturday",
        "hours": "8 AM to 8 PM"
      },
      {
        "day": "Sunday",
        "hours": "8 AM to 8 PM"
      }
    ],
    "imageUrl": "https://lh3.googleusercontent.com/p/AF1QipN3V6BNY7G-ATeZwiU_uYx1wBVp8FBY3UdAhsPL=w408-h242-k-no",
    "url": "https://www.google.com/maps/search/?api=1&query=Kerala%20Cars&query_place_id=ChIJaY2xiJ27BTsRfhkxE1d7jcg"
  },
  {
    "title": "KL 01 PREMIUM WEDDING & RENTAL CARS",
    "subTitle": "കെ എൽ ഒൻ പ്രീമിയം വെഡ്ഡിംഗ് കർസ് രെൻ്റൽ കാർസ്",
    "categoryName": "Car rental agency",
    "address": "Manacuad, Ambalathara, Thiruvananthapuram, Kerala 695026, India",
    "neighborhood": "Ambalathara",
    "street": "Manacuad",
    "city": "Thiruvananthapuram",
    "postalCode": "695026",
    "state": "Kerala",
    "countryCode": "IN",
    "phone": "+917907187780",
    "phoneUnformatted": "+917907187780",
    "location": {
      "lat": 8.4468731,
      "lng": 76.9516186
    },
    "totalScore": 3.9,
    "permanentlyClosed": false,
    "temporarilyClosed": false,
    "placeId": "ChIJDWUeiKW7BTsRxhn5N_5jsRc",
    "categories": [
      "Car rental agency"
    ],
    "reviewsCount": 10,
    "imagesCount": 32,
    "openingHours": [
      {
        "day": "Monday",
        "hours": "Open 24 hours"
      },
      {
        "day": "Tuesday",
        "hours": "Open 24 hours"
      },
      {
        "day": "Wednesday",
        "hours": "Open 24 hours"
      },
      {
        "day": "Thursday",
        "hours": "Open 24 hours"
      },
      {
        "day": "Friday",
        "hours": "Open 24 hours"
      },
      {
        "day": "Saturday",
        "hours": "Open 24 hours"
      },
      {
        "day": "Sunday",
        "hours": "Open 24 hours"
      }
    ],
    "imageUrl": "https://lh3.googleusercontent.com/p/AF1QipOAKkC6rdLPWS7VHIYQ_lJGGvlAw6VGAxI3qymX=w458-h240-k-no",
    "url": "https://www.google.com/maps/search/?api=1&query=KL%2001%20PREMIUM%20WEDDING%20%26%20RENTAL%20CARS&query_place_id=ChIJDWUeiKW7BTsRxhn5N_5jsRc"
  },
  {
    "title": "LuxeDrive-Wedding Car Rentals",
    "categoryName": "Car rental agency",
    "address": "Ambalathara, Karimbuvila, Thiruvallam, Thiruvananthapuram, Kerala 695026, India",
    "neighborhood": "Karimbuvila, Thiruvallam",
    "street": "Ambalathara",
    "city": "Thiruvananthapuram",
    "postalCode": "695026",
    "state": "Kerala",
    "countryCode": "IN",
    "website": "https://sites.google.com/view/luxe-drivecars",
    "phone": "+919074227996",
    "phoneUnformatted": "+919074227996",
    "location": {
      "lat": 8.4494772,
      "lng": 76.9518724
    },
    "totalScore": 5,
    "permanentlyClosed": false,
    "temporarilyClosed": false,
    "placeId": "ChIJW5S0GwC9BTsRyVUKMZtG0jw",
    "categories": [
      "Car rental agency",
      "Car leasing service"
    ],
    "reviewsCount": 7,
    "imagesCount": 6,
    "openingHours": [
      {
        "day": "Monday",
        "hours": "Open 24 hours"
      },
      {
        "day": "Tuesday",
        "hours": "Open 24 hours"
      },
      {
        "day": "Wednesday",
        "hours": "Open 24 hours"
      },
      {
        "day": "Thursday",
        "hours": "Open 24 hours"
      },
      {
        "day": "Friday",
        "hours": "Open 24 hours"
      },
      {
        "day": "Saturday",
        "hours": "Open 24 hours"
      },
      {
        "day": "Sunday",
        "hours": "Open 24 hours"
      }
    ],
    "imageUrl": "https://lh3.googleusercontent.com/p/AF1QipO9SOhrUU5ziPJ1GKc1HUw5D7wd5s5K9A6VgQ7Q=w408-h347-k-no",
    "url": "https://www.google.com/maps/search/?api=1&query=LuxeDrive-Wedding%20Car%20Rentals&query_place_id=ChIJW5S0GwC9BTsRyVUKMZtG0jw"
  },
  {
    "title": "Luxury Wedding Cars Tvm",
    "categoryName": "Car leasing service",
    "address": "Aristo, Thampanoor, Thiruvananthapuram, Kerala 695001, India",
    "neighborhood": "Aristo, Thampanoor",
    "city": "Thiruvananthapuram",
    "postalCode": "695001",
    "state": "Kerala",
    "countryCode": "IN",
    "phone": "+917907187780",
    "phoneUnformatted": "+917907187780",
    "location": {
      "lat": 8.490873,
      "lng": 76.9527483
    },
    "totalScore": 5,
    "permanentlyClosed": false,
    "temporarilyClosed": false,
    "placeId": "ChIJqzAggSG7BTsRiEqph8_1Y-8",
    "categories": [
      "Car leasing service"
    ],
    "reviewsCount": 9,
    "imagesCount": 44,
    "openingHours": [
      {
        "day": "Monday",
        "hours": "Open 24 hours"
      },
      {
        "day": "Tuesday",
        "hours": "Open 24 hours"
      },
      {
        "day": "Wednesday",
        "hours": "Open 24 hours"
      },
      {
        "day": "Thursday",
        "hours": "Open 24 hours"
      },
      {
        "day": "Friday",
        "hours": "Open 24 hours"
      },
      {
        "day": "Saturday",
        "hours": "Open 24 hours"
      },
      {
        "day": "Sunday",
        "hours": "Open 24 hours"
      }
    ],
    "imageUrl": "https://lh3.googleusercontent.com/p/AF1QipMfiyh7jCLsaC1kFWFo4vbJZACeHZoSIQEzGAWj=w408-h271-k-no",
    "url": "https://www.google.com/maps/search/?api=1&query=Luxury%20Wedding%20Cars%20Tvm&query_place_id=ChIJqzAggSG7BTsRiEqph8_1Y-8"
  },
  {
    "title": "M Wheels-Wedding Car Marriage Car Luxury Car for rent Trivandrum/Thiruvananthapuram",
    "categoryName": "Car rental agency",
    "address": "Milma Road, Karimbuvila, Ambalathara, Thiruvananthapuram, Kerala 695026, India",
    "neighborhood": "Karimbuvila, Ambalathara",
    "street": "Milma Road",
    "city": "Thiruvananthapuram",
    "postalCode": "695026",
    "state": "Kerala",
    "countryCode": "IN",
    "website": "https://sites.google.com/view/m-wheels",
    "location": {
      "lat": 8.4441982,
      "lng": 76.9518545
    },
    "totalScore": 5,
    "permanentlyClosed": false,
    "temporarilyClosed": false,
    "placeId": "ChIJTTaM_TO7BTsR9vI4DJe8X6s",
    "categories": [
      "Car rental agency"
    ],
    "reviewsCount": 5,
    "imagesCount": 3,
    "openingHours": [
      {
        "day": "Monday",
        "hours": "Open 24 hours"
      },
      {
        "day": "Tuesday",
        "hours": "Open 24 hours"
      },
      {
        "day": "Wednesday",
        "hours": "Open 24 hours"
      },
      {
        "day": "Thursday",
        "hours": "Open 24 hours"
      },
      {
        "day": "Friday",
        "hours": "Open 24 hours"
      },
      {
        "day": "Saturday",
        "hours": "Open 24 hours"
      },
      {
        "day": "Sunday",
        "hours": "Open 24 hours"
      }
    ],
    "imageUrl": "https://lh3.googleusercontent.com/p/AF1QipNx4CeL0a2F1MEw8wLXdB8-uv92BrpohskMGdPu=w408-h415-k-no",
    "url": "https://www.google.com/maps/search/?api=1&query=M%20Wheels-Wedding%20Car%20Marriage%20Car%20Luxury%20Car%20for%20rent%20Trivandrum%2FThiruvananthapuram&query_place_id=ChIJTTaM_TO7BTsR9vI4DJe8X6s"
  },
  {
    "title": "Mango Cabs",
    "subTitle": "മാംഗോ ക്യാബ്സ്",
    "categoryName": "Car rental agency",
    "address": "Bodheswaran Rd, Nandavanam, Palayam, Thiruvananthapuram, Kerala 695033, India",
    "neighborhood": "Nandavanam, Palayam",
    "street": "Bodheswaran Rd",
    "city": "Thiruvananthapuram",
    "postalCode": "695033",
    "state": "Kerala",
    "countryCode": "IN",
    "website": "http://www.mangocabs.in/",
    "phone": "+919995466066",
    "phoneUnformatted": "+919995466066",
    "location": {
      "lat": 8.5062007,
      "lng": 76.9552788
    },
    "totalScore": 4.7,
    "permanentlyClosed": false,
    "temporarilyClosed": false,
    "placeId": "ChIJH8G6Gx-7BTsR66C03d-2Lxw",
    "categories": [
      "Car rental agency",
      "Car leasing service",
      "Taxi service"
    ],
    "reviewsCount": 85,
    "imagesCount": 14,
    "openingHours": [
      {
        "day": "Monday",
        "hours": "Open 24 hours"
      },
      {
        "day": "Tuesday",
        "hours": "Open 24 hours"
      },
      {
        "day": "Wednesday",
        "hours": "Open 24 hours"
      },
      {
        "day": "Thursday",
        "hours": "Open 24 hours"
      },
      {
        "day": "Friday",
        "hours": "Open 24 hours"
      },
      {
        "day": "Saturday",
        "hours": "Open 24 hours"
      },
      {
        "day": "Sunday",
        "hours": "Open 24 hours"
      }
    ],
    "imageUrl": "https://lh3.googleusercontent.com/p/AF1QipMmtC3mRJZ49n3mLahy03YC4HhvT0LIwpJ0exSB=w556-h240-k-no",
    "url": "https://www.google.com/maps/search/?api=1&query=Mango%20Cabs&query_place_id=ChIJH8G6Gx-7BTsR66C03d-2Lxw"
  },
  {
    "title": "Mango Cabs",
    "subTitle": "മാംഗോ ക്യാബ്സ്",
    "categoryName": "Car leasing service",
    "address": "Flat No. F1, TC 9, Future Point, 2038-12, Kochar Rd, near RR Associates, Althara Nagar, Edapazhanji, Thiruvananthapuram, Kerala 695010, India",
    "neighborhood": "Althara Nagar, Edapazhanji",
    "street": "Flat No. F1, TC 9, Future Point, 2038-12, Kochar Rd, near RR Associates",
    "city": "Thiruvananthapuram",
    "postalCode": "695010",
    "state": "Kerala",
    "countryCode": "IN",
    "website": "http://www.mangocabs.in/",
    "phone": "+919995466066",
    "phoneUnformatted": "+919995466066",
    "location": {
      "lat": 8.5055667,
      "lng": 76.9693531
    },
    "totalScore": 4.8,
    "permanentlyClosed": false,
    "temporarilyClosed": false,
    "placeId": "ChIJVaP5ni26BTsRORd_dCXeI0Y",
    "categories": [
      "Car leasing service",
      "Taxi service",
      "Tour operator"
    ],
    "reviewsCount": 4264,
    "imagesCount": 154,
    "openingHours": [],
    "imageUrl": "https://lh3.googleusercontent.com/gps-cs-s/AG0ilSxBC5jsXbl79uTIZR6U8QJ1kr0EFsZbXnkXZymYbTvEpiB2rVjHizBOJJ0lcJFiFD-Iy-vkKnYPrr1rYrsxKsRwkDxYZHs80jE6Ug-5NSj_ckUa70VisWCv6-stV_-fFA7WSsk6=w460-h240-k-no",
    "url": "https://www.google.com/maps/search/?api=1&query=Mango%20Cabs&query_place_id=ChIJVaP5ni26BTsRORd_dCXeI0Y"
  },
  {
    "title": "Maruti Suzuki ARENA (Popular Vehicles, Trivandrum, Killipalam)",
    "subTitle": "മാരുതി സുസുക്കി അരീന (പോപ്പുലർ വെഹിക്കിൾസ്, ട്രിവാൻഡ്രം, കിള്ളിപ്പാലം)",
    "categoryName": "Car dealer",
    "address": "Kuttukaran Complex, P.O, Killipalam, Karamana, Thiruvananthapuram, Kerala 695002, India",
    "neighborhood": "P.O, Killipalam, Karamana",
    "street": "Kuttukaran Complex",
    "city": "Thiruvananthapuram",
    "postalCode": "695002",
    "state": "Kerala",
    "countryCode": "IN",
    "website": "http://arenaofkillipalam.com/?utm_source=gmb&utm_medium=google",
    "phone": "+918071645326",
    "phoneUnformatted": "+918071645326",
    "location": {
      "lat": 8.4811923,
      "lng": 76.9602047
    },
    "totalScore": 4.9,
    "permanentlyClosed": false,
    "temporarilyClosed": false,
    "placeId": "ChIJ_____wC7BTsR_wA9x-n-ESI",
    "categories": [
      "Car dealer"
    ],
    "reviewsCount": 7978,
    "imagesCount": 777,
    "openingHours": [
      {
        "day": "Monday",
        "hours": "9 AM to 9 PM"
      },
      {
        "day": "Tuesday",
        "hours": "9 AM to 9 PM"
      },
      {
        "day": "Wednesday",
        "hours": "9 AM to 9 PM"
      },
      {
        "day": "Thursday",
        "hours": "9 AM to 9 PM"
      },
      {
        "day": "Friday",
        "hours": "9 AM to 9 PM"
      },
      {
        "day": "Saturday",
        "hours": "9 AM to 9 PM"
      },
      {
        "day": "Sunday",
        "hours": "9 AM to 9 PM"
      }
    ],
    "imageUrl": "https://lh3.googleusercontent.com/gps-cs-s/AG0ilSzQcZYIX1odG94YBGeiR0MQYiffk8kV2v4Lz7SSSju71KzA9O22R6nx9CJ3FJwEftQxQDaPEVIySfYooVLwPxRBwfuxewTuj-tq4FZQUg5xvgGaW3zC3F_B0zjj-m-CvA2Dq9pSyQ=w426-h240-k-no",
    "url": "https://www.google.com/maps/search/?api=1&query=Maruti%20Suzuki%20ARENA%20(Popular%20Vehicles%2C%20Trivandrum%2C%20Killipalam)&query_place_id=ChIJ_____wC7BTsR_wA9x-n-ESI"
  },
  {
    "title": "Mercedes-Benz Coastal Star Sales Experience Center Trivandrum",
    "categoryName": "Car dealer",
    "address": "Coastal Star Pvt Ltd, near IMA House, opp. Satheendra Auditorium, Anayara, P.O, Chacka, Thiruvananthapuram, Kerala 695029, India",
    "neighborhood": "Anayara, P.O, Chacka",
    "street": "Coastal Star Pvt Ltd, near IMA House, opp. Satheendra Auditorium",
    "city": "Thiruvananthapuram",
    "postalCode": "695029",
    "state": "Kerala",
    "countryCode": "IN",
    "website": "https://www.coastalstar.mercedes-benz.co.in/",
    "phone": "+919951580004",
    "phoneUnformatted": "+919951580004",
    "location": {
      "lat": 8.4997728,
      "lng": 76.9156317
    },
    "totalScore": 4.9,
    "permanentlyClosed": false,
    "temporarilyClosed": false,
    "placeId": "ChIJialuSpq9BTsRgEPFOjDryRw",
    "categories": [
      "Car dealer"
    ],
    "reviewsCount": 54,
    "imagesCount": 20,
    "openingHours": [
      {
        "day": "Monday",
        "hours": "9 AM to 7 PM"
      },
      {
        "day": "Tuesday",
        "hours": "9 AM to 7 PM"
      },
      {
        "day": "Wednesday",
        "hours": "9 AM to 8 PM"
      },
      {
        "day": "Thursday",
        "hours": "9 AM to 7 PM"
      },
      {
        "day": "Friday",
        "hours": "9 AM to 7 PM"
      },
      {
        "day": "Saturday",
        "hours": "10 AM to 7 PM"
      },
      {
        "day": "Sunday",
        "hours": "10 AM to 5 PM"
      }
    ],
    "imageUrl": "https://lh3.googleusercontent.com/gps-cs-s/AG0ilSwoAzWWe255n3e3rjPEUcbWSBzXq8HhPbArRc6jWNYJZIt6N5yOhMpd7deOCDFtDrx_L5h4YTNK2BFOmqzwTmtceIHu8sh7UwIASS8VpPbmeAIpxtaUVq3GxJ9j-8GB8QZqfXbdfQ=w426-h240-k-no",
    "url": "https://www.google.com/maps/search/?api=1&query=Mercedes-Benz%20Coastal%20Star%20Sales%20Experience%20Center%20Trivandrum&query_place_id=ChIJialuSpq9BTsRgEPFOjDryRw"
  },
  {
    "title": "Millennium Group Rent A Car",
    "categoryName": "Car rental agency",
    "address": "1st Floor, Capital Tower, Kumarapuram, Thiruvananthapuram, Kerala 695011, India",
    "neighborhood": "Kumarapuram",
    "street": "1st Floor, Capital Tower",
    "city": "Thiruvananthapuram",
    "postalCode": "695011",
    "state": "Kerala",
    "countryCode": "IN",
    "phone": "+919947000500",
    "phoneUnformatted": "+919947000500",
    "location": {
      "lat": 8.5109426,
      "lng": 76.928126
    },
    "totalScore": 4.9,
    "permanentlyClosed": false,
    "temporarilyClosed": false,
    "placeId": "ChIJCe7mNse9BTsRIep0OLULR9U",
    "categories": [
      "Car rental agency",
      "Car leasing service"
    ],
    "reviewsCount": 49,
    "imagesCount": 19,
    "openingHours": [
      {
        "day": "Monday",
        "hours": "6 AM to 8 PM"
      },
      {
        "day": "Tuesday",
        "hours": "6 AM to 8 PM"
      },
      {
        "day": "Wednesday",
        "hours": "6 AM to 8 PM"
      },
      {
        "day": "Thursday",
        "hours": "6 AM to 8 PM"
      },
      {
        "day": "Friday",
        "hours": "6 AM to 8 PM"
      },
      {
        "day": "Saturday",
        "hours": "6 AM to 8 PM"
      },
      {
        "day": "Sunday",
        "hours": "6 AM to 8 PM"
      }
    ],
    "imageUrl": "https://lh3.googleusercontent.com/p/AF1QipOYMa_EsBBGxiZYgVSDvRiOAh91oMgi3dtLU8Qx=w577-h240-k-no",
    "url": "https://www.google.com/maps/search/?api=1&query=Millennium%20Group%20Rent%20A%20Car&query_place_id=ChIJCe7mNse9BTsRIep0OLULR9U"
  },
  {
    "title": "MY YATHRA",
    "subTitle": "മൈ യാത്ര",
    "categoryName": "Car rental agency",
    "address": "FIRST FLOOR ANNAS ARCADE, Mahatma Gandhi Rd, near SPENCER JN, Statue, Thiruvananthapuram, Kerala 695001, India",
    "neighborhood": "Spencer Junction, Statue, Palayam",
    "street": "FIRST FLOOR ANNAS ARCADE, Mahatma Gandhi Rd, near SPENCER JN",
    "city": "Thiruvananthapuram",
    "postalCode": "695001",
    "state": "Kerala",
    "countryCode": "IN",
    "website": "https://myyathra.in/",
    "phone": "+919539889888",
    "phoneUnformatted": "+919539889888",
    "location": {
      "lat": 8.5002871,
      "lng": 76.9488013
    },
    "totalScore": 4.7,
    "permanentlyClosed": false,
    "temporarilyClosed": false,
    "placeId": "ChIJ0fmYmuC7BTsRSR_cbc12jtc",
    "categories": [
      "Car rental agency",
      "Airline ticket agency",
      "Bus ticket agency",
      "Travel agency",
      "Tour agency",
      "Tour operator",
      "Train ticket agency"
    ],
    "reviewsCount": 40,
    "imagesCount": 11,
    "openingHours": [
      {
        "day": "Monday",
        "hours": "9:30 AM to 6 PM"
      },
      {
        "day": "Tuesday",
        "hours": "9:30 AM to 6 PM"
      },
      {
        "day": "Wednesday",
        "hours": "9:30 AM to 6 PM"
      },
      {
        "day": "Thursday",
        "hours": "9:30 AM to 6 PM"
      },
      {
        "day": "Friday",
        "hours": "9:30 AM to 6 PM"
      },
      {
        "day": "Saturday",
        "hours": "9:30 AM to 6 PM"
      },
      {
        "day": "Sunday",
        "hours": "Closed"
      }
    ],
    "imageUrl": "https://lh3.googleusercontent.com/p/AF1QipP-FDL_JWbai-cKwE7iGUjOonU69zL0lr2CWaZ0=w408-h272-k-no",
    "url": "https://www.google.com/maps/search/?api=1&query=MY%20YATHRA&query_place_id=ChIJ0fmYmuC7BTsRSR_cbc12jtc"
  },
  {
    "title": "NASA PREMIUM CARS",
    "categoryName": "Car rental agency",
    "address": "Thampanoor, Thiruvananthapuram, Kerala 695014, India",
    "neighborhood": "Thampanoor",
    "city": "Thiruvananthapuram",
    "postalCode": "695014",
    "state": "Kerala",
    "countryCode": "IN",
    "phone": "+917907187780",
    "phoneUnformatted": "+917907187780",
    "location": {
      "lat": 8.4876807,
      "lng": 76.9534064
    },
    "totalScore": 5,
    "permanentlyClosed": false,
    "temporarilyClosed": false,
    "placeId": "ChIJH6EGv-67BTsRLT9emo1Y12k",
    "categories": [
      "Car rental agency"
    ],
    "reviewsCount": 5,
    "imagesCount": 31,
    "openingHours": [
      {
        "day": "Monday",
        "hours": "Open 24 hours"
      },
      {
        "day": "Tuesday",
        "hours": "Open 24 hours"
      },
      {
        "day": "Wednesday",
        "hours": "Open 24 hours"
      },
      {
        "day": "Thursday",
        "hours": "Open 24 hours"
      },
      {
        "day": "Friday",
        "hours": "Open 24 hours"
      },
      {
        "day": "Saturday",
        "hours": "Open 24 hours"
      },
      {
        "day": "Sunday",
        "hours": "Open 24 hours"
      }
    ],
    "imageUrl": "https://lh3.googleusercontent.com/p/AF1QipMD53Hz4-K1uzEPO8R0lxalZPPpEQlFmI_fuq_i=w408-h309-k-no",
    "url": "https://www.google.com/maps/search/?api=1&query=NASA%20PREMIUM%20CARS&query_place_id=ChIJH6EGv-67BTsRLT9emo1Y12k"
  },
  {
    "title": "Royal Drive SMART Trivandrum",
    "categoryName": "Motor vehicle dealer",
    "address": "Chakai Bypass, Lords Hospital Jn, IMA Service Road, PO, Anayara, Venpalavattom, Thiruvananthapuram, Kerala 695029, India",
    "neighborhood": "Anayara, Venpalavattom",
    "street": "Chakai Bypass, Lords Hospital Jn, IMA Service Road, PO",
    "city": "Thiruvananthapuram",
    "postalCode": "695029",
    "state": "Kerala",
    "countryCode": "IN",
    "website": "https://www.royaldrivesmart.in/",
    "phone": "+917356906060",
    "phoneUnformatted": "+917356906060",
    "location": {
      "lat": 8.5036191,
      "lng": 76.9121528
    },
    "totalScore": 5,
    "permanentlyClosed": false,
    "temporarilyClosed": false,
    "placeId": "ChIJ-Vatf929BTsR8P3L8wRfhLc",
    "categories": [
      "Motor vehicle dealer"
    ],
    "reviewsCount": 151,
    "imagesCount": 5,
    "openingHours": [
      {
        "day": "Monday",
        "hours": "9 AM to 8:30 PM"
      },
      {
        "day": "Tuesday",
        "hours": "9 AM to 8:30 PM"
      },
      {
        "day": "Wednesday",
        "hours": "9 AM to 8:30 PM"
      },
      {
        "day": "Thursday",
        "hours": "9 AM to 8:30 PM"
      },
      {
        "day": "Friday",
        "hours": "9 AM to 8:30 PM"
      },
      {
        "day": "Saturday",
        "hours": "9 AM to 8:30 PM"
      },
      {
        "day": "Sunday",
        "hours": "10 AM to 8 PM"
      }
    ],
    "imageUrl": "https://lh3.googleusercontent.com/gps-cs-s/AG0ilSxMa1uhzf5cjyrroxFSLGdIhvVyRTDabrbj7Vz1eZXE6EdYGfUpweVUPSbCgQEAcBUmtB7E_gT18TgCDdvpMfJ66vmr71lc_rbB_y1sx1vvIIod5d8DPIg9eZ3BQQUR9huYE0g=w408-h544-k-no",
    "url": "https://www.google.com/maps/search/?api=1&query=Royal%20Drive%20SMART%20Trivandrum&query_place_id=ChIJ-Vatf929BTsR8P3L8wRfhLc"
  },
  {
    "title": "Royal Drive Trivandrum",
    "subTitle": "റോയൽ ഡ്രൈവ് തിരുവനന്തപുരം",
    "categoryName": "Used car dealer",
    "address": "Chakai Bypass, Lords Hospital Jn, IMA Service Road, PO, Anayara, Venpalavattom, Thiruvananthapuram, Kerala 695029, India",
    "neighborhood": "Anayara, Venpalavattom",
    "street": "Chakai Bypass, Lords Hospital Jn, IMA Service Road, PO",
    "city": "Thiruvananthapuram",
    "postalCode": "695029",
    "state": "Kerala",
    "countryCode": "IN",
    "website": "https://www.royaldrive.in/",
    "phone": "+918129909090",
    "phoneUnformatted": "+918129909090",
    "location": {
      "lat": 8.503643,
      "lng": 76.9121586
    },
    "totalScore": 4.9,
    "permanentlyClosed": false,
    "temporarilyClosed": false,
    "placeId": "ChIJJx1Q34y9BTsRZo1DIYVwcog",
    "categories": [
      "Used car dealer"
    ],
    "reviewsCount": 432,
    "imagesCount": 95,
    "openingHours": [
      {
        "day": "Monday",
        "hours": "9 AM to 8:30 PM"
      },
      {
        "day": "Tuesday",
        "hours": "9 AM to 8:30 PM"
      },
      {
        "day": "Wednesday",
        "hours": "9 AM to 8:30 PM"
      },
      {
        "day": "Thursday",
        "hours": "9 AM to 8:30 PM"
      },
      {
        "day": "Friday",
        "hours": "9 AM to 8:30 PM"
      },
      {
        "day": "Saturday",
        "hours": "9 AM to 8:30 PM"
      },
      {
        "day": "Sunday",
        "hours": "10 AM to 8:30 PM"
      }
    ],
    "imageUrl": "https://lh3.googleusercontent.com/gps-cs-s/AG0ilSy4NfXgQl3SuXhusS_C1jYJ9hVfrfalc5yWXK7fZk7-j3egLmZsCe3q8iW8iKIfLfhlLEIqpBN1N9Mto7r3kyRTwqHbGXxaQIOh4pvmVj63SfxKwnErYJkhdrsnxRNRvUv8bty0=w513-h240-k-no",
    "url": "https://www.google.com/maps/search/?api=1&query=Royal%20Drive%20Trivandrum&query_place_id=ChIJJx1Q34y9BTsRZo1DIYVwcog"
  },
  {
    "title": "RVS Moto Hub PVT LTD",
    "categoryName": "Car repair and maintenance service",
    "address": "Enjakkal Bypass Road, Paruthikuzhy Rd, Ambalathara, Poonthura, Thiruvananthapuram, Kerala 695026, India",
    "neighborhood": "Poonthura",
    "street": "Enjakkal Bypass Road, Paruthikuzhy Rd, Ambalathara",
    "city": "Thiruvananthapuram",
    "postalCode": "695026",
    "state": "Kerala",
    "countryCode": "IN",
    "website": "https://rvsmotohub.com/",
    "location": {
      "lat": 8.4574423,
      "lng": 76.9438923
    },
    "totalScore": 4.7,
    "permanentlyClosed": false,
    "temporarilyClosed": false,
    "placeId": "ChIJIwAjzYK7BTsR26OZrvvwkZs",
    "categories": [
      "Car repair and maintenance service",
      "Auto repair shop",
      "Vehicle inspection service"
    ],
    "reviewsCount": 244,
    "imagesCount": 146,
    "openingHours": [
      {
        "day": "Monday",
        "hours": "9:30 AM to 6:30 PM"
      },
      {
        "day": "Tuesday",
        "hours": "9:30 AM to 6:30 PM"
      },
      {
        "day": "Wednesday",
        "hours": "9:30 AM to 6:30 PM"
      },
      {
        "day": "Thursday",
        "hours": "9:30 AM to 6:30 PM"
      },
      {
        "day": "Friday",
        "hours": "9:30 AM to 6:30 PM"
      },
      {
        "day": "Saturday",
        "hours": "9:30 AM to 6:30 PM"
      },
      {
        "day": "Sunday",
        "hours": "Closed"
      }
    ],
    "imageUrl": "https://lh3.googleusercontent.com/p/AF1QipOeASYKPcma7ED_RQwhKS1diyCfcXmlEwPpiUxs=w425-h240-k-no",
    "url": "https://www.google.com/maps/search/?api=1&query=RVS%20Moto%20Hub%20PVT%20LTD&query_place_id=ChIJIwAjzYK7BTsR26OZrvvwkZs"
  },
  {
    "title": "Second Choice Used Car Dealer",
    "subTitle": "സെക്കൻ്റ് ചോയിസ് യൂസ്ഡ് കാർ ഡീലർ",
    "categoryName": "Used car dealer",
    "address": "Kochar Rd, near Alakapuri Auditorium, Edapazhanji, Thiruvananthapuram, Kerala 695010, India",
    "neighborhood": "Edapazhanji",
    "street": "Kochar Rd, near Alakapuri Auditorium",
    "city": "Thiruvananthapuram",
    "postalCode": "695010",
    "state": "Kerala",
    "countryCode": "IN",
    "website": "https://secondchoicetrivandrum.in/",
    "phone": "+919746737222",
    "phoneUnformatted": "+919746737222",
    "location": {
      "lat": 8.5058043,
      "lng": 76.969839
    },
    "totalScore": 4.7,
    "permanentlyClosed": false,
    "temporarilyClosed": false,
    "placeId": "ChIJM14uE0q6BTsRONj8kXnP1p8",
    "categories": [
      "Used car dealer"
    ],
    "reviewsCount": 138,
    "imagesCount": 120,
    "openingHours": [
      {
        "day": "Monday",
        "hours": "9:30 AM to 6:30 PM"
      },
      {
        "day": "Tuesday",
        "hours": "9:30 AM to 6:30 PM"
      },
      {
        "day": "Wednesday",
        "hours": "9:30 AM to 6:30 PM"
      },
      {
        "day": "Thursday",
        "hours": "9:30 AM to 6:30 PM"
      },
      {
        "day": "Friday",
        "hours": "9:30 AM to 6:30 PM"
      },
      {
        "day": "Saturday",
        "hours": "9:30 AM to 6:30 PM"
      },
      {
        "day": "Sunday",
        "hours": "Closed"
      }
    ],
    "imageUrl": "https://lh3.googleusercontent.com/gps-cs-s/AG0ilSwGKU8nM4FoTyodVVJf7Zt3BXJInjhduKNDGNfDAkwfv2RfH4VGtCWY8VJNcIBXjGFDWzx02SpjhN2o9wDyw64PjUqIqzqf2L4rmd76pxa3Y8idfh_9sGvoTgj9iXE4sDx_l1tt=w408-h306-k-no",
    "url": "https://www.google.com/maps/search/?api=1&query=Second%20Choice%20Used%20Car%20Dealer&query_place_id=ChIJM14uE0q6BTsRONj8kXnP1p8"
  },
  {
    "title": "Southgate Travels - Wedding Cars For rent Trivandrum",
    "subTitle": "സൗത്ഗേറ്റ് ട്രാവൽസ് - വെഡ്ഡിംഗ് കാർസ് ഫോർ റെൻ്റ് ട്രിവാൻഡ്രം",
    "categoryName": "Car rental agency",
    "address": "Mukalel Building, University of Kerala Senate House Campus, VL, Kunnukuzhy, Thiruvananthapuram, Kerala 695035, India",
    "neighborhood": "University of Kerala Senate House Campus, VL, Kunnukuzhy",
    "street": "Mukalel Building",
    "city": "Thiruvananthapuram",
    "postalCode": "695035",
    "state": "Kerala",
    "countryCode": "IN",
    "website": "https://www.southgatetravels.com/",
    "phone": "+914712301212",
    "phoneUnformatted": "+914712301212",
    "location": {
      "lat": 8.5065188,
      "lng": 76.9438034
    },
    "totalScore": 4.5,
    "permanentlyClosed": false,
    "temporarilyClosed": false,
    "placeId": "ChIJxd8oq8G7BTsR2HT5U6l0MLU",
    "categories": [
      "Car rental agency",
      "Car leasing service",
      "Taxi service",
      "Transportation service",
      "Travel agency",
      "Wedding service"
    ],
    "reviewsCount": 258,
    "imagesCount": 126,
    "openingHours": [
      {
        "day": "Monday",
        "hours": "Open 24 hours"
      },
      {
        "day": "Tuesday",
        "hours": "Open 24 hours"
      },
      {
        "day": "Wednesday",
        "hours": "Open 24 hours"
      },
      {
        "day": "Thursday",
        "hours": "Open 24 hours"
      },
      {
        "day": "Friday",
        "hours": "Open 24 hours"
      },
      {
        "day": "Saturday",
        "hours": "Open 24 hours"
      },
      {
        "day": "Sunday",
        "hours": "Open 24 hours"
      }
    ],
    "imageUrl": "https://lh3.googleusercontent.com/p/AF1QipNsg69wwsQrY9tPZFi0C0_3JTokHCzAN4E9rYOs=w426-h240-k-no",
    "url": "https://www.google.com/maps/search/?api=1&query=Southgate%20Travels%20-%20Wedding%20Cars%20For%20rent%20Trivandrum&query_place_id=ChIJxd8oq8G7BTsR2HT5U6l0MLU"
  },
  {
    "title": "Sree Durga TOURS AND TRAVELS",
    "subTitle": "ശ്രീ ദുർഗ ടൂർസ് ആൻഡ് ട്രാവൽസ്",
    "categoryName": "Car rental agency",
    "address": "GWCV+WX5, Marappalam Junction, Lekshmi Nagar, Pattom, Thiruvananthapuram, Kerala 695004, India",
    "neighborhood": "Lekshmi Nagar, Pattom",
    "street": "GWCV+WX5, Marappalam Junction",
    "city": "Thiruvananthapuram",
    "postalCode": "695004",
    "state": "Kerala",
    "countryCode": "IN",
    "phone": "+914712541030",
    "phoneUnformatted": "+914712541030",
    "location": {
      "lat": 8.5222702,
      "lng": 76.9450263
    },
    "totalScore": 4.9,
    "permanentlyClosed": false,
    "temporarilyClosed": false,
    "placeId": "ChIJuR_z4t67BTsRnWKiYoujqDE",
    "categories": [
      "Car rental agency",
      "Travel agency",
      "Tour agency"
    ],
    "reviewsCount": 24,
    "imagesCount": 3,
    "openingHours": [],
    "imageUrl": "https://lh3.googleusercontent.com/gps-proxy/ALd4DhF-NkXL8sVTUtTI39YPWns81jPpmUoHwXUTJB_ay00mx4miWq8gI8JhEkbJS5l5i-zoXDPOI4VxKTup30n-MPxpTrH5yn3Q2svxYwLcIfHlD_iD9nq4K4aoxmICPlw0pY96m6kp0OoEViTcAqFZF0tqIqwIUqohZQCbscHuhN8k3i_YB7Q86FgvnB5Hc1P3pM3F_A=w408-h306-k-no",
    "url": "https://www.google.com/maps/search/?api=1&query=Sree%20Durga%20TOURS%20AND%20TRAVELS&query_place_id=ChIJuR_z4t67BTsRnWKiYoujqDE"
  },
  {
    "title": "Sree Tours - Taxi Service / Wedding Car For Rent Trivandrum Luxury Marriage Car Hire",
    "categoryName": "Car leasing service",
    "address": "TC 11/ 625/1 bell villa, nalanda jn, Nanthancodu, Thiruvananthapuram, Kerala 695003, India",
    "neighborhood": "Nanthancodu",
    "street": "TC 11/ 625/1 bell villa, nalanda jn",
    "city": "Thiruvananthapuram",
    "postalCode": "695003",
    "state": "Kerala",
    "countryCode": "IN",
    "website": "http://sreetours.in/",
    "phone": "+919847019292",
    "phoneUnformatted": "+919847019292",
    "location": {
      "lat": 8.5124889,
      "lng": 76.9514227
    },
    "totalScore": 4.9,
    "permanentlyClosed": false,
    "temporarilyClosed": false,
    "placeId": "ChIJn-Tgeu67BTsR4RttZ2JyB5M",
    "categories": [
      "Car leasing service",
      "Airport shuttle service",
      "Taxi service",
      "Tour operator",
      "Travel agency"
    ],
    "reviewsCount": 860,
    "imagesCount": 154,
    "openingHours": [],
    "imageUrl": "https://lh3.googleusercontent.com/p/AF1QipMljyhMKMtoM6gbt1uE3DSOF1D9ZL87U-adMC7Z=w426-h240-k-no",
    "url": "https://www.google.com/maps/search/?api=1&query=Sree%20Tours%20-%20Taxi%20Service%20%2F%20Wedding%20Car%20For%20Rent%20Trivandrum%20Luxury%20Marriage%20Car%20Hire&query_place_id=ChIJn-Tgeu67BTsR4RttZ2JyB5M"
  },
  {
    "title": "Super Cars Rental",
    "categoryName": "Car rental agency",
    "address": "Muttathura, Eanchakkal, Thiruvananthapuram, Kerala 695008, India",
    "neighborhood": "Muttathura, Eanchakkal",
    "city": "Thiruvananthapuram",
    "postalCode": "695008",
    "state": "Kerala",
    "countryCode": "IN",
    "phone": "+919846316292",
    "phoneUnformatted": "+919846316292",
    "location": {
      "lat": 8.4837408,
      "lng": 76.9302274
    },
    "totalScore": 5,
    "permanentlyClosed": false,
    "temporarilyClosed": false,
    "placeId": "ChIJCxoeuNq7BTsRZ3pSP08a4IY",
    "categories": [
      "Car rental agency"
    ],
    "reviewsCount": 2,
    "imagesCount": 34,
    "openingHours": [
      {
        "day": "Monday",
        "hours": "Open 24 hours"
      },
      {
        "day": "Tuesday",
        "hours": "Open 24 hours"
      },
      {
        "day": "Wednesday",
        "hours": "Open 24 hours"
      },
      {
        "day": "Thursday",
        "hours": "Open 24 hours"
      },
      {
        "day": "Friday",
        "hours": "Open 24 hours"
      },
      {
        "day": "Saturday",
        "hours": "Open 24 hours"
      },
      {
        "day": "Sunday",
        "hours": "Open 24 hours"
      }
    ],
    "imageUrl": "https://lh3.googleusercontent.com/p/AF1QipNvDe26gWjMrSBoCY2FT9EHLgJq1QaE0tDfi5GR=w426-h240-k-no",
    "url": "https://www.google.com/maps/search/?api=1&query=Super%20Cars%20Rental&query_place_id=ChIJCxoeuNq7BTsRZ3pSP08a4IY"
  },
  {
    "title": "Taxitel",
    "subTitle": "ടാക്സിടീൽ",
    "categoryName": "Car rental agency",
    "address": "TC.11/625/1, Bell Villa Junction, Nalanda Ln, Plammoodu, Thiruvananthapuram, Kerala 695003, India",
    "neighborhood": "Plammoodu",
    "street": "TC.11/625/1, Bell Villa Junction, Nalanda Ln",
    "city": "Thiruvananthapuram",
    "postalCode": "695003",
    "state": "Kerala",
    "countryCode": "IN",
    "website": "https://taxitel.co.in/",
    "phone": "+917592929278",
    "phoneUnformatted": "+917592929278",
    "location": {
      "lat": 8.5126697,
      "lng": 76.9508722
    },
    "totalScore": 4.7,
    "permanentlyClosed": false,
    "temporarilyClosed": false,
    "placeId": "ChIJcf0Ua8W7BTsRTGG4NT0IAss",
    "categories": [
      "Car rental agency",
      "Taxi service"
    ],
    "reviewsCount": 334,
    "imagesCount": 100,
    "openingHours": [],
    "imageUrl": "https://lh3.googleusercontent.com/p/AF1QipP01fEQETKp8RB38ZQa-I9LXtGE02kpbX8jNT5i=w600-h240-k-no",
    "url": "https://www.google.com/maps/search/?api=1&query=Taxitel&query_place_id=ChIJcf0Ua8W7BTsRTGG4NT0IAss"
  },
  {
    "title": "Trivandrum Used Cars",
    "subTitle": "ട്രിവാൻഡ്രം യൂസ്ഡ് കാർസ്",
    "categoryName": "Car dealer",
    "address": "Near Bakery Junction, Nandavanam Rd, Palayam, Thiruvananthapuram, Kerala 695033, India",
    "neighborhood": "Nandavanam, Palayam",
    "street": "Near Bakery Junction, Nandavanam Rd",
    "city": "Thiruvananthapuram",
    "postalCode": "695033",
    "state": "Kerala",
    "countryCode": "IN",
    "phone": "+919633514685",
    "phoneUnformatted": "+919633514685",
    "location": {
      "lat": 8.503945,
      "lng": 76.9538144
    },
    "totalScore": 3.7,
    "permanentlyClosed": false,
    "temporarilyClosed": false,
    "placeId": "ChIJEXO41aa7BTsR6sJg_ki6z4I",
    "categories": [
      "Car dealer"
    ],
    "reviewsCount": 35,
    "imagesCount": 17,
    "openingHours": [
      {
        "day": "Monday",
        "hours": "10 AM to 6 PM"
      },
      {
        "day": "Tuesday",
        "hours": "10 AM to 6 PM"
      },
      {
        "day": "Wednesday",
        "hours": "10 AM to 6 PM"
      },
      {
        "day": "Thursday",
        "hours": "10 AM to 6 PM"
      },
      {
        "day": "Friday",
        "hours": "10 AM to 6 PM"
      },
      {
        "day": "Saturday",
        "hours": "10 AM to 6 PM"
      },
      {
        "day": "Sunday",
        "hours": "10 AM to 6 PM"
      }
    ],
    "imageUrl": "https://lh3.googleusercontent.com/gps-cs-s/AG0ilSx3MN4u-lM0DPPCFHbTBQmhiVgcxc2R1n65Qlg3ZyoAmrDJEzp1xTRFFIS3iWtwxbqQQzTQpllDwczAcRqiLor0hSgMI0wIK4NtrPh941DqUwbmioKme_msXovAFMgWDlXTOOI7=w426-h240-k-no",
    "url": "https://www.google.com/maps/search/?api=1&query=Trivandrum%20Used%20Cars&query_place_id=ChIJEXO41aa7BTsR6sJg_ki6z4I"
  },
  {
    "title": "Vintage Tours and Travels/Trivandrum Taxi/ Trivandrum Cabs",
    "categoryName": "Car rental agency",
    "address": "TC 23, 1883, Jawahar Nagar Rd, P.O, Bhagavathy Nagar, Kowdiar, Thiruvananthapuram, Kerala 695003, India",
    "neighborhood": "P.O, Bhagavathy Nagar, Kowdiar",
    "street": "TC 23, 1883, Jawahar Nagar Rd",
    "city": "Thiruvananthapuram",
    "postalCode": "695003",
    "state": "Kerala",
    "countryCode": "IN",
    "website": "https://www.trivandrumtaxi.in/",
    "phone": "+918330010892",
    "phoneUnformatted": "+918330010892",
    "location": {
      "lat": 8.5185401,
      "lng": 76.9649941
    },
    "totalScore": 4.9,
    "permanentlyClosed": false,
    "temporarilyClosed": false,
    "placeId": "ChIJyzXPHau7BTsR-v3qVvWYxJY",
    "categories": [
      "Car rental agency",
      "Airport shuttle service",
      "Bus tour agency",
      "Taxi service",
      "Minibus taxi service",
      "Sightseeing tour agency",
      "Sport tour agency",
      "Taxicab Stand",
      "Tour agency",
      "Tour operator"
    ],
    "reviewsCount": 144,
    "imagesCount": 155,
    "openingHours": [],
    "imageUrl": "https://lh3.googleusercontent.com/p/AF1QipMFeLRP4VNRxebOFxCNfEYRhxLVfxhjm6sxYAs2=w408-h487-k-no",
    "url": "https://www.google.com/maps/search/?api=1&query=Vintage%20Tours%20and%20Travels%2FTrivandrum%20Taxi%2F%20Trivandrum%20Cabs&query_place_id=ChIJyzXPHau7BTsR-v3qVvWYxJY"
  },
  {
    "title": "Wheelman Cabs",
    "categoryName": "Car rental agency",
    "address": "TC 11 26-1, PMG Rd, PMG, Thiruvananthapuram, Kerala 695004, India",
    "neighborhood": "PMG",
    "street": "TC 11 26-1, PMG Rd",
    "city": "Thiruvananthapuram",
    "postalCode": "695004",
    "state": "Kerala",
    "countryCode": "IN",
    "website": "https://www.wheelmancabs.com/",
    "phone": "+919947787057",
    "phoneUnformatted": "+919947787057",
    "location": {
      "lat": 8.5116219,
      "lng": 76.9483111
    },
    "totalScore": 4.9,
    "permanentlyClosed": false,
    "temporarilyClosed": false,
    "placeId": "ChIJubtracS7BTsR6cxsMLt6cg8",
    "categories": [
      "Car rental agency",
      "Bus company",
      "Bus tour agency",
      "Taxi service",
      "Minibus taxi service",
      "Sightseeing tour agency",
      "Taxicab Stand",
      "Tour operator",
      "Van rental agency",
      "Wedding service"
    ],
    "reviewsCount": 606,
    "imagesCount": 336,
    "openingHours": [],
    "imageUrl": "https://lh3.googleusercontent.com/p/AF1QipPdLHi8CPD3iXY4cJrW7ISvk1T-z_Ro7BoFMonT=w408-h306-k-no",
    "url": "https://www.google.com/maps/search/?api=1&query=Wheelman%20Cabs&query_place_id=ChIJubtracS7BTsR6cxsMLt6cg8"
  },
  {
    "title": "WhiteLine-Wedding Car Marriage Car Luxury Car for rent Trivandrum/ Thiruvananthapuram",
    "categoryName": "Car leasing service",
    "address": "Allsaints Beach P.O, TC 34/1143-1, 2nd Cross Road, near Allsaints College, Balanagar, Vettukadu, Thiruvananthapuram, Kerala 695007, India",
    "neighborhood": "Balanagar, Vettukadu",
    "street": "Allsaints Beach P.O, TC 34/1143-1, 2nd Cross Road, near Allsaints College",
    "city": "Thiruvananthapuram",
    "postalCode": "695007",
    "state": "Kerala",
    "countryCode": "IN",
    "phone": "+918907303045",
    "phoneUnformatted": "+918907303045",
    "location": {
      "lat": 8.4965101,
      "lng": 76.9061432
    },
    "totalScore": 5,
    "permanentlyClosed": false,
    "temporarilyClosed": false,
    "placeId": "ChIJSajaW_a9BTsRR3nBARUIwyQ",
    "categories": [
      "Car leasing service"
    ],
    "reviewsCount": 70,
    "imagesCount": 7,
    "openingHours": [
      {
        "day": "Monday",
        "hours": "Open 24 hours"
      },
      {
        "day": "Tuesday",
        "hours": "Open 24 hours"
      },
      {
        "day": "Wednesday",
        "hours": "Open 24 hours"
      },
      {
        "day": "Thursday",
        "hours": "Open 24 hours"
      },
      {
        "day": "Friday",
        "hours": "Open 24 hours"
      },
      {
        "day": "Saturday",
        "hours": "Open 24 hours"
      },
      {
        "day": "Sunday",
        "hours": "Open 24 hours"
      }
    ],
    "imageUrl": "https://lh3.googleusercontent.com/p/AF1QipN7URtAE5WYJ-BCEFHv2xbQhfrr4AD03G55IA22=w408-h306-k-no",
    "url": "https://www.google.com/maps/search/?api=1&query=WhiteLine-Wedding%20Car%20Marriage%20Car%20Luxury%20Car%20for%20rent%20Trivandrum%2F%20Thiruvananthapuram&query_place_id=ChIJSajaW_a9BTsRR3nBARUIwyQ"
  }
]
