[
  {
    "title": "A M CARS - PREOWNED CARS",
    "categoryName": "Used car dealer",
    "address": "66/67, Selvi Nagar, sindhupoondurai Junction, Tirunelveli, Tamil Nadu 627001, India",
    "neighborhood": "Selvi Nagar, sindhupoondurai Junction",
    "street": "66/67",
    "city": "Tirunelveli",
    "postalCode": "627001",
    "state": "Tamil Nadu",
    "countryCode": "IN",
    "phone": "+918270701314",
    "phoneUnformatted": "+918270701314",
    "location": {
      "lat": 8.7334216,
      "lng": 77.7139542
    },
    "totalScore": 3.9,
    "permanentlyClosed": false,
    "temporarilyClosed": false,
    "placeId": "ChIJD7krGZoTBDsROlZUGt2j9fg",
    "categories": [
      "Used car dealer"
    ],
    "reviewsCount": 96,
    "imagesCount": 75,
    "openingHours": [
      {
        "day": "Monday",
        "hours": "9:30 AM to 8 PM"
      },
      {
        "day": "Tuesday",
        "hours": "9:30 AM to 8 PM"
      },
      {
        "day": "Wednesday",
        "hours": "9:30 AM to 8 PM"
      },
      {
        "day": "Thursday",
        "hours": "9:30 AM to 8 PM"
      },
      {
        "day": "Friday",
        "hours": "9:30 AM to 8 PM"
      },
      {
        "day": "Saturday",
        "hours": "9:30 AM to 8 PM"
      },
      {
        "day": "Sunday",
        "hours": "9:30 AM to 1 PM"
      }
    ],
    "imageUrl": "https://media.indianluxurycars.com/google/098056efbe34fe9b2c733f137b07121344f6e2cb2aebdde7808d8411a0b81b10.jpg",
    "url": "https://www.google.com/maps/search/?api=1&query=A%20M%20CARS%20-%20PREOWNED%20CARS&query_place_id=ChIJD7krGZoTBDsROlZUGt2j9fg"
  },
  {
    "title": "AK Travels",
    "categoryName": "Car rental agency",
    "address": "12th Gnaniyarappa Big, E New St, Sivarajapuram, Melapalayam, Tirunelveli, Tamil Nadu 627005, India",
    "neighborhood": "Sivarajapuram, Melapalayam",
    "street": "12th Gnaniyarappa Big, E New St",
    "city": "Tirunelveli",
    "postalCode": "627005",
    "state": "Tamil Nadu",
    "countryCode": "IN",
    "website": "http://mohamedmohamed3409gmail.com/",
    "phone": "+919442280625",
    "phoneUnformatted": "+919442280625",
    "location": {
      "lat": 8.6962149,
      "lng": 77.7078823
    },
    "totalScore": 4.8,
    "permanentlyClosed": false,
    "temporarilyClosed": false,
    "placeId": "ChIJrxbaB-gTBDsR_KdM-NQqGDk",
    "categories": [
      "Car rental agency"
    ],
    "reviewsCount": 6,
    "imagesCount": 21,
    "openingHours": [
      {
        "day": "Monday",
        "hours": "Open 24 hours"
      },
      {
        "day": "Tuesday",
        "hours": "Open 24 hours"
      },
      {
        "day": "Wednesday",
        "hours": "Open 24 hours"
      },
      {
        "day": "Thursday",
        "hours": "Open 24 hours"
      },
      {
        "day": "Friday",
        "hours": "Open 24 hours"
      },
      {
        "day": "Saturday",
        "hours": "Open 24 hours"
      },
      {
        "day": "Sunday",
        "hours": "Open 24 hours"
      }
    ],
    "imageUrl": "https://media.indianluxurycars.com/google/3aad80dbac6a51cde0cb352c8cd09fa1f4c4b571944107ed99315345a8407a4c.jpg",
    "url": "https://www.google.com/maps/search/?api=1&query=AK%20Travels&query_place_id=ChIJrxbaB-gTBDsR_KdM-NQqGDk"
  },
  {
    "title": "Athen Cars",
    "categoryName": "Car dealer",
    "address": "near Bus stand, NGO B Colony, Rajeshwari Nagar, Palayamkottai, Tirunelveli, Tamil Nadu 627007, India",
    "neighborhood": "NGO B Colony, Rajeshwari Nagar, Palayamkottai",
    "street": "near Bus stand",
    "city": "Tirunelveli",
    "postalCode": "627007",
    "state": "Tamil Nadu",
    "countryCode": "IN",
    "location": {
      "lat": 8.6988121,
      "lng": 77.7297972
    },
    "totalScore": 4.5,
    "permanentlyClosed": false,
    "temporarilyClosed": false,
    "placeId": "ChIJXTZebN4TBDsRQiVWQnrusb4",
    "categories": [
      "Car dealer"
    ],
    "reviewsCount": 37,
    "imagesCount": 19,
    "openingHours": [
      {
        "day": "Monday",
        "hours": "9 AM to 7 PM"
      },
      {
        "day": "Tuesday",
        "hours": "9 AM to 7 PM"
      },
      {
        "day": "Wednesday",
        "hours": "9 AM to 7 PM"
      },
      {
        "day": "Thursday",
        "hours": "9 AM to 7 PM"
      },
      {
        "day": "Friday",
        "hours": "9 AM to 7 PM"
      },
      {
        "day": "Saturday",
        "hours": "9 AM to 7 PM"
      },
      {
        "day": "Sunday",
        "hours": "Closed"
      }
    ],
    "imageUrl": "https://media.indianluxurycars.com/google/6b67fa6c03b359e2bbfdbb83277ee608f6f33ba0069ec23a4ce0d5324a8d0647.jpg",
    "url": "https://www.google.com/maps/search/?api=1&query=Athen%20Cars&query_place_id=ChIJXTZebN4TBDsRQiVWQnrusb4"
  },
  {
    "title": "Athirst Auto",
    "subTitle": "அதிர்ஸ்ட் ஆட்டோ",
    "categoryName": "Car dealer",
    "address": "Bus Stand, 16/B1,Kelaveeraragavapuram ,Nagercoil road, Near New, Tirunelveli, Tamil Nadu 627007, India",
    "street": "Bus Stand, 16/B1,Kelaveeraragavapuram ,Nagercoil road, Near New",
    "city": "Tirunelveli",
    "postalCode": "627007",
    "state": "Tamil Nadu",
    "countryCode": "IN",
    "phone": "+919488995075",
    "phoneUnformatted": "+919488995075",
    "location": {
      "lat": 8.6923121,
      "lng": 77.7256674
    },
    "totalScore": 3.5,
    "permanentlyClosed": false,
    "temporarilyClosed": false,
    "placeId": "ChIJ__-7jmgSBDsRuLFchclC88A",
    "categories": [
      "Car dealer"
    ],
    "reviewsCount": 362,
    "imagesCount": 92,
    "openingHours": [
      {
        "day": "Monday",
        "hours": "9 AM to 7 PM"
      },
      {
        "day": "Tuesday",
        "hours": "9 AM to 7 PM"
      },
      {
        "day": "Wednesday",
        "hours": "9 AM to 7 PM"
      },
      {
        "day": "Thursday",
        "hours": "9 AM to 7 PM"
      },
      {
        "day": "Friday",
        "hours": "9 AM to 7 PM"
      },
      {
        "day": "Saturday",
        "hours": "9 AM to 7 PM"
      },
      {
        "day": "Sunday",
        "hours": "9 AM to 6 PM"
      }
    ],
    "imageUrl": "https://media.indianluxurycars.com/google/a77521405b7074bc4d05e42aaefefbec5a81c488df48b156036aa89095215e6c.jpg",
    "url": "https://www.google.com/maps/search/?api=1&query=Athirst%20Auto&query_place_id=ChIJ__-7jmgSBDsRuLFchclC88A"
  },
  {
    "title": "Balaji Cars",
    "categoryName": "Used car dealer",
    "address": "Vasanthapuram S St Rd, Vasanth Nagar, Tirunelveli, Tamil Nadu 627005, India",
    "neighborhood": "Vasanth Nagar",
    "street": "Vasanthapuram S St Rd",
    "city": "Tirunelveli",
    "postalCode": "627005",
    "state": "Tamil Nadu",
    "countryCode": "IN",
    "phone": "+918807582626",
    "phoneUnformatted": "+918807582626",
    "location": {
      "lat": 8.7029214,
      "lng": 77.7217774
    },
    "totalScore": 4.9,
    "permanentlyClosed": false,
    "temporarilyClosed": false,
    "placeId": "ChIJ01prCUsTBDsR8PRjWY4bcDQ",
    "categories": [
      "Used car dealer",
      "Car dealer",
      "Motoring club",
      "Second hand store"
    ],
    "reviewsCount": 94,
    "imagesCount": 160,
    "openingHours": [
      {
        "day": "Monday",
        "hours": "Open 24 hours"
      },
      {
        "day": "Tuesday",
        "hours": "Open 24 hours"
      },
      {
        "day": "Wednesday",
        "hours": "Open 24 hours"
      },
      {
        "day": "Thursday",
        "hours": "Open 24 hours"
      },
      {
        "day": "Friday",
        "hours": "Open 24 hours"
      },
      {
        "day": "Saturday",
        "hours": "Open 24 hours"
      },
      {
        "day": "Sunday",
        "hours": "Open 24 hours"
      }
    ],
    "imageUrl": "https://media.indianluxurycars.com/google/cec728c7c0b87c5d6b685a979a94f11a1d2efe197440512d3e6c274fa1ae0d97.jpg",
    "url": "https://www.google.com/maps/search/?api=1&query=Balaji%20Cars&query_place_id=ChIJ01prCUsTBDsR8PRjWY4bcDQ"
  },
  {
    "title": "Eicher Trucks and Buses - Haribalakrishna Automobiles, Tirunelveli, Thachanallur",
    "categoryName": "Truck dealer",
    "address": "No 262A, Bus Stop, Shop, 1, Madurai Rd, Thachanallur Karaiirruppu, Tirunelveli, Tamil Nadu 627358, India",
    "neighborhood": "Thachanallur Karaiirruppu",
    "street": "No 262A, Bus Stop, Shop, 1, Madurai Rd",
    "city": "Tirunelveli",
    "postalCode": "627358",
    "state": "Tamil Nadu",
    "countryCode": "IN",
    "website": "https://www.eichertrucksandbuses.com/?utm_source=gmb&utm_medium=google&utm_campaign=seo-local",
    "phone": "+918037839352",
    "phoneUnformatted": "+918037839352",
    "location": {
      "lat": 8.7609916,
      "lng": 77.7095614
    },
    "totalScore": 3.8,
    "permanentlyClosed": false,
    "temporarilyClosed": false,
    "placeId": "ChIJm5tSda4RBDsRrfki3hMzO9E",
    "categories": [
      "Truck dealer",
      "Motor vehicle dealer",
      "Truck parts supplier",
      "Truck repair shop"
    ],
    "reviewsCount": 91,
    "imagesCount": 78,
    "openingHours": [
      {
        "day": "Monday",
        "hours": "9 AM to 6:30 PM"
      },
      {
        "day": "Tuesday",
        "hours": "9 AM to 6:30 PM"
      },
      {
        "day": "Wednesday",
        "hours": "9 AM to 6:30 PM"
      },
      {
        "day": "Thursday",
        "hours": "9 AM to 6:30 PM"
      },
      {
        "day": "Friday",
        "hours": "9 AM to 6:30 PM"
      },
      {
        "day": "Saturday",
        "hours": "9 AM to 6:30 PM"
      },
      {
        "day": "Sunday",
        "hours": "9 AM to 6:30 PM"
      }
    ],
    "imageUrl": "https://media.indianluxurycars.com/google/dc8567acad581b71b4182a1b8b9e24dd94a9a3aa3fa6840dd27bb620527898b1.jpg",
    "url": "https://www.google.com/maps/search/?api=1&query=Eicher%20Trucks%20and%20Buses%20-%20Haribalakrishna%20Automobiles%2C%20Tirunelveli%2C%20Thachanallur&query_place_id=ChIJm5tSda4RBDsRrfki3hMzO9E"
  },
  {
    "title": "Green India Travels-Cabs in Tirunelveli,Call Taxi,Car Hire,Car Rental,Tours and Travels",
    "subTitle": "கிரீன் இந்தியா டிராவல்ஸ்-கேப்ஸ் இல் திருநெல்வேலி,கால் டாக்ஸி,கார் ஹிரே,கார் ரெண்டல்,டூர்ஸ் அண்ட் டிராவல்ஸ்",
    "categoryName": "Car rental agency",
    "address": "No.8, 5, Madurai Rd, Balabagya Nagar South, Tirunelveli Town, Tirunelveli, Tamil Nadu 627001, India",
    "neighborhood": "Balabagya Nagar South, Tirunelveli Town",
    "street": "No.8, 5, Madurai Rd",
    "city": "Tirunelveli",
    "postalCode": "627001",
    "state": "Tamil Nadu",
    "countryCode": "IN",
    "website": "http://www.greenindiatravels.co.in/",
    "phone": "+919843638122",
    "phoneUnformatted": "+919843638122",
    "location": {
      "lat": 8.7417988,
      "lng": 77.7100127
    },
    "totalScore": 4.9,
    "permanentlyClosed": false,
    "temporarilyClosed": false,
    "placeId": "ChIJZ3czzJkRBDsROILVs7kUJ1A",
    "categories": [
      "Car rental agency",
      "Car leasing service",
      "Taxi service",
      "Tour agency",
      "Tour operator",
      "Travel agency"
    ],
    "reviewsCount": 175,
    "imagesCount": 5,
    "openingHours": [
      {
        "day": "Monday",
        "hours": "5 AM to 10 PM"
      },
      {
        "day": "Tuesday",
        "hours": "5 AM to 10 PM"
      },
      {
        "day": "Wednesday",
        "hours": "5 AM to 10 PM"
      },
      {
        "day": "Thursday",
        "hours": "5 AM to 10 PM"
      },
      {
        "day": "Friday",
        "hours": "5 AM to 10 PM"
      },
      {
        "day": "Saturday",
        "hours": "5 AM to 10 PM"
      },
      {
        "day": "Sunday",
        "hours": "5 AM to 10 PM"
      }
    ],
    "imageUrl": "https://media.indianluxurycars.com/google/529437da4cf65096af7fa6066cd17773cc8e4e6a3fcc8e785d695fbf4714afa4.jpg",
    "url": "https://www.google.com/maps/search/?api=1&query=Green%20India%20Travels-Cabs%20in%20Tirunelveli%2CCall%20Taxi%2CCar%20Hire%2CCar%20Rental%2CTours%20and%20Travels&query_place_id=ChIJZ3czzJkRBDsROILVs7kUJ1A"
  },
  {
    "title": "Hari balan pre-owned cars",
    "categoryName": "Car dealer",
    "address": "PPH9+2GG, Kokkirakulam, Tirunelveli, Tamil Nadu 627003, India",
    "neighborhood": "Kokkirakulam",
    "street": "PPH9+2GG",
    "city": "Tirunelveli",
    "postalCode": "627003",
    "state": "Tamil Nadu",
    "countryCode": "IN",
    "location": {
      "lat": 8.7275737,
      "lng": 77.7188162
    },
    "totalScore": 5,
    "permanentlyClosed": false,
    "temporarilyClosed": false,
    "placeId": "ChIJm1hDCQARBDsRVCNSKeVEBQk",
    "categories": [
      "Car dealer"
    ],
    "reviewsCount": 1,
    "imagesCount": 1,
    "openingHours": [
      {
        "day": "Monday",
        "hours": "Open 24 hours"
      },
      {
        "day": "Tuesday",
        "hours": "Open 24 hours"
      },
      {
        "day": "Wednesday",
        "hours": "Open 24 hours"
      },
      {
        "day": "Thursday",
        "hours": "Open 24 hours"
      },
      {
        "day": "Friday",
        "hours": "Open 24 hours"
      },
      {
        "day": "Saturday",
        "hours": "Open 24 hours"
      },
      {
        "day": "Sunday",
        "hours": "Open 24 hours"
      }
    ],
    "imageUrl": "https://media.indianluxurycars.com/google/b39bf4a71da11b61ecab88b53d8e2c1bb24109692973d11cb47e3e596c5d7eaf.jpg",
    "url": "https://www.google.com/maps/search/?api=1&query=Hari%20balan%20pre-owned%20cars&query_place_id=ChIJm1hDCQARBDsRVCNSKeVEBQk"
  },
  {
    "title": "Hindustan Value Cars",
    "subTitle": "இந்துஸ்தான் வேல்யூ கார்ஸ்",
    "categoryName": "Used car dealer",
    "address": "43, 1, S Bypass Rd, near Akshaya Ford Service Centre, Shanthi Nagar, Tirunelveli, Tamil Nadu 627005, India",
    "neighborhood": "Shanthi Nagar",
    "street": "43, 1, S Bypass Rd, near Akshaya Ford Service Centre",
    "city": "Tirunelveli",
    "postalCode": "627005",
    "state": "Tamil Nadu",
    "countryCode": "IN",
    "phone": "+919443250041",
    "phoneUnformatted": "+919443250041",
    "location": {
      "lat": 8.7113221,
      "lng": 77.719758
    },
    "totalScore": 4.4,
    "permanentlyClosed": false,
    "temporarilyClosed": false,
    "placeId": "ChIJMR5MVkESBDsRgHQu6jmrDps",
    "categories": [
      "Used car dealer"
    ],
    "reviewsCount": 64,
    "imagesCount": 59,
    "openingHours": [
      {
        "day": "Monday",
        "hours": "9:30 AM to 8 PM"
      },
      {
        "day": "Tuesday",
        "hours": "9:30 AM to 8 PM"
      },
      {
        "day": "Wednesday",
        "hours": "9:30 AM to 8 PM"
      },
      {
        "day": "Thursday",
        "hours": "9:30 AM to 8 PM"
      },
      {
        "day": "Friday",
        "hours": "9:30 AM to 8 PM"
      },
      {
        "day": "Saturday",
        "hours": "9:30 AM to 8 PM"
      },
      {
        "day": "Sunday",
        "hours": "Closed"
      }
    ],
    "imageUrl": "https://media.indianluxurycars.com/google/4412aabdf536d71e54acef57cce5a5bbb70f189e61454c72772fb4c3cd1258af.jpg",
    "url": "https://www.google.com/maps/search/?api=1&query=Hindustan%20Value%20Cars&query_place_id=ChIJMR5MVkESBDsRgHQu6jmrDps"
  },
  {
    "title": "JK CARS",
    "categoryName": "Used car dealer",
    "address": "Manimoorthiswaram, N Bypass Rd, near Anjaneyar Kovil, Tirunelveli, Tamil Nadu 627001, India",
    "neighborhood": "Manimoorthispuram",
    "street": "Manimoorthiswaram, N Bypass Rd, near Anjaneyar Kovil",
    "city": "Tirunelveli",
    "postalCode": "627001",
    "state": "Tamil Nadu",
    "countryCode": "IN",
    "website": "https://getitinfo.in/jk-cars/",
    "phone": "+919994316484",
    "phoneUnformatted": "+919994316484",
    "location": {
      "lat": 8.7414208,
      "lng": 77.7171954
    },
    "totalScore": 5,
    "permanentlyClosed": false,
    "temporarilyClosed": false,
    "placeId": "ChIJhVvWFMoRBDsRGOIsPUEKDKE",
    "categories": [
      "Used car dealer",
      "Car dealer"
    ],
    "reviewsCount": 24,
    "imagesCount": 26,
    "openingHours": [
      {
        "day": "Monday",
        "hours": "9 AM to 8 PM"
      },
      {
        "day": "Tuesday",
        "hours": "9 AM to 8 PM"
      },
      {
        "day": "Wednesday",
        "hours": "9 AM to 8 PM"
      },
      {
        "day": "Thursday",
        "hours": "9 AM to 8 PM"
      },
      {
        "day": "Friday",
        "hours": "9 AM to 8 PM"
      },
      {
        "day": "Saturday",
        "hours": "9 AM to 8 PM"
      },
      {
        "day": "Sunday",
        "hours": "9 AM to 8 PM"
      }
    ],
    "imageUrl": "https://media.indianluxurycars.com/google/f8b4548247c7a38bf974e329a4a2b8907aefdcf84b7803219f9b317f32cce307.jpg",
    "url": "https://www.google.com/maps/search/?api=1&query=JK%20CARS&query_place_id=ChIJhVvWFMoRBDsRGOIsPUEKDKE"
  },
  {
    "title": "Magnum self drive cars",
    "categoryName": "Car rental agency",
    "address": "L133,josy cottage, anbu nagar water tank 2nd Street,Anbu nagar, Perumalpuram, Palayamkottai, Tirunelveli, Tamil Nadu 627007, India",
    "neighborhood": "Perumalpuram, Palayamkottai",
    "street": "L133,josy cottage, anbu nagar water tank 2nd Street,Anbu nagar",
    "city": "Tirunelveli",
    "postalCode": "627007",
    "state": "Tamil Nadu",
    "countryCode": "IN",
    "phone": "+917845012402",
    "phoneUnformatted": "+917845012402",
    "location": {
      "lat": 8.7040028,
      "lng": 77.7420674
    },
    "totalScore": 4.8,
    "permanentlyClosed": false,
    "temporarilyClosed": false,
    "placeId": "ChIJh5d0iEQTBDsR9QLEQer_c6I",
    "categories": [
      "Car rental agency",
      "Motoring club"
    ],
    "reviewsCount": 278,
    "imagesCount": 34,
    "openingHours": [
      {
        "day": "Monday",
        "hours": "Open 24 hours"
      },
      {
        "day": "Tuesday",
        "hours": "Open 24 hours"
      },
      {
        "day": "Wednesday",
        "hours": "Open 24 hours"
      },
      {
        "day": "Thursday",
        "hours": "Open 24 hours"
      },
      {
        "day": "Friday",
        "hours": "Open 24 hours"
      },
      {
        "day": "Saturday",
        "hours": "Open 24 hours"
      },
      {
        "day": "Sunday",
        "hours": "Open 24 hours"
      }
    ],
    "imageUrl": "https://media.indianluxurycars.com/google/6f8fffd21852ae4c2f99a2d60e20097b2819bebd8fb4919502ac1f1e11430103.jpg",
    "url": "https://www.google.com/maps/search/?api=1&query=Magnum%20self%20drive%20cars&query_place_id=ChIJh5d0iEQTBDsR9QLEQer_c6I"
  },
  {
    "title": "Muthu Cars- Triunelveli",
    "categoryName": "Used car dealer",
    "address": "Opp to reliance mall,susi auto back side Kokkirakulam, Vannarpettai, Tirunelveli, Tamil Nadu 627003, India",
    "neighborhood": "Vannarpettai",
    "street": "Opp to reliance mall,susi auto back side Kokkirakulam",
    "city": "Tirunelveli",
    "postalCode": "627003",
    "state": "Tamil Nadu",
    "countryCode": "IN",
    "phone": "+919443971851",
    "phoneUnformatted": "+919443971851",
    "location": {
      "lat": 8.7271547,
      "lng": 77.7180557
    },
    "totalScore": 4.3,
    "permanentlyClosed": false,
    "temporarilyClosed": false,
    "placeId": "ChIJXVtP5XsRBDsRGqm_eUq2pzE",
    "categories": [
      "Used car dealer"
    ],
    "reviewsCount": 6,
    "imagesCount": 7,
    "openingHours": [
      {
        "day": "Monday",
        "hours": "9:04 AM to 9:30 PM"
      },
      {
        "day": "Tuesday",
        "hours": "9:04 AM to 9:30 PM"
      },
      {
        "day": "Wednesday",
        "hours": "9:04 AM to 9:30 PM"
      },
      {
        "day": "Thursday",
        "hours": "9:04 AM to 9:30 PM"
      },
      {
        "day": "Friday",
        "hours": "9:04 AM to 9:30 PM"
      },
      {
        "day": "Saturday",
        "hours": "9:04 AM to 9:30 PM"
      },
      {
        "day": "Sunday",
        "hours": "Closed"
      }
    ],
    "imageUrl": "https://media.indianluxurycars.com/google/b0d47b85a5fcc947e8b1376415404c50ce42eec776842dad54f52fb88ffc1f61.jpg",
    "url": "https://www.google.com/maps/search/?api=1&query=Muthu%20Cars-%20Triunelveli&query_place_id=ChIJXVtP5XsRBDsRGqm_eUq2pzE"
  },
  {
    "title": "MyCar SeatCovers",
    "categoryName": "Car accessories store",
    "address": "5/11, S Bypass Rd, opp. KA Hotel, Shanthi Nagar, Tirunelveli, Tamil Nadu 627005, India",
    "neighborhood": "Shanthi Nagar",
    "street": "5/11, S Bypass Rd, opp. KA Hotel",
    "city": "Tirunelveli",
    "postalCode": "627005",
    "state": "Tamil Nadu",
    "countryCode": "IN",
    "phone": "+917824981870",
    "phoneUnformatted": "+917824981870",
    "location": {
      "lat": 8.7092937,
      "lng": 77.7199624
    },
    "totalScore": 4.9,
    "permanentlyClosed": false,
    "temporarilyClosed": false,
    "placeId": "ChIJG6MIEaUTBDsR-wCGms7B8ek",
    "categories": [
      "Car accessories store"
    ],
    "reviewsCount": 199,
    "imagesCount": 632,
    "openingHours": [
      {
        "day": "Monday",
        "hours": "9:30 AM to 9:30 PM"
      },
      {
        "day": "Tuesday",
        "hours": "9:30 AM to 9:30 PM"
      },
      {
        "day": "Wednesday",
        "hours": "9:30 AM to 9:30 PM"
      },
      {
        "day": "Thursday",
        "hours": "9:30 AM to 9:30 PM"
      },
      {
        "day": "Friday",
        "hours": "9:30 AM to 9:30 PM"
      },
      {
        "day": "Saturday",
        "hours": "9:30 AM to 9:30 PM"
      },
      {
        "day": "Sunday",
        "hours": "Closed"
      }
    ],
    "imageUrl": "https://media.indianluxurycars.com/google/f5f0b72f768d382b19f3b5ce5613389b2769e6846bd7e9439efdf7295b3ddfde.jpg",
    "url": "https://www.google.com/maps/search/?api=1&query=MyCar%20SeatCovers&query_place_id=ChIJG6MIEaUTBDsR-wCGms7B8ek"
  },
  {
    "title": "Nambiyatchi Cabs Tirunelveli | Taxi Service | Car Rental",
    "categoryName": "Car rental agency",
    "address": "Honey Mohamed Complex,, Madurai Rd, near HP GAS Company, Balabagya Nagar South, Tirunelveli Town, Tirunelveli, Tamil Nadu 627001, India",
    "neighborhood": "Sugar Mill Colony, Balabagya Nagar South, Tirunelveli Town",
    "street": "Honey Mohamed Complex,, Madurai Rd, near HP GAS Company",
    "city": "Tirunelveli",
    "postalCode": "627001",
    "state": "Tamil Nadu",
    "countryCode": "IN",
    "website": "https://nambiyatchicabs.com/",
    "phone": "+919487775295",
    "phoneUnformatted": "+919487775295",
    "location": {
      "lat": 8.743402,
      "lng": 77.709996
    },
    "totalScore": 5,
    "permanentlyClosed": false,
    "temporarilyClosed": false,
    "placeId": "ChIJ8zLQF5gRBDsRKgQz7x-W_OE",
    "categories": [
      "Car rental agency",
      "Car leasing service",
      "Taxi service",
      "Van rental agency"
    ],
    "reviewsCount": 344,
    "imagesCount": 35,
    "openingHours": [],
    "imageUrl": "https://media.indianluxurycars.com/google/3b14fc9888e7c08364e48e550d81b64c470e7ea6d6ee1e3a5059044f28d2ab87.jpg",
    "url": "https://www.google.com/maps/search/?api=1&query=Nambiyatchi%20Cabs%20Tirunelveli%20%7C%20Taxi%20Service%20%7C%20Car%20Rental&query_place_id=ChIJ8zLQF5gRBDsRKgQz7x-W_OE"
  },
  {
    "title": "Nellai Balaji Travels - Call Taxi in Tirunelveli | Cab Rental Tirunelveli | Car Rental & Hire",
    "categoryName": "Car rental agency",
    "address": "No. 22 A, Gandhipuram, Kulavanigarpuram, Palayamkottai, Tirunelveli, Tamil Nadu 627005, India",
    "neighborhood": "Kulavanigarpuram, Palayamkottai",
    "street": "No. 22 A, Gandhipuram",
    "city": "Tirunelveli",
    "postalCode": "627005",
    "state": "Tamil Nadu",
    "countryCode": "IN",
    "website": "https://nellaibalajitravels.com/",
    "phone": "+919042234560",
    "phoneUnformatted": "+919042234560",
    "location": {
      "lat": 8.7095085,
      "lng": 77.7234636
    },
    "totalScore": 4.9,
    "permanentlyClosed": false,
    "temporarilyClosed": false,
    "placeId": "ChIJ1ZmGKokTBDsR_0j7o6dYAZY",
    "categories": [
      "Car rental agency",
      "Car leasing service",
      "Taxi service",
      "Tour operator",
      "Travel agency"
    ],
    "reviewsCount": 84,
    "imagesCount": 8,
    "openingHours": [
      {
        "day": "Monday",
        "hours": "Open 24 hours"
      },
      {
        "day": "Tuesday",
        "hours": "Open 24 hours"
      },
      {
        "day": "Wednesday",
        "hours": "Open 24 hours"
      },
      {
        "day": "Thursday",
        "hours": "Open 24 hours"
      },
      {
        "day": "Friday",
        "hours": "Open 24 hours"
      },
      {
        "day": "Saturday",
        "hours": "Open 24 hours"
      },
      {
        "day": "Sunday",
        "hours": "Open 24 hours"
      }
    ],
    "imageUrl": "https://media.indianluxurycars.com/google/cafa520ca50fb76699b55597ac13f0d7d3b7fd4d85fae38986aa620f0fae0f1d.jpg",
    "url": "https://www.google.com/maps/search/?api=1&query=Nellai%20Balaji%20Travels%20-%20Call%20Taxi%20in%20Tirunelveli%20%7C%20Cab%20Rental%20Tirunelveli%20%7C%20Car%20Rental%20%26%20Hire&query_place_id=ChIJ1ZmGKokTBDsR_0j7o6dYAZY"
  },
  {
    "title": "Nellai Car Zone",
    "subTitle": "நெல்லை கார் மண்டல",
    "categoryName": "Used car dealer",
    "address": "1A, N Bypass Rd, Near North Bypass Bridge, Gomathy Nagar, Thachanallur, Tirunelveli, Tamil Nadu 627001, India",
    "neighborhood": "Gomathy Nagar, Thachanallur",
    "street": "1A, N Bypass Rd, Near North Bypass Bridge",
    "city": "Tirunelveli",
    "postalCode": "627001",
    "state": "Tamil Nadu",
    "countryCode": "IN",
    "phone": "+919994550008",
    "phoneUnformatted": "+919994550008",
    "location": {
      "lat": 8.7457753,
      "lng": 77.7107137
    },
    "totalScore": 4.4,
    "permanentlyClosed": false,
    "temporarilyClosed": false,
    "placeId": "ChIJtc5ws6IRBDsRIkwuDo7n3lw",
    "categories": [
      "Used car dealer"
    ],
    "reviewsCount": 9,
    "imagesCount": 3,
    "openingHours": [
      {
        "day": "Monday",
        "hours": "9 AM to 8 PM"
      },
      {
        "day": "Tuesday",
        "hours": "9 AM to 8 PM"
      },
      {
        "day": "Wednesday",
        "hours": "9 AM to 8 PM"
      },
      {
        "day": "Thursday",
        "hours": "9 AM to 8 PM"
      },
      {
        "day": "Friday",
        "hours": "9 AM to 8 PM"
      },
      {
        "day": "Saturday",
        "hours": "9 AM to 8 PM"
      },
      {
        "day": "Sunday",
        "hours": "Closed"
      }
    ],
    "imageUrl": "https://media.indianluxurycars.com/google/0bc6fbaf46ffcf177c524c8e45c7a2e74b1ddf65eee2864e41d2ab714eea1749.jpg",
    "url": "https://www.google.com/maps/search/?api=1&query=Nellai%20Car%20Zone&query_place_id=ChIJtc5ws6IRBDsRIkwuDo7n3lw"
  },
  {
    "title": "NEW CAR SEAT COVERS",
    "categoryName": "Car stereo store",
    "address": "S Complex, K.A, S Bypass Rd, Tirunelveli, Tamil Nadu 627005, India",
    "street": "S Complex, K.A, S Bypass Rd",
    "city": "Tirunelveli",
    "postalCode": "627005",
    "state": "Tamil Nadu",
    "countryCode": "IN",
    "website": "http://www.newcarseatcover.com/",
    "phone": "+918220218599",
    "phoneUnformatted": "+918220218599",
    "location": {
      "lat": 8.6995118,
      "lng": 77.7254934
    },
    "totalScore": 4.6,
    "permanentlyClosed": false,
    "temporarilyClosed": false,
    "placeId": "ChIJidb_j4sRBDsRH8Z60sSd3yw",
    "categories": [
      "Car stereo store",
      "Car accessories store",
      "Seat dealer"
    ],
    "reviewsCount": 167,
    "imagesCount": 1285,
    "openingHours": [
      {
        "day": "Monday",
        "hours": "9 AM to 9 PM"
      },
      {
        "day": "Tuesday",
        "hours": "9 AM to 9 PM"
      },
      {
        "day": "Wednesday",
        "hours": "9 AM to 9 PM"
      },
      {
        "day": "Thursday",
        "hours": "9 AM to 9 PM"
      },
      {
        "day": "Friday",
        "hours": "9 AM to 9 PM"
      },
      {
        "day": "Saturday",
        "hours": "9 AM to 9 PM"
      },
      {
        "day": "Sunday",
        "hours": "10:30 AM to 5 PM"
      }
    ],
    "imageUrl": "https://media.indianluxurycars.com/google/1e2880c8d8bec1bcd3c9f97939384e97f884ff28517dfbc29a38b88302d01458.jpg",
    "url": "https://www.google.com/maps/search/?api=1&query=NEW%20CAR%20SEAT%20COVERS&query_place_id=ChIJidb_j4sRBDsRH8Z60sSd3yw"
  },
  {
    "title": "NEXA (Aadhi Maruti, Tirunelveli, Vannarapettai)",
    "subTitle": "நெக்சா (ஆதி மாருதி, திருநெல்வேலி, வண்ணாரப்பேட்டை)",
    "categoryName": "Car dealer",
    "address": "3A, 82, S Bypass Rd, Vannarpettai, Tirunelveli, Tamil Nadu 627003, India",
    "neighborhood": "Vannarpettai",
    "street": "3A, 82, S Bypass Rd",
    "city": "Tirunelveli",
    "postalCode": "627003",
    "state": "Tamil Nadu",
    "countryCode": "IN",
    "website": "https://www.nexaoftirunelvelicentral.com/?utm_source=gmb&utm_medium=google",
    "phone": "+918062510149",
    "phoneUnformatted": "+918062510149",
    "location": {
      "lat": 8.7226353,
      "lng": 77.7217271
    },
    "totalScore": 4.4,
    "permanentlyClosed": false,
    "temporarilyClosed": false,
    "placeId": "ChIJ924cLiASBDsRlxPs0JLHcFY",
    "categories": [
      "Car dealer"
    ],
    "reviewsCount": 536,
    "imagesCount": 173,
    "openingHours": [
      {
        "day": "Monday",
        "hours": "9 AM to 7 PM"
      },
      {
        "day": "Tuesday",
        "hours": "9 AM to 7 PM"
      },
      {
        "day": "Wednesday",
        "hours": "9 AM to 7 PM"
      },
      {
        "day": "Thursday",
        "hours": "9 AM to 7 PM"
      },
      {
        "day": "Friday",
        "hours": "9 AM to 7 PM"
      },
      {
        "day": "Saturday",
        "hours": "9 AM to 7 PM"
      },
      {
        "day": "Sunday",
        "hours": "9 AM to 7 PM"
      }
    ],
    "imageUrl": "https://media.indianluxurycars.com/google/dee0ceb168bdf061d304e04f4d2f8a6b51d7a10bfc567d33082c5fc238662684.jpg",
    "url": "https://www.google.com/maps/search/?api=1&query=NEXA%20(Aadhi%20Maruti%2C%20Tirunelveli%2C%20Vannarapettai)&query_place_id=ChIJ924cLiASBDsRlxPs0JLHcFY"
  },
  {
    "title": "Robin Cars",
    "subTitle": "ராபின் கார்ஸ்",
    "categoryName": "Used car dealer",
    "address": "P, No: 2, S Bypass Rd, near Jesus comes, Xavier Colony, Tirunelveli, Tamil Nadu 627005, India",
    "neighborhood": "Xavier Colony",
    "street": "P, No: 2, S Bypass Rd, near Jesus comes",
    "city": "Tirunelveli",
    "postalCode": "627005",
    "state": "Tamil Nadu",
    "countryCode": "IN",
    "phone": "+919488192939",
    "phoneUnformatted": "+919488192939",
    "location": {
      "lat": 8.7016043,
      "lng": 77.7226795
    },
    "totalScore": 4.6,
    "permanentlyClosed": false,
    "temporarilyClosed": false,
    "placeId": "ChIJNScVR4sRBDsRplO7BQ5ue3g",
    "categories": [
      "Used car dealer"
    ],
    "reviewsCount": 108,
    "imagesCount": 27,
    "openingHours": [
      {
        "day": "Monday",
        "hours": "9 AM to 10 PM"
      },
      {
        "day": "Tuesday",
        "hours": "9 AM to 10 PM"
      },
      {
        "day": "Wednesday",
        "hours": "9 AM to 10 PM"
      },
      {
        "day": "Thursday",
        "hours": "9 AM to 10 PM"
      },
      {
        "day": "Friday",
        "hours": "9 AM to 10 PM"
      },
      {
        "day": "Saturday",
        "hours": "9 AM to 10 PM"
      },
      {
        "day": "Sunday",
        "hours": "9 AM to 10 PM"
      }
    ],
    "imageUrl": "https://media.indianluxurycars.com/google/93e2ab0fe7d3fc447f24b063af7730fe904b2348dd5f1820361ae03dfea0662b.jpg",
    "url": "https://www.google.com/maps/search/?api=1&query=Robin%20Cars&query_place_id=ChIJNScVR4sRBDsRplO7BQ5ue3g"
  },
  {
    "title": "ROBINCARS NEW SHOWROOM",
    "categoryName": "Used car dealer",
    "address": "PP3C+G3V, North Bypass road, Veeramanikapuram, Tirunelveli, Tamil Nadu 627005, India",
    "neighborhood": "Veeramanikapuram",
    "street": "PP3C+G3V, North Bypass road",
    "city": "Tirunelveli",
    "postalCode": "627005",
    "state": "Tamil Nadu",
    "countryCode": "IN",
    "website": "http://www.robincars.in/",
    "location": {
      "lat": 8.7038514,
      "lng": 77.7201622
    },
    "totalScore": 4.9,
    "permanentlyClosed": false,
    "temporarilyClosed": false,
    "placeId": "ChIJc-SddgATBDsRNTlBBF54YWQ",
    "categories": [
      "Used car dealer"
    ],
    "reviewsCount": 8,
    "imagesCount": 4,
    "openingHours": [
      {
        "day": "Monday",
        "hours": "9 AM to 10 PM"
      },
      {
        "day": "Tuesday",
        "hours": "9 AM to 10 PM"
      },
      {
        "day": "Wednesday",
        "hours": "9 AM to 10 PM"
      },
      {
        "day": "Thursday",
        "hours": "9 AM to 10 PM"
      },
      {
        "day": "Friday",
        "hours": "9 AM to 10 PM"
      },
      {
        "day": "Saturday",
        "hours": "9 AM to 10 PM"
      },
      {
        "day": "Sunday",
        "hours": "9 AM to 10 PM"
      }
    ],
    "imageUrl": "https://media.indianluxurycars.com/google/9fcbd962e816b023829197ea8b8802ea6ca11ce8c37fa935576347c35ec37178.jpg",
    "url": "https://www.google.com/maps/search/?api=1&query=ROBINCARS%20NEW%20SHOWROOM&query_place_id=ChIJc-SddgATBDsRNTlBBF54YWQ"
  },
  {
    "title": "RR self drive cars (RABHIRAM CARRENTALS PRIVATE LIMITED)",
    "categoryName": "Car leasing service",
    "address": "Old OLX auto, Ambai Rd, Kulavanigarpuram, Shanthi Nagar, Tirunelveli, Tamil Nadu 627005, India",
    "neighborhood": "Kulavanigarpuram, Shanthi Nagar",
    "street": "Old OLX auto, Ambai Rd",
    "city": "Tirunelveli",
    "postalCode": "627005",
    "state": "Tamil Nadu",
    "countryCode": "IN",
    "website": "https://rabhiram.com/",
    "phone": "+919791720689",
    "phoneUnformatted": "+919791720689",
    "location": {
      "lat": 8.7077505,
      "lng": 77.7262289
    },
    "totalScore": 4.9,
    "permanentlyClosed": false,
    "temporarilyClosed": false,
    "placeId": "ChIJP0aZAEsTBDsRcJxVZzY7ET4",
    "categories": [
      "Car leasing service"
    ],
    "reviewsCount": 609,
    "imagesCount": 30,
    "openingHours": [
      {
        "day": "Monday",
        "hours": "Open 24 hours"
      },
      {
        "day": "Tuesday",
        "hours": "Open 24 hours"
      },
      {
        "day": "Wednesday",
        "hours": "Open 24 hours"
      },
      {
        "day": "Thursday",
        "hours": "Open 24 hours"
      },
      {
        "day": "Friday",
        "hours": "Open 24 hours"
      },
      {
        "day": "Saturday",
        "hours": "Open 24 hours"
      },
      {
        "day": "Sunday",
        "hours": "Open 24 hours"
      }
    ],
    "imageUrl": "https://media.indianluxurycars.com/google/37c014bdd7413135541515c4fc8b290862dd9fda705a3552d6da134919a98616.jpg",
    "url": "https://www.google.com/maps/search/?api=1&query=RR%20self%20drive%20cars%20(RABHIRAM%20CARRENTALS%20PRIVATE%20LIMITED)&query_place_id=ChIJP0aZAEsTBDsRcJxVZzY7ET4"
  },
  {
    "title": "Selva Cabs",
    "categoryName": "Car rental agency",
    "address": "92E/1, Old Pillayar Kovil Street, Sankar Nagar Tirunelveli 627 357, Tirunelveli, Tamil Nadu 627006, India",
    "neighborhood": "Kodeeswaran Nagar",
    "street": "92E/1, Old Pillayar Kovil Street, Sankar Nagar Tirunelveli 627 357",
    "city": "Tirunelveli",
    "postalCode": "627006",
    "state": "Tamil Nadu",
    "countryCode": "IN",
    "website": "http://selvacabs.com/",
    "phone": "+919952299127",
    "phoneUnformatted": "+919952299127",
    "location": {
      "lat": 8.725436,
      "lng": 77.6754292
    },
    "totalScore": 4.9,
    "permanentlyClosed": false,
    "temporarilyClosed": false,
    "placeId": "ChIJP4SLbGARBDsR0N8WhFqtR0g",
    "categories": [
      "Car rental agency",
      "Bus tour agency",
      "Car leasing service",
      "Taxi service",
      "Tour operator",
      "Transportation service",
      "Travel agency"
    ],
    "reviewsCount": 147,
    "imagesCount": 41,
    "openingHours": [],
    "imageUrl": "https://media.indianluxurycars.com/google/102aefe0c30b2140d581f72b97c7251a98792db9ceb1af9b567a167685ddcc9a.jpg",
    "url": "https://www.google.com/maps/search/?api=1&query=Selva%20Cabs&query_place_id=ChIJP4SLbGARBDsR0N8WhFqtR0g"
  },
  {
    "title": "Shiv Cabs",
    "categoryName": "Car rental agency",
    "address": "T.S.MNO 75, 1A1A, STC College Rd, near Aruvi bakery, Vasantha Nager, Tirunelveli, Tamil Nadu 627007, India",
    "neighborhood": "Vasantha Nager",
    "street": "T.S.MNO 75, 1A1A, STC College Rd, near Aruvi bakery",
    "city": "Tirunelveli",
    "postalCode": "627007",
    "state": "Tamil Nadu",
    "countryCode": "IN",
    "website": "http://www.shivtnt.com/",
    "phone": "+918300229527",
    "phoneUnformatted": "+918300229527",
    "location": {
      "lat": 8.6987747,
      "lng": 77.7372
    },
    "totalScore": 4.9,
    "permanentlyClosed": false,
    "temporarilyClosed": false,
    "placeId": "ChIJTXvyO_8RBDsRgaIv--2TrqI",
    "categories": [
      "Car rental agency",
      "Car leasing service",
      "Taxi service",
      "Event planner",
      "Minibus taxi service",
      "Sightseeing tour agency",
      "Tour agency",
      "Tour operator",
      "Travel agency",
      "Van rental agency"
    ],
    "reviewsCount": 208,
    "imagesCount": 107,
    "openingHours": [],
    "imageUrl": "https://media.indianluxurycars.com/google/1595af74942335b90156092c6aef4f7792aaf6421bec02475c681f4afcfc3993.jpg",
    "url": "https://www.google.com/maps/search/?api=1&query=Shiv%20Cabs&query_place_id=ChIJTXvyO_8RBDsRgaIv--2TrqI"
  },
  {
    "title": "SI Cars Tirunelveli",
    "categoryName": "Used car dealer",
    "address": "123A, 42 Tiruvanthapuram road, Palayamkottai, Tirunelveli, Tamil Nadu 627002, India",
    "neighborhood": "Palayamkottai",
    "street": "123A, 42 Tiruvanthapuram road",
    "city": "Tirunelveli",
    "postalCode": "627002",
    "state": "Tamil Nadu",
    "countryCode": "IN",
    "phone": "+916383462492",
    "phoneUnformatted": "+916383462492",
    "location": {
      "lat": 8.7226508,
      "lng": 77.7315613
    },
    "totalScore": 5,
    "permanentlyClosed": false,
    "temporarilyClosed": false,
    "placeId": "ChIJj7Vh77wTBDsROI2ocA_kMZY",
    "categories": [
      "Used car dealer"
    ],
    "reviewsCount": 1,
    "imagesCount": 23,
    "openingHours": [
      {
        "day": "Monday",
        "hours": "9:30 AM to 9:30 PM"
      },
      {
        "day": "Tuesday",
        "hours": "9:30 AM to 9:30 PM"
      },
      {
        "day": "Wednesday",
        "hours": "9:30 AM to 9:30 PM"
      },
      {
        "day": "Thursday",
        "hours": "9:30 AM to 9:30 PM"
      },
      {
        "day": "Friday",
        "hours": "9:30 AM to 9:30 PM"
      },
      {
        "day": "Saturday",
        "hours": "9:30 AM to 9:30 PM"
      },
      {
        "day": "Sunday",
        "hours": "9:30 AM to 9:30 PM"
      }
    ],
    "imageUrl": "https://media.indianluxurycars.com/google/7682410e6bfd21ffba335075e76d5ccd6bbed039d1e4c204b502f7ef5879d0fb.jpg",
    "url": "https://www.google.com/maps/search/?api=1&query=SI%20Cars%20Tirunelveli&query_place_id=ChIJj7Vh77wTBDsROI2ocA_kMZY"
  },
  {
    "title": "SN Cars (Self Drive Rental Cars in Tirunelveli)",
    "categoryName": "Car leasing service",
    "address": "SN Cars, Kirubai Illam, Kundalakesi St, near JJ Apartment, Vannarpettai, Tirunelveli, Tamil Nadu 627003, India",
    "neighborhood": "Vannarpettai",
    "street": "SN Cars, Kirubai Illam, Kundalakesi St, near JJ Apartment",
    "city": "Tirunelveli",
    "postalCode": "627003",
    "state": "Tamil Nadu",
    "countryCode": "IN",
    "location": {
      "lat": 8.7335058,
      "lng": 77.7218805
    },
    "totalScore": 4.9,
    "permanentlyClosed": false,
    "temporarilyClosed": false,
    "placeId": "ChIJKy_vDpoRBDsRjt74XvP1mMk",
    "categories": [
      "Car leasing service"
    ],
    "reviewsCount": 7,
    "imagesCount": 4,
    "openingHours": [
      {
        "day": "Monday",
        "hours": "Open 24 hours"
      },
      {
        "day": "Tuesday",
        "hours": "Open 24 hours"
      },
      {
        "day": "Wednesday",
        "hours": "Open 24 hours"
      },
      {
        "day": "Thursday",
        "hours": "Open 24 hours"
      },
      {
        "day": "Friday",
        "hours": "Open 24 hours"
      },
      {
        "day": "Saturday",
        "hours": "Open 24 hours"
      },
      {
        "day": "Sunday",
        "hours": "Open 24 hours"
      }
    ],
    "imageUrl": "https://media.indianluxurycars.com/google/13f86191d07bd3783f56523820ce7a65e034277a25a405fe218898d34ca9201c.jpg",
    "url": "https://www.google.com/maps/search/?api=1&query=SN%20Cars%20(Self%20Drive%20Rental%20Cars%20in%20Tirunelveli)&query_place_id=ChIJKy_vDpoRBDsRjt74XvP1mMk"
  },
  {
    "title": "Sri Lakshmi Cars",
    "subTitle": "ஸ்ரீ லட்சுமி கார்கள்",
    "categoryName": "Used car dealer",
    "address": "PP39+HX5, South Bye Pass Road, Veeramanikapuram, Jeba Nagar, Tirunelveli, Tamil Nadu 627005, India",
    "neighborhood": "Veeramanikapuram, Jeba Nagar",
    "street": "PP39+HX5, South Bye Pass Road",
    "city": "Tirunelveli",
    "postalCode": "627005",
    "state": "Tamil Nadu",
    "countryCode": "IN",
    "phone": "+919488705409",
    "phoneUnformatted": "+919488705409",
    "location": {
      "lat": 8.7038871,
      "lng": 77.7199815
    },
    "totalScore": 3.4,
    "permanentlyClosed": false,
    "temporarilyClosed": false,
    "placeId": "ChIJz991pT8SBDsRlbv_NK8COoM",
    "categories": [
      "Used car dealer"
    ],
    "reviewsCount": 5,
    "imagesCount": 5,
    "openingHours": [
      {
        "day": "Monday",
        "hours": "9 AM to 9:30 PM"
      },
      {
        "day": "Tuesday",
        "hours": "9 AM to 9:30 PM"
      },
      {
        "day": "Wednesday",
        "hours": "9 AM to 9:30 PM"
      },
      {
        "day": "Thursday",
        "hours": "9 AM to 9:30 PM"
      },
      {
        "day": "Friday",
        "hours": "9 AM to 9:30 PM"
      },
      {
        "day": "Saturday",
        "hours": "9 AM to 9:30 PM"
      },
      {
        "day": "Sunday",
        "hours": "Closed"
      }
    ],
    "imageUrl": "https://media.indianluxurycars.com/google/73618297cd855e604b0505ffbdeefc1b7a738f819b7e1755e608079966a26933.jpg",
    "url": "https://www.google.com/maps/search/?api=1&query=Sri%20Lakshmi%20Cars&query_place_id=ChIJz991pT8SBDsRlbv_NK8COoM"
  },
  {
    "title": "SRI VENKATESHWARA TRAVELS (Car Van rental in Tirunelveli, Cabs in Tirunelveli, Travels in Tirunelveli)",
    "categoryName": "Car leasing service",
    "address": "14, 121, 7th main road, Perumalpuram, Palayamkottai, Tirunelveli, Tamil Nadu 627007, India",
    "neighborhood": "Perumalpuram, Palayamkottai",
    "street": "14, 121, 7th main road",
    "city": "Tirunelveli",
    "postalCode": "627007",
    "state": "Tamil Nadu",
    "countryCode": "IN",
    "website": "http://www.srivenkateshwaratravels.com/",
    "phone": "+919843153320",
    "phoneUnformatted": "+919843153320",
    "location": {
      "lat": 8.7043389,
      "lng": 77.7363212
    },
    "totalScore": 4.9,
    "permanentlyClosed": false,
    "temporarilyClosed": false,
    "placeId": "ChIJHf67uskPBDsRSLRFw2IMb7w",
    "categories": [
      "Car leasing service",
      "Travel agency",
      "Van rental agency"
    ],
    "reviewsCount": 23,
    "imagesCount": 32,
    "openingHours": [
      {
        "day": "Monday",
        "hours": "Open 24 hours"
      },
      {
        "day": "Tuesday",
        "hours": "Open 24 hours"
      },
      {
        "day": "Wednesday",
        "hours": "Open 24 hours"
      },
      {
        "day": "Thursday",
        "hours": "Open 24 hours"
      },
      {
        "day": "Friday",
        "hours": "Open 24 hours"
      },
      {
        "day": "Saturday",
        "hours": "Open 24 hours"
      },
      {
        "day": "Sunday",
        "hours": "Open 24 hours"
      }
    ],
    "imageUrl": "https://media.indianluxurycars.com/google/82705ed45c8057033220ef856b792729c1dcc80bc2aa9ea03a6a4cc4f2400234.jpg",
    "url": "https://www.google.com/maps/search/?api=1&query=SRI%20VENKATESHWARA%20TRAVELS%20(Car%20Van%20rental%20in%20Tirunelveli%2C%20Cabs%20in%20Tirunelveli%2C%20Travels%20in%20Tirunelveli)&query_place_id=ChIJHf67uskPBDsRSLRFw2IMb7w"
  },
  {
    "title": "Thamirabarani Cars",
    "categoryName": "Used car dealer",
    "address": "Main Road, Kulavanigarpuram, Melapalayam, Tirunelveli, Tamil Nadu 627005, India",
    "neighborhood": "Kulavanigarpuram, Melapalayam",
    "street": "Main Road",
    "city": "Tirunelveli",
    "postalCode": "627005",
    "state": "Tamil Nadu",
    "countryCode": "IN",
    "phone": "+918610768276",
    "phoneUnformatted": "+918610768276",
    "location": {
      "lat": 8.7074137,
      "lng": 77.7218546
    },
    "totalScore": 4.7,
    "permanentlyClosed": false,
    "temporarilyClosed": false,
    "placeId": "ChIJd-ZhfioTBDsRnphBnvqk7TI",
    "categories": [
      "Used car dealer"
    ],
    "reviewsCount": 3,
    "imagesCount": 11,
    "openingHours": [
      {
        "day": "Monday",
        "hours": "9:30 AM to 9:30 PM"
      },
      {
        "day": "Tuesday",
        "hours": "9:30 AM to 9:30 PM"
      },
      {
        "day": "Wednesday",
        "hours": "9:30 AM to 9:30 PM"
      },
      {
        "day": "Thursday",
        "hours": "9:30 AM to 9:30 PM"
      },
      {
        "day": "Friday",
        "hours": "9:30 AM to 9:30 PM"
      },
      {
        "day": "Saturday",
        "hours": "9:30 AM to 9:30 PM"
      },
      {
        "day": "Sunday",
        "hours": "Closed"
      }
    ],
    "imageUrl": "https://media.indianluxurycars.com/google/c8ea6b95f415058e91b79797edcce297a665c26e2a5e7a58919ec69696f78aad.jpg",
    "url": "https://www.google.com/maps/search/?api=1&query=Thamirabarani%20Cars&query_place_id=ChIJd-ZhfioTBDsRnphBnvqk7TI"
  },
  {
    "title": "Tirunelveli Cabs | Cabs in Tirunelveli | Call Taxi in Nellai | Cab Rental Service | Tourist Bus Travels",
    "categoryName": "Car rental agency",
    "address": "3 A, Sarvanjanam Street, Palayamkottai, Tirunelveli, Tamil Nadu 627002, India",
    "neighborhood": "Palayamkottai",
    "street": "3 A, Sarvanjanam Street",
    "city": "Tirunelveli",
    "postalCode": "627002",
    "state": "Tamil Nadu",
    "countryCode": "IN",
    "website": "https://tirunelvelicabs.com/",
    "phone": "+919600590461",
    "phoneUnformatted": "+919600590461",
    "location": {
      "lat": 8.7198949,
      "lng": 77.7344288
    },
    "totalScore": 5,
    "permanentlyClosed": false,
    "temporarilyClosed": false,
    "placeId": "ChIJ9xr8hbMTBDsRodb4XDEoqpw",
    "categories": [
      "Car rental agency",
      "Bus tour agency",
      "Car leasing service",
      "Taxi service",
      "Minibus taxi service",
      "Sightseeing tour agency",
      "Transportation service",
      "Van rental agency"
    ],
    "reviewsCount": 42,
    "imagesCount": 113,
    "openingHours": [],
    "imageUrl": "https://media.indianluxurycars.com/google/401665883a0533fef2090c31bf4801f65a3f6ec22471e0c4f12d9755e0318a74.jpg",
    "url": "https://www.google.com/maps/search/?api=1&query=Tirunelveli%20Cabs%20%7C%20Cabs%20in%20Tirunelveli%20%7C%20Call%20Taxi%20in%20Nellai%20%7C%20Cab%20Rental%20Service%20%7C%20Tourist%20Bus%20Travels&query_place_id=ChIJ9xr8hbMTBDsRodb4XDEoqpw"
  },
  {
    "title": "Valarmathi cabs & Corporate services",
    "categoryName": "Car rental agency",
    "address": "Plot no 24, sangeetha nagar, Vannarpettai, Tirunelveli, Tamil Nadu 627001, India",
    "neighborhood": "sangeetha nagar, Vannarpettai",
    "street": "Plot no 24",
    "city": "Tirunelveli",
    "postalCode": "627001",
    "state": "Tamil Nadu",
    "countryCode": "IN",
    "website": "http://www.valarmathicabs.com/",
    "phone": "+918668192099",
    "phoneUnformatted": "+918668192099",
    "location": {
      "lat": 8.7296095,
      "lng": 77.7103188
    },
    "totalScore": 4.9,
    "permanentlyClosed": false,
    "temporarilyClosed": false,
    "placeId": "ChIJubrx4ZsRBDsRpHBr7Alvjtw",
    "categories": [
      "Car rental agency",
      "Bus tour agency",
      "Van rental agency",
      "Tour operator",
      "Transportation service"
    ],
    "reviewsCount": 78,
    "imagesCount": 31,
    "openingHours": [
      {
        "day": "Monday",
        "hours": "Open 24 hours"
      },
      {
        "day": "Tuesday",
        "hours": "Open 24 hours"
      },
      {
        "day": "Wednesday",
        "hours": "Open 24 hours"
      },
      {
        "day": "Thursday",
        "hours": "Open 24 hours"
      },
      {
        "day": "Friday",
        "hours": "Open 24 hours"
      },
      {
        "day": "Saturday",
        "hours": "Open 24 hours"
      },
      {
        "day": "Sunday",
        "hours": "Open 24 hours"
      }
    ],
    "imageUrl": "https://media.indianluxurycars.com/google/543b7f3f2dcaeee58057556aa4861fefc88ebdc71bc1e96e0a0518921e5d840b.jpg",
    "url": "https://www.google.com/maps/search/?api=1&query=Valarmathi%20cabs%20%26%20Corporate%20services&query_place_id=ChIJubrx4ZsRBDsRpHBr7Alvjtw"
  },
  {
    "title": "VVR Car Care",
    "subTitle": "விவிஆர் கார் கேர்",
    "categoryName": "Car wash",
    "address": "No-5, Kamaraj St, Xavier Colony, Tirunelveli, Tamil Nadu 627005, India",
    "neighborhood": "Xavier Colony",
    "street": "No-5, Kamaraj St",
    "city": "Tirunelveli",
    "postalCode": "627005",
    "state": "Tamil Nadu",
    "countryCode": "IN",
    "website": "https://www.vvrcarcare.in/",
    "phone": "+919514140203",
    "phoneUnformatted": "+919514140203",
    "location": {
      "lat": 8.6974663,
      "lng": 77.7239053
    },
    "totalScore": 4.8,
    "permanentlyClosed": false,
    "temporarilyClosed": false,
    "placeId": "ChIJHy1UVlETBDsR7-4L4vlotgo",
    "categories": [
      "Car wash",
      "Car accessories store"
    ],
    "reviewsCount": 84,
    "imagesCount": 337,
    "openingHours": [
      {
        "day": "Monday",
        "hours": "9:30 AM to 7 PM"
      },
      {
        "day": "Tuesday",
        "hours": "9:30 AM to 7 PM"
      },
      {
        "day": "Wednesday",
        "hours": "9:30 AM to 7 PM"
      },
      {
        "day": "Thursday",
        "hours": "9:30 AM to 7 PM"
      },
      {
        "day": "Friday",
        "hours": "9:30 AM to 8 PM"
      },
      {
        "day": "Saturday",
        "hours": "9:30 AM to 8 PM"
      },
      {
        "day": "Sunday",
        "hours": "Closed"
      }
    ],
    "imageUrl": "https://media.indianluxurycars.com/google/46aefe58d3d8b3e9fb14cf2c2b3864154daad633f1511398883f16850be871ef.jpg",
    "url": "https://www.google.com/maps/search/?api=1&query=VVR%20Car%20Care&query_place_id=ChIJHy1UVlETBDsR7-4L4vlotgo"
  }
]
