[
  {
    "title": "Ajay Taxi Services Ujjain | Best Cab and Outstation Taxi Ujjain",
    "subTitle": "अजय टैक्सी सर्विसेस उज्जैन | बेस्ट कैब एंड आउटस्टेशन टैक्सी उज्जैन",
    "categoryName": "Car rental agency",
    "address": "Atal Kamal Parisar, 11-12, Gali No 6, Shastri Nagar, Ujjain, Madhya Pradesh 456010, India",
    "neighborhood": "Shastri Nagar",
    "street": "Atal Kamal Parisar, 11-12, Gali No 6",
    "city": "Ujjain",
    "postalCode": "456010",
    "state": "Madhya Pradesh",
    "countryCode": "IN",
    "website": "https://ajaytaxiservices.com/",
    "location": {
      "lat": 23.1601306,
      "lng": 75.7845496
    },
    "totalScore": 4.7,
    "permanentlyClosed": false,
    "temporarilyClosed": false,
    "placeId": "ChIJRbGecg6abGQRMylnlk_AOeo",
    "categories": [
      "Car rental agency",
      "Airport shuttle service",
      "Bus tour agency",
      "Car leasing service",
      "Taxi service",
      "Minibus taxi service"
    ],
    "reviewsCount": 90,
    "imagesCount": 9,
    "openingHours": [],
    "imageUrl": "https://lh3.googleusercontent.com/p/AF1QipOMyW5tXc5kGcK-phdOX2BLKD4WqodyN2TJg6hi=w530-h240-k-no",
    "url": "https://www.google.com/maps/search/?api=1&query=Ajay%20Taxi%20Services%20Ujjain%20%7C%20Best%20Cab%20and%20Outstation%20Taxi%20Ujjain&query_place_id=ChIJRbGecg6abGQRMylnlk_AOeo"
  },
  {
    "title": "Car rental ujjain",
    "subTitle": "कार रेंटल उज्जैन",
    "categoryName": "Car leasing service",
    "address": "5QPM+FFJ, Ujjain - Agar Rd, Malipura, Ujjain, Madhya Pradesh 456001, India",
    "neighborhood": "Malipura",
    "street": "5QPM+FFJ, Ujjain - Agar Rd",
    "city": "Ujjain",
    "postalCode": "456001",
    "state": "Madhya Pradesh",
    "countryCode": "IN",
    "website": "http://www.indorecartaxi.com/",
    "location": {
      "lat": 23.1862151,
      "lng": 75.7836353
    },
    "totalScore": 3,
    "permanentlyClosed": false,
    "temporarilyClosed": false,
    "placeId": "ChIJ8ea9OMV1YzkRDSXA37pG6Dc",
    "categories": [
      "Car leasing service"
    ],
    "reviewsCount": 2,
    "imagesCount": 8,
    "openingHours": [
      {
        "day": "Monday",
        "hours": "Open 24 hours"
      },
      {
        "day": "Tuesday",
        "hours": "Open 24 hours"
      },
      {
        "day": "Wednesday",
        "hours": "Open 24 hours"
      },
      {
        "day": "Thursday",
        "hours": "Open 24 hours"
      },
      {
        "day": "Friday",
        "hours": "Open 24 hours"
      },
      {
        "day": "Saturday",
        "hours": "Open 24 hours"
      },
      {
        "day": "Sunday",
        "hours": "Open 24 hours"
      }
    ],
    "imageUrl": "https://lh3.googleusercontent.com/gps-cs-s/AG0ilSz2NrWxr2-YzVeRxdMKSbdx4LwJ48I_thsfrak1ykoTuC3oULiu_mH0BCd0sxoTiPQB37zdINulpH5Njd8G1S7vEHbSzhVCsBB7GR54w6R_VR7o1fLv6sFsXIuPfLN-fTGfRfI=w408-h725-k-no",
    "url": "https://www.google.com/maps/search/?api=1&query=Car%20rental%20ujjain&query_place_id=ChIJ8ea9OMV1YzkRDSXA37pG6Dc"
  },
  {
    "title": "Chajju Taxi",
    "subTitle": "छज्जू टैक्सी",
    "categoryName": "Car rental agency",
    "address": "Shop No.2, Dewas Gate Bus Stand Parisar, Madhya Pradesh 456001, India",
    "neighborhood": "Malipura",
    "street": "Shop No.2, Dewas Gate Bus Stand Parisar",
    "city": "Ujjain",
    "postalCode": "456001",
    "state": "Madhya Pradesh",
    "countryCode": "IN",
    "website": "https://chajjutaxi.com/",
    "phone": "+919522222208",
    "phoneUnformatted": "+919522222208",
    "location": {
      "lat": 23.1812081,
      "lng": 75.7822235
    },
    "totalScore": 4.3,
    "permanentlyClosed": false,
    "temporarilyClosed": false,
    "placeId": "ChIJjb2hXcZ1YzkRpF95jd0jmqU",
    "categories": [
      "Car rental agency",
      "Bus tour agency",
      "Car leasing service",
      "Taxi service",
      "Minibus taxi service",
      "Tour agency",
      "Tour operator",
      "Tourist information center",
      "Travel agency"
    ],
    "reviewsCount": 341,
    "imagesCount": 151,
    "openingHours": [],
    "imageUrl": "https://lh3.googleusercontent.com/p/AF1QipOyswYd1TnSpbySupa6-odv3ZZL7GamlHGfpiOm=w408-h408-k-no",
    "url": "https://www.google.com/maps/search/?api=1&query=Chajju%20Taxi&query_place_id=ChIJjb2hXcZ1YzkRpF95jd0jmqU"
  },
  {
    "title": "Gaurav Travels - Luxury AC Bus | Tempo Traveller | 52 Seater Bus Available On Hire | Buses For Group Booking",
    "subTitle": "गौरव यात्रा",
    "categoryName": "Car rental agency",
    "address": "Shop No. 4, Rain Basera Lodge, Railway Station Rd, Dudh Talai, Malipura, Ujjain, Madhya Pradesh 456001, India",
    "neighborhood": "Dudh Talai, Malipura",
    "street": "Shop No. 4, Rain Basera Lodge, Railway Station Rd",
    "city": "Ujjain",
    "postalCode": "456001",
    "state": "Madhya Pradesh",
    "countryCode": "IN",
    "website": "https://gauravtravels.in/",
    "phone": "+919685899199",
    "phoneUnformatted": "+919685899199",
    "location": {
      "lat": 23.1796407,
      "lng": 75.7801016
    },
    "totalScore": 3.9,
    "permanentlyClosed": false,
    "temporarilyClosed": false,
    "placeId": "ChIJkSNR_UB0YzkRUEt9DZcOCxk",
    "categories": [
      "Car rental agency",
      "Bus ticket agency",
      "Bus tour agency",
      "Travel agency",
      "Minibus taxi service",
      "Taxi service",
      "Tour operator"
    ],
    "reviewsCount": 46,
    "imagesCount": 41,
    "openingHours": [
      {
        "day": "Monday",
        "hours": "Open 24 hours"
      },
      {
        "day": "Tuesday",
        "hours": "Open 24 hours"
      },
      {
        "day": "Wednesday",
        "hours": "Open 24 hours"
      },
      {
        "day": "Thursday",
        "hours": "Open 24 hours"
      },
      {
        "day": "Friday",
        "hours": "Open 24 hours"
      },
      {
        "day": "Saturday",
        "hours": "Open 24 hours"
      },
      {
        "day": "Sunday",
        "hours": "Open 24 hours"
      }
    ],
    "imageUrl": "https://lh3.googleusercontent.com/p/AF1QipOlUz6Rs_qjxkQELJS-kXCeDxJruX4ITXKhTR5q=w408-h306-k-no",
    "url": "https://www.google.com/maps/search/?api=1&query=Gaurav%20Travels%20-%20Luxury%20AC%20Bus%20%7C%20Tempo%20Traveller%20%7C%2052%20Seater%20Bus%20Available%20On%20Hire%20%7C%20Buses%20For%20Group%20Booking&query_place_id=ChIJkSNR_UB0YzkRUEt9DZcOCxk"
  },
  {
    "title": "Jain Tour & Travels",
    "subTitle": "जैन टूर & ट्रैवल्स",
    "categoryName": "Car rental agency",
    "address": "gudari chouraha, Gopal mandir road, near mahakal temple, Harsiddhi Gate, Ujjain, Madhya Pradesh 456006, India",
    "neighborhood": "Harsiddhi Gate",
    "street": "gudari chouraha, Gopal mandir road, near mahakal temple",
    "city": "Ujjain",
    "postalCode": "456006",
    "state": "Madhya Pradesh",
    "countryCode": "IN",
    "phone": "+917000700279",
    "phoneUnformatted": "+917000700279",
    "location": {
      "lat": 23.1847572,
      "lng": 75.7711471
    },
    "totalScore": 4,
    "permanentlyClosed": false,
    "temporarilyClosed": false,
    "placeId": "ChIJbRqkTIB1YzkRJlYkgsaEuoU",
    "categories": [
      "Car rental agency",
      "Travel agency",
      "Taxi service"
    ],
    "reviewsCount": 5,
    "imagesCount": 3,
    "openingHours": [
      {
        "day": "Monday",
        "hours": "Open 24 hours"
      },
      {
        "day": "Tuesday",
        "hours": "Open 24 hours"
      },
      {
        "day": "Wednesday",
        "hours": "Open 24 hours"
      },
      {
        "day": "Thursday",
        "hours": "Open 24 hours"
      },
      {
        "day": "Friday",
        "hours": "Open 24 hours"
      },
      {
        "day": "Saturday",
        "hours": "Open 24 hours"
      },
      {
        "day": "Sunday",
        "hours": "Open 24 hours"
      }
    ],
    "imageUrl": "https://streetviewpixels-pa.googleapis.com/v1/thumbnail?panoid=JRz-CaipWAFsff5B23E9Sg&cb_client=search.gws-prod.gps&w=408&h=240&yaw=164.56001&pitch=0&thumbfov=100",
    "url": "https://www.google.com/maps/search/?api=1&query=Jain%20Tour%20%26%20Travels&query_place_id=ChIJbRqkTIB1YzkRJlYkgsaEuoU"
  },
  {
    "title": "Mahakal Tour & Travels | Car Rental | Cab Booking in Ujjain",
    "subTitle": "महाकाल टूर & ट्रैवल्स | कार रेंटल | कैब बुकिंग इन उज्जैन",
    "categoryName": "Car leasing service",
    "address": "MIG-ll 46, Agar Rd, Indira Nagar, Ujjain, Madhya Pradesh 456001, India",
    "neighborhood": "Indira Nagar",
    "street": "MIG-ll 46, Agar Rd",
    "city": "Ujjain",
    "postalCode": "456001",
    "state": "Madhya Pradesh",
    "countryCode": "IN",
    "website": "https://mahakaltourtravels.com/",
    "phone": "+919109282779",
    "phoneUnformatted": "+919109282779",
    "location": {
      "lat": 23.2059815,
      "lng": 75.7846627
    },
    "totalScore": 4.9,
    "permanentlyClosed": false,
    "temporarilyClosed": false,
    "placeId": "ChIJAzeWnaF1YzkRxFI20XIb7-o",
    "categories": [
      "Car leasing service"
    ],
    "reviewsCount": 370,
    "imagesCount": 28,
    "openingHours": [
      {
        "day": "Monday",
        "hours": "Open 24 hours"
      },
      {
        "day": "Tuesday",
        "hours": "Open 24 hours"
      },
      {
        "day": "Wednesday",
        "hours": "Open 24 hours"
      },
      {
        "day": "Thursday",
        "hours": "Open 24 hours"
      },
      {
        "day": "Friday",
        "hours": "Open 24 hours"
      },
      {
        "day": "Saturday",
        "hours": "Open 24 hours"
      },
      {
        "day": "Sunday",
        "hours": "Open 24 hours"
      }
    ],
    "imageUrl": "https://lh3.googleusercontent.com/p/AF1QipMxfDpr8O1mHGDtNQyk5_VYErVki3Szip1In79e=w408-h293-k-no",
    "url": "https://www.google.com/maps/search/?api=1&query=Mahakal%20Tour%20%26%20Travels%20%7C%20Car%20Rental%20%7C%20Cab%20Booking%20in%20Ujjain&query_place_id=ChIJAzeWnaF1YzkRxFI20XIb7-o"
  },
  {
    "title": "MAHAKALESHWAR MOTORS",
    "subTitle": "महाकालेश्वर मोटर्स",
    "categoryName": "Car dealer",
    "address": "naka no 5, Agar, Mangalnath Marg, Ujjain, Madhya Pradesh 456001, India",
    "neighborhood": "Ganesh Nagar",
    "street": "naka no 5, Agar, Mangalnath Marg",
    "city": "Ujjain",
    "postalCode": "456001",
    "state": "Madhya Pradesh",
    "countryCode": "IN",
    "phone": "+919827542121",
    "phoneUnformatted": "+919827542121",
    "location": {
      "lat": 23.2061745,
      "lng": 75.7898887
    },
    "totalScore": 5,
    "permanentlyClosed": false,
    "temporarilyClosed": false,
    "placeId": "ChIJEV6FWFl3YzkR28lZniOvXIk",
    "categories": [
      "Car dealer"
    ],
    "reviewsCount": 1,
    "imagesCount": 2,
    "openingHours": [
      {
        "day": "Monday",
        "hours": "9 AM to 12 AM"
      },
      {
        "day": "Tuesday",
        "hours": "12 to 8 AM, 10 AM to 8 PM"
      },
      {
        "day": "Wednesday",
        "hours": "10 AM to 8 PM"
      },
      {
        "day": "Thursday",
        "hours": "10 AM to 8 PM"
      },
      {
        "day": "Friday",
        "hours": "10 AM to 8 PM"
      },
      {
        "day": "Saturday",
        "hours": "10 AM to 8 PM"
      },
      {
        "day": "Sunday",
        "hours": "10 AM to 8 PM"
      }
    ],
    "imageUrl": "https://streetviewpixels-pa.googleapis.com/v1/thumbnail?panoid=TOff8htpBXSBB81vqEyf6A&cb_client=search.gws-prod.gps&w=408&h=240&yaw=273.7303&pitch=0&thumbfov=100",
    "url": "https://www.google.com/maps/search/?api=1&query=MAHAKALESHWAR%20MOTORS&query_place_id=ChIJEV6FWFl3YzkR28lZniOvXIk"
  },
  {
    "title": "Navkar Motors",
    "subTitle": "नवकार मोटर्स",
    "categoryName": "Used car dealer",
    "address": "8/A, Dashera Maidan, Near Old Hero Honda Showroom, Ujjain, Madhya Pradesh 456010, India",
    "neighborhood": "Madhav Nagar",
    "street": "8/A, Dashera Maidan, Near Old Hero Honda Showroom",
    "city": "Ujjain",
    "postalCode": "456010",
    "state": "Madhya Pradesh",
    "countryCode": "IN",
    "phone": "+919425332225",
    "phoneUnformatted": "+919425332225",
    "location": {
      "lat": 23.174024,
      "lng": 75.7941769
    },
    "totalScore": 4.5,
    "permanentlyClosed": false,
    "temporarilyClosed": false,
    "placeId": "ChIJxz-pxm90YzkRZP2KbbRhY60",
    "categories": [
      "Used car dealer"
    ],
    "reviewsCount": 22,
    "imagesCount": 12,
    "openingHours": [
      {
        "day": "Monday",
        "hours": "11 AM to 8 PM"
      },
      {
        "day": "Tuesday",
        "hours": "11 AM to 8 PM"
      },
      {
        "day": "Wednesday",
        "hours": "11 AM to 8 PM"
      },
      {
        "day": "Thursday",
        "hours": "11 AM to 8 PM"
      },
      {
        "day": "Friday",
        "hours": "11 AM to 8 PM"
      },
      {
        "day": "Saturday",
        "hours": "11 AM to 8 PM"
      },
      {
        "day": "Sunday",
        "hours": "11 AM to 8 PM"
      }
    ],
    "imageUrl": "https://lh3.googleusercontent.com/gps-cs-s/AG0ilSzJ2o45bjOELoWUZSeaAGJ_A1j6Eu3XZF-WA5iqhg1ksgWzJjOW7vHTnBJjHRJyqhAFLWoCNJdzR1sf2eCVYNanz38PDvN9-eGbWqd3BlgVEa_Rn_HGyvtbPnkV2djsN3gBUYB8=w408-h544-k-no",
    "url": "https://www.google.com/maps/search/?api=1&query=Navkar%20Motors&query_place_id=ChIJxz-pxm90YzkRZP2KbbRhY60"
  },
  {
    "title": "OG Safe Journey",
    "subTitle": "ओग सेफ जर्नी",
    "categoryName": "Car rental agency",
    "address": "207/7, Shastri Nagar, Ujjain, Madhya Pradesh 456010, India",
    "neighborhood": "Shastri Nagar",
    "street": "207/7",
    "city": "Ujjain",
    "postalCode": "456010",
    "state": "Madhya Pradesh",
    "countryCode": "IN",
    "website": "https://ogsafejourney.com/",
    "phone": "+918889911189",
    "phoneUnformatted": "+918889911189",
    "location": {
      "lat": 23.1705499,
      "lng": 75.7843855
    },
    "totalScore": 5,
    "permanentlyClosed": false,
    "temporarilyClosed": false,
    "placeId": "ChIJ-_DAzUh1YzkRG8RzIPojXkM",
    "categories": [
      "Car rental agency",
      "Airport shuttle service",
      "Car leasing service",
      "Taxi service",
      "Chauffeur service",
      "Limousine service",
      "Rental car return location",
      "Transportation service",
      "Travel agency"
    ],
    "reviewsCount": 1,
    "imagesCount": 4,
    "openingHours": [],
    "imageUrl": "https://streetviewpixels-pa.googleapis.com/v1/thumbnail?panoid=kz4ONepQa_3l1ZLTXE-G0w&cb_client=search.gws-prod.gps&w=408&h=240&yaw=98.80144&pitch=0&thumbfov=100",
    "url": "https://www.google.com/maps/search/?api=1&query=OG%20Safe%20Journey&query_place_id=ChIJ-_DAzUh1YzkRG8RzIPojXkM"
  },
  {
    "title": "Shri Nakoda Bhairav tour and travels Ujjain",
    "subTitle": "श्री नाकोड़ा भैरव टूर एंड ट्रैवल्स उज्जैन",
    "categoryName": "Car rental agency",
    "address": "178, near mhakal manirujjain, Bakshi Bazar, Kartik Chowk, Ujjain, Madhya Pradesh 456006, India",
    "neighborhood": "Bakshi Bazar, Kartik Chowk",
    "street": "178, near mhakal manirujjain",
    "city": "Ujjain",
    "postalCode": "456006",
    "state": "Madhya Pradesh",
    "countryCode": "IN",
    "phone": "+919479815612",
    "phoneUnformatted": "+919479815612",
    "location": {
      "lat": 23.1847452,
      "lng": 75.7725398
    },
    "totalScore": 2.9,
    "permanentlyClosed": false,
    "temporarilyClosed": false,
    "placeId": "ChIJAa4wnkp1YzkRgWu7VIgXi-o",
    "categories": [
      "Car rental agency"
    ],
    "reviewsCount": 14,
    "imagesCount": 34,
    "openingHours": [
      {
        "day": "Monday",
        "hours": "Open 24 hours"
      },
      {
        "day": "Tuesday",
        "hours": "Open 24 hours"
      },
      {
        "day": "Wednesday",
        "hours": "Open 24 hours"
      },
      {
        "day": "Thursday",
        "hours": "Open 24 hours"
      },
      {
        "day": "Friday",
        "hours": "Open 24 hours"
      },
      {
        "day": "Saturday",
        "hours": "Open 24 hours"
      },
      {
        "day": "Sunday",
        "hours": "Open 24 hours"
      }
    ],
    "imageUrl": "https://lh3.googleusercontent.com/p/AF1QipOmztEhoUgg6MZAyxiG6PNxZ5YDf-Gqlt-EddQ=w408-h306-k-no",
    "url": "https://www.google.com/maps/search/?api=1&query=Shri%20Nakoda%20Bhairav%20tour%20and%20travels%20Ujjain&query_place_id=ChIJAa4wnkp1YzkRgWu7VIgXi-o"
  },
  {
    "title": "Star Travels Ujjain",
    "subTitle": "स्टार ट्रैवल्स उज्जैन",
    "categoryName": "Car rental agency",
    "address": "Dewas gate, Bus Stand, 13, Ujjain, Madhya Pradesh 456010, India",
    "neighborhood": "Malipura",
    "street": "Dewas gate, Bus Stand, 13",
    "city": "Ujjain",
    "postalCode": "456010",
    "state": "Madhya Pradesh",
    "countryCode": "IN",
    "website": "https://startravelsujjain.com/",
    "phone": "+918962967777",
    "phoneUnformatted": "+918962967777",
    "location": {
      "lat": 23.1815703,
      "lng": 75.7828403
    },
    "totalScore": 4.3,
    "permanentlyClosed": false,
    "temporarilyClosed": false,
    "placeId": "ChIJgXBA1zd1YzkRcg_nTEH6vNQ",
    "categories": [
      "Car rental agency",
      "Bus company",
      "Bus tour agency",
      "Car leasing service",
      "Tour operator",
      "Minibus taxi service",
      "Taxi service",
      "Tour agency",
      "Travel agency"
    ],
    "reviewsCount": 763,
    "imagesCount": 638,
    "openingHours": [
      {
        "day": "Monday",
        "hours": "Open 24 hours"
      },
      {
        "day": "Tuesday",
        "hours": "Open 24 hours"
      },
      {
        "day": "Wednesday",
        "hours": "Open 24 hours"
      },
      {
        "day": "Thursday",
        "hours": "Open 24 hours"
      },
      {
        "day": "Friday",
        "hours": "Open 24 hours"
      },
      {
        "day": "Saturday",
        "hours": "Open 24 hours"
      },
      {
        "day": "Sunday",
        "hours": "Open 24 hours"
      }
    ],
    "imageUrl": "https://lh3.googleusercontent.com/p/AF1QipNzloZjfD4FDsEPb-pj275iSCKJNAcCBKHGY1A=w408-h408-k-no",
    "url": "https://www.google.com/maps/search/?api=1&query=Star%20Travels%20Ujjain&query_place_id=ChIJgXBA1zd1YzkRcg_nTEH6vNQ"
  },
  {
    "title": "Ujjain Mahakal Tour and Travels",
    "subTitle": "उज्जैन महाकाल टूर एंड ट्रैवल्स",
    "categoryName": "Car rental agency",
    "address": "shop no.2, Dewas Gate, bus stand, near charak bhavan, Malipura, Ujjain, Madhya Pradesh 456010, India",
    "neighborhood": "Malipura",
    "street": "shop no.2, Dewas Gate, bus stand, near charak bhavan",
    "city": "Ujjain",
    "postalCode": "456010",
    "state": "Madhya Pradesh",
    "countryCode": "IN",
    "website": "https://ujjainmahakaltourtravels.com/",
    "phone": "+917772828489",
    "phoneUnformatted": "+917772828489",
    "location": {
      "lat": 23.181931,
      "lng": 75.7815397
    },
    "totalScore": 4.8,
    "permanentlyClosed": false,
    "temporarilyClosed": false,
    "placeId": "ChIJW8VKBrR1YzkRleh1640PLhQ",
    "categories": [
      "Car rental agency",
      "Car leasing service",
      "Travel agency",
      "Taxi service",
      "Tour agency",
      "Tourist information center",
      "Transportation service"
    ],
    "reviewsCount": 266,
    "imagesCount": 127,
    "openingHours": [
      {
        "day": "Monday",
        "hours": "Open 24 hours"
      },
      {
        "day": "Tuesday",
        "hours": "Open 24 hours"
      },
      {
        "day": "Wednesday",
        "hours": "Open 24 hours"
      },
      {
        "day": "Thursday",
        "hours": "Open 24 hours"
      },
      {
        "day": "Friday",
        "hours": "Open 24 hours"
      },
      {
        "day": "Saturday",
        "hours": "Open 24 hours"
      },
      {
        "day": "Sunday",
        "hours": "Open 24 hours"
      }
    ],
    "imageUrl": "https://lh3.googleusercontent.com/gps-cs-s/AG0ilSymemVn9bRIL8ZWoN5-7Uc8cJ5LJmCknBjGYhG9Wujrp2-oPFtaVCSA-KzTK-LmqjUyEkq1AuEIt2b7nMTFX_gNgNvRAl6rzj9k2wXiJL4H-qJCUI4G8SOCQdpqvgfGL3CFJFTq=w408-h306-k-no",
    "url": "https://www.google.com/maps/search/?api=1&query=Ujjain%20Mahakal%20Tour%20and%20Travels&query_place_id=ChIJW8VKBrR1YzkRleh1640PLhQ"
  },
  {
    "title": "Ujjain tour travels Tempo traveller Harsh travels",
    "subTitle": "Harsh travels",
    "categoryName": "Car leasing service",
    "address": "k samne, Railway station, Nanakheda, Mahakal Vanijya, Ujjain, Madhya Pradesh 456010, India",
    "neighborhood": "Nanakheda, Mahakal Vanijya",
    "street": "k samne, Railway station",
    "city": "Ujjain",
    "postalCode": "456010",
    "state": "Madhya Pradesh",
    "countryCode": "IN",
    "phone": "+917067311543",
    "phoneUnformatted": "+917067311543",
    "location": {
      "lat": 23.1590199,
      "lng": 75.788798
    },
    "totalScore": 4.8,
    "permanentlyClosed": false,
    "temporarilyClosed": false,
    "placeId": "ChIJORV7Heh1YzkRm6dkjS03KFo",
    "categories": [
      "Car leasing service",
      "Bus tour agency",
      "Travel agency",
      "Taxi service",
      "Tour agency"
    ],
    "reviewsCount": 19,
    "imagesCount": 43,
    "openingHours": [
      {
        "day": "Monday",
        "hours": "Open 24 hours"
      },
      {
        "day": "Tuesday",
        "hours": "Open 24 hours"
      },
      {
        "day": "Wednesday",
        "hours": "Open 24 hours"
      },
      {
        "day": "Thursday",
        "hours": "Open 24 hours"
      },
      {
        "day": "Friday",
        "hours": "Open 24 hours"
      },
      {
        "day": "Saturday",
        "hours": "Open 24 hours"
      },
      {
        "day": "Sunday",
        "hours": "Open 24 hours"
      }
    ],
    "imageUrl": "https://lh3.googleusercontent.com/p/AF1QipNuzlOpiZsSuJ1K52p1PesAevlJqiw-4s8pjNEI=w408-h544-k-no",
    "url": "https://www.google.com/maps/search/?api=1&query=Ujjain%20tour%20travels%20Tempo%20traveller%20Harsh%20travels&query_place_id=ChIJORV7Heh1YzkRm6dkjS03KFo"
  },
  {
    "title": "Ujjain Yatra",
    "subTitle": "उज्जैन यात्रा",
    "categoryName": "Car rental agency",
    "address": "37B, Ambaprasad Tiwari Marg, Anand Ganj, colony, Ujjain, Madhya Pradesh 456006, India",
    "neighborhood": "Anand Ganj, colony",
    "street": "37B, Ambaprasad Tiwari Marg",
    "city": "Ujjain",
    "postalCode": "456006",
    "state": "Madhya Pradesh",
    "countryCode": "IN",
    "website": "https://ujjainyatra.in/",
    "phone": "+919111547777",
    "phoneUnformatted": "+919111547777",
    "location": {
      "lat": 23.1800941,
      "lng": 75.7752062
    },
    "totalScore": 4.6,
    "permanentlyClosed": false,
    "temporarilyClosed": false,
    "placeId": "ChIJ9WsuOWJ1YzkR9jsN5tIgGEg",
    "categories": [
      "Car rental agency",
      "Bus tour agency",
      "Travel agency",
      "Taxi service",
      "Tour agency",
      "Tour operator"
    ],
    "reviewsCount": 118,
    "imagesCount": 68,
    "openingHours": [
      {
        "day": "Monday",
        "hours": "Open 24 hours"
      },
      {
        "day": "Tuesday",
        "hours": "Open 24 hours"
      },
      {
        "day": "Wednesday",
        "hours": "Open 24 hours"
      },
      {
        "day": "Thursday",
        "hours": "Open 24 hours"
      },
      {
        "day": "Friday",
        "hours": "Open 24 hours"
      },
      {
        "day": "Saturday",
        "hours": "Open 24 hours"
      },
      {
        "day": "Sunday",
        "hours": "Open 24 hours"
      }
    ],
    "imageUrl": "https://lh3.googleusercontent.com/p/AF1QipP0ZE5eYvI86XtcUqT2R4Zbjm5OoS5debr8R7H-=w408-h306-k-no",
    "url": "https://www.google.com/maps/search/?api=1&query=Ujjain%20Yatra&query_place_id=ChIJ9WsuOWJ1YzkR9jsN5tIgGEg"
  }
]
