[
  {
    "title": "A.M TRAVELS",
    "categoryName": "Car rental agency",
    "address": "Rajlaxmi Society, A3/107, Old Padra Rd, opp. Baroda Heart Institute, Chikuwadi, Haripura, Vadodara, Gujarat 390007, India",
    "neighborhood": "Chikuwadi, Haripura",
    "street": "Rajlaxmi Society, A3/107, Old Padra Rd, opp. Baroda Heart Institute",
    "city": "Vadodara",
    "postalCode": "390007",
    "state": "Gujarat",
    "countryCode": "IN",
    "website": "https://amtravelsvadodara.com/",
    "phone": "+919904102229",
    "phoneUnformatted": "+919904102229",
    "location": {
      "lat": 22.3059916,
      "lng": 73.1661926
    },
    "totalScore": 4.6,
    "permanentlyClosed": false,
    "temporarilyClosed": false,
    "placeId": "ChIJ82I23ILJXzkRYMFlhpsMEUs",
    "categories": [
      "Car rental agency",
      "Bus tour agency",
      "Sightseeing tour agency",
      "Tour agency",
      "Tour operator",
      "Travel agency"
    ],
    "reviewsCount": 62,
    "imagesCount": 36,
    "openingHours": [
      {
        "day": "Monday",
        "hours": "Open 24 hours"
      },
      {
        "day": "Tuesday",
        "hours": "Open 24 hours"
      },
      {
        "day": "Wednesday",
        "hours": "Open 24 hours"
      },
      {
        "day": "Thursday",
        "hours": "Open 24 hours"
      },
      {
        "day": "Friday",
        "hours": "Open 24 hours"
      },
      {
        "day": "Saturday",
        "hours": "Open 24 hours"
      },
      {
        "day": "Sunday",
        "hours": "Open 24 hours"
      }
    ],
    "imageUrl": "https://media.indianluxurycars.com/google/2b3e3decd6139e6aecf4db138845aae5448a669a0446b6e684e6340701dcc32f.jpg",
    "url": "https://www.google.com/maps/search/?api=1&query=A.M%20TRAVELS&query_place_id=ChIJ82I23ILJXzkRYMFlhpsMEUs"
  },
  {
    "title": "Aashray Car Accessories",
    "subTitle": "આશ્રય કાર એક્સેસરીઝ",
    "categoryName": "Car accessories store",
    "address": "G/F-10, Shreeji Chambers, Jetalpur Rd, Opposite New India Mills Limited, Sampatrao Colony, Alkapuri, Vadodara, Gujarat 390007, India",
    "neighborhood": "Sampatrao Colony, Alkapuri",
    "street": "G/F-10, Shreeji Chambers, Jetalpur Rd, Opposite New India Mills Limited",
    "city": "Vadodara",
    "postalCode": "390007",
    "state": "Gujarat",
    "countryCode": "IN",
    "phone": "+919925037382",
    "phoneUnformatted": "+919925037382",
    "location": {
      "lat": 22.3076872,
      "lng": 73.1763842
    },
    "totalScore": 4.1,
    "permanentlyClosed": false,
    "temporarilyClosed": false,
    "placeId": "ChIJq6qqarHIXzkRrGbD1tiAFzw",
    "categories": [
      "Car accessories store",
      "Auto parts store",
      "Car stereo store"
    ],
    "reviewsCount": 8,
    "imagesCount": 12,
    "openingHours": [
      {
        "day": "Monday",
        "hours": "10 AM to 8 PM"
      },
      {
        "day": "Tuesday",
        "hours": "10 AM to 8 PM"
      },
      {
        "day": "Wednesday",
        "hours": "10 AM to 8 PM"
      },
      {
        "day": "Thursday",
        "hours": "10 AM to 8 PM"
      },
      {
        "day": "Friday",
        "hours": "10 AM to 8 PM"
      },
      {
        "day": "Saturday",
        "hours": "10 AM to 8 PM"
      },
      {
        "day": "Sunday",
        "hours": "Closed"
      }
    ],
    "imageUrl": "https://media.indianluxurycars.com/google/f639f8552c3a30b80d2922e8d00d976c29fd28eda516f96dbf2a8ad3280f9a9e.jpg",
    "url": "https://www.google.com/maps/search/?api=1&query=Aashray%20Car%20Accessories&query_place_id=ChIJq6qqarHIXzkRrGbD1tiAFzw"
  },
  {
    "title": "Agrawal Cars",
    "subTitle": "અગ્રવાલ કાર્સ",
    "categoryName": "Used car dealer",
    "address": "Urmi Cross Rd, Laxmi Colony, Purushottam Nagar, Haripura, Vadodara, Gujarat 390007, India",
    "neighborhood": "Laxmi Colony, Purushottam Nagar, Haripura",
    "street": "Urmi Cross Rd",
    "city": "Vadodara",
    "postalCode": "390007",
    "state": "Gujarat",
    "countryCode": "IN",
    "website": "http://www.agrawalcars.co.in/",
    "phone": "+919998000811",
    "phoneUnformatted": "+919998000811",
    "location": {
      "lat": 22.3019591,
      "lng": 73.1745508
    },
    "totalScore": 4.5,
    "permanentlyClosed": false,
    "temporarilyClosed": false,
    "placeId": "ChIJLRzq4KjIXzkRw87Oms1iI9c",
    "categories": [
      "Used car dealer",
      "Car dealer"
    ],
    "reviewsCount": 388,
    "imagesCount": 42,
    "openingHours": [
      {
        "day": "Monday",
        "hours": "8 AM to 8:30 PM"
      },
      {
        "day": "Tuesday",
        "hours": "8 AM to 8:30 PM"
      },
      {
        "day": "Wednesday",
        "hours": "8 AM to 8:30 PM"
      },
      {
        "day": "Thursday",
        "hours": "8 AM to 8:30 PM"
      },
      {
        "day": "Friday",
        "hours": "8 AM to 8:30 PM"
      },
      {
        "day": "Saturday",
        "hours": "8 AM to 8:30 PM"
      },
      {
        "day": "Sunday",
        "hours": "8 AM to 8:30 PM"
      }
    ],
    "imageUrl": "https://media.indianluxurycars.com/google/2f03361497a7b48845f082e52685770000ea20b63b89b32329a0afe1253f7e41.jpg",
    "url": "https://www.google.com/maps/search/?api=1&query=Agrawal%20Cars&query_place_id=ChIJLRzq4KjIXzkRw87Oms1iI9c"
  },
  {
    "title": "Akshar Auto Deal - Second Hand Car Dealer | Used Car Dealer",
    "subTitle": "ઉમિયા ઓટો ડીલ",
    "categoryName": "Car dealer",
    "address": "Podar Jumbo Kids, Near, Kalali-Talsat Rd, Atladara, Vadodara, Gujarat 390012, India",
    "neighborhood": "Atladara",
    "street": "Podar Jumbo Kids, Near, Kalali-Talsat Rd",
    "city": "Vadodara",
    "postalCode": "390012",
    "state": "Gujarat",
    "countryCode": "IN",
    "phone": "+919909355777",
    "phoneUnformatted": "+919909355777",
    "location": {
      "lat": 22.2667182,
      "lng": 73.1621195
    },
    "totalScore": 4.7,
    "permanentlyClosed": false,
    "temporarilyClosed": false,
    "placeId": "ChIJNxBra8HFXzkRF1I4HEGm2jU",
    "categories": [
      "Car dealer",
      "Auto insurance agency",
      "Car finance and loan company"
    ],
    "reviewsCount": 57,
    "imagesCount": 54,
    "openingHours": [
      {
        "day": "Monday",
        "hours": "10 AM to 8 PM"
      },
      {
        "day": "Tuesday",
        "hours": "10 AM to 8 PM"
      },
      {
        "day": "Wednesday",
        "hours": "10 AM to 8 PM"
      },
      {
        "day": "Thursday",
        "hours": "10 AM to 8 PM"
      },
      {
        "day": "Friday",
        "hours": "10 AM to 8 PM"
      },
      {
        "day": "Saturday",
        "hours": "10 AM to 8 PM"
      },
      {
        "day": "Sunday",
        "hours": "10 AM to 8 PM"
      }
    ],
    "imageUrl": "https://media.indianluxurycars.com/google/66c1cb56e7c4f7c5c46cafac87637a4c65961136d9f54081d43b062ef4407e12.jpg",
    "url": "https://www.google.com/maps/search/?api=1&query=Akshar%20Auto%20Deal%20-%20Second%20Hand%20Car%20Dealer%20%7C%20Used%20Car%20Dealer&query_place_id=ChIJNxBra8HFXzkRF1I4HEGm2jU"
  },
  {
    "title": "Akshar Car Spa - Akota",
    "categoryName": "Car wash",
    "address": "A-18 , Shrenik Park Society, opp. Jain Mandir, Akota, Vadodara, Gujarat 390007, India",
    "neighborhood": "Shrenikpark, Akota",
    "street": "A-18 , Shrenik Park Society, opp. Jain Mandir",
    "city": "Vadodara",
    "postalCode": "390007",
    "state": "Gujarat",
    "countryCode": "IN",
    "website": "https://www.aksharcarspa.com/",
    "phone": "+918511510254",
    "phoneUnformatted": "+918511510254",
    "location": {
      "lat": 22.2985154,
      "lng": 73.1724528
    },
    "totalScore": 5,
    "permanentlyClosed": false,
    "temporarilyClosed": false,
    "placeId": "ChIJfUKMFmrJXzkRrTndrvyH4PU",
    "categories": [
      "Car wash"
    ],
    "reviewsCount": 1099,
    "imagesCount": 110,
    "openingHours": [
      {
        "day": "Monday",
        "hours": "9 AM to 8 PM"
      },
      {
        "day": "Tuesday",
        "hours": "9 AM to 8 PM"
      },
      {
        "day": "Wednesday",
        "hours": "9 AM to 8 PM"
      },
      {
        "day": "Thursday",
        "hours": "9 AM to 8 PM"
      },
      {
        "day": "Friday",
        "hours": "9 AM to 8 PM"
      },
      {
        "day": "Saturday",
        "hours": "9 AM to 8 PM"
      },
      {
        "day": "Sunday",
        "hours": "9 AM to 8 PM"
      }
    ],
    "imageUrl": "https://media.indianluxurycars.com/google/5b458262427d329b845663ed5046e83f62ce14c14b4e29f9216f024dc61eb196.jpg",
    "url": "https://www.google.com/maps/search/?api=1&query=Akshar%20Car%20Spa%20-%20Akota&query_place_id=ChIJfUKMFmrJXzkRrTndrvyH4PU"
  },
  {
    "title": "Akshar Car Spa Pravega",
    "categoryName": "Car wash",
    "address": "Akshar Car Spa, 283-2, opp. Lucky Restaurant, Krishna Nagar, Makarpura GIDC, Makarpura, Vadodara, Gujarat 390010, India",
    "neighborhood": "Krishna Nagar, Makarpura GIDC, Makarpura",
    "street": "Akshar Car Spa, 283-2, opp. Lucky Restaurant",
    "city": "Vadodara",
    "postalCode": "390010",
    "state": "Gujarat",
    "countryCode": "IN",
    "website": "https://www.aksharcarspa.com/",
    "phone": "+918511510254",
    "phoneUnformatted": "+918511510254",
    "location": {
      "lat": 22.2552863,
      "lng": 73.1937972
    },
    "totalScore": 4.9,
    "permanentlyClosed": false,
    "temporarilyClosed": false,
    "placeId": "ChIJNxj6_SbFXzkRuXp3pQsyjmg",
    "categories": [
      "Car wash",
      "Auto painting"
    ],
    "reviewsCount": 1081,
    "imagesCount": 104,
    "openingHours": [
      {
        "day": "Monday",
        "hours": "9 AM to 8 PM"
      },
      {
        "day": "Tuesday",
        "hours": "9 AM to 8 PM"
      },
      {
        "day": "Wednesday",
        "hours": "9 AM to 8 PM"
      },
      {
        "day": "Thursday",
        "hours": "9 AM to 8 PM"
      },
      {
        "day": "Friday",
        "hours": "9 AM to 8 PM"
      },
      {
        "day": "Saturday",
        "hours": "9 AM to 8 PM"
      },
      {
        "day": "Sunday",
        "hours": "9 AM to 8 PM"
      }
    ],
    "imageUrl": "https://media.indianluxurycars.com/google/d398f743d8aaf6d41a939b7c952c51482b4899db00e1fcc00cbdb439bd9b4fa9.jpg",
    "url": "https://www.google.com/maps/search/?api=1&query=Akshar%20Car%20Spa%20Pravega&query_place_id=ChIJNxj6_SbFXzkRuXp3pQsyjmg"
  },
  {
    "title": "ALPINE MOTORS",
    "categoryName": "Used car dealer",
    "address": "52, Swami Shivanand Marg, Purushottam Nagar, Haripura, Vadodara, Gujarat 390007, India",
    "neighborhood": "Purushottam Nagar, Haripura",
    "street": "52, Swami Shivanand Marg",
    "city": "Vadodara",
    "postalCode": "390007",
    "state": "Gujarat",
    "countryCode": "IN",
    "phone": "+919426023789",
    "phoneUnformatted": "+919426023789",
    "location": {
      "lat": 22.302032,
      "lng": 73.175497
    },
    "totalScore": 5,
    "permanentlyClosed": false,
    "temporarilyClosed": false,
    "placeId": "ChIJdT78VLDJXzkRyDY49QvZf10",
    "categories": [
      "Used car dealer"
    ],
    "reviewsCount": 2,
    "imagesCount": 5,
    "openingHours": [
      {
        "day": "Monday",
        "hours": "Open 24 hours"
      },
      {
        "day": "Tuesday",
        "hours": "Open 24 hours"
      },
      {
        "day": "Wednesday",
        "hours": "Open 24 hours"
      },
      {
        "day": "Thursday",
        "hours": "Open 24 hours"
      },
      {
        "day": "Friday",
        "hours": "Open 24 hours"
      },
      {
        "day": "Saturday",
        "hours": "Open 24 hours"
      },
      {
        "day": "Sunday",
        "hours": "Open 24 hours"
      }
    ],
    "imageUrl": "https://media.indianluxurycars.com/google/bb5c480a558f115b90d2638ac9c5dadf050bc0597874cdb6e8194138a77ad082.jpg",
    "url": "https://www.google.com/maps/search/?api=1&query=ALPINE%20MOTORS&query_place_id=ChIJdT78VLDJXzkRyDY49QvZf10"
  },
  {
    "title": "Ashish Travels",
    "categoryName": "Car rental agency",
    "address": "Officers Colony, Alkapuri, Vadodara, Gujarat 390007, India",
    "neighborhood": "Officers Colony, Alkapuri",
    "city": "Vadodara",
    "postalCode": "390007",
    "state": "Gujarat",
    "countryCode": "IN",
    "phone": "+919898257870",
    "phoneUnformatted": "+919898257870",
    "location": {
      "lat": 22.3135974,
      "lng": 73.1763888
    },
    "totalScore": 4.6,
    "permanentlyClosed": false,
    "temporarilyClosed": false,
    "placeId": "ChIJ8TJYJDzJXzkRFDtSVk2q82g",
    "categories": [
      "Car rental agency",
      "Car leasing service",
      "Leasing service"
    ],
    "reviewsCount": 11,
    "imagesCount": 20,
    "openingHours": [
      {
        "day": "Monday",
        "hours": "Open 24 hours"
      },
      {
        "day": "Tuesday",
        "hours": "Open 24 hours"
      },
      {
        "day": "Wednesday",
        "hours": "Open 24 hours"
      },
      {
        "day": "Thursday",
        "hours": "Open 24 hours"
      },
      {
        "day": "Friday",
        "hours": "Open 24 hours"
      },
      {
        "day": "Saturday",
        "hours": "Open 24 hours"
      },
      {
        "day": "Sunday",
        "hours": "Open 24 hours"
      }
    ],
    "imageUrl": "https://media.indianluxurycars.com/google/7f2df9dc328461f898a1c65713e4b8ce656a3fad7b406745e197c1c9e90a6ed0.jpg",
    "url": "https://www.google.com/maps/search/?api=1&query=Ashish%20Travels&query_place_id=ChIJ8TJYJDzJXzkRFDtSVk2q82g"
  },
  {
    "title": "Audi Service Vadodara",
    "subTitle": "ઓડી સેવા વડોદરા",
    "categoryName": "Audi dealer",
    "address": "A1/293, GIDC Estate Survey No 320, Makarpura, More, Tarsali, Vadodara, Gujarat 390010, India",
    "neighborhood": "Krishna Nagar, Makarpura GIDC, Tarsali",
    "street": "A1/293, GIDC Estate Survey No 320, Makarpura, More",
    "city": "Vadodara",
    "postalCode": "390010",
    "state": "Gujarat",
    "countryCode": "IN",
    "website": "https://dealers.myaudi.in/audi-service-vadodara-audi-dealer-tarsali-vadodara-122021/Home?utm_source=locator&utm_medium=googleplaces",
    "phone": "+919662515081",
    "phoneUnformatted": "+919662515081",
    "location": {
      "lat": 22.255795,
      "lng": 73.1953025
    },
    "totalScore": 4.4,
    "permanentlyClosed": false,
    "temporarilyClosed": false,
    "placeId": "ChIJNzE-MM3FXzkRdUOqgR1PD6k",
    "categories": [
      "Audi dealer",
      "Auto dent removal service",
      "Auto repair shop",
      "Car accessories store",
      "Car dealer"
    ],
    "reviewsCount": 258,
    "imagesCount": 40,
    "openingHours": [
      {
        "day": "Monday",
        "hours": "9:30 AM to 6:30 PM"
      },
      {
        "day": "Tuesday",
        "hours": "9:30 AM to 6:30 PM"
      },
      {
        "day": "Wednesday",
        "hours": "9:30 AM to 6:30 PM"
      },
      {
        "day": "Thursday",
        "hours": "9:30 AM to 6:30 PM"
      },
      {
        "day": "Friday",
        "hours": "9:30 AM to 6:30 PM"
      },
      {
        "day": "Saturday",
        "hours": "9:30 AM to 6:30 PM"
      },
      {
        "day": "Sunday",
        "hours": "Closed"
      }
    ],
    "imageUrl": "https://media.indianluxurycars.com/google/3261d8de59fe3f91e9a1afc46e33485ea7d22866b14784f54007cec3af550d77.jpg",
    "url": "https://www.google.com/maps/search/?api=1&query=Audi%20Service%20Vadodara&query_place_id=ChIJNzE-MM3FXzkRdUOqgR1PD6k"
  },
  {
    "title": "Baba Ramdev Tours & Travels",
    "categoryName": "Car leasing service",
    "address": "near Kaka Pav Bhaji, Shanti Park Society, Gayatri Nagar, Karelibagh, Vadodara, Gujarat 390022, India",
    "neighborhood": "Shanti Park Society, Gayatri Nagar, Karelibagh",
    "street": "near Kaka Pav Bhaji",
    "city": "Vadodara",
    "postalCode": "390022",
    "state": "Gujarat",
    "countryCode": "IN",
    "website": "https://babaramdevtours.com/",
    "location": {
      "lat": 22.3300659,
      "lng": 73.2069758
    },
    "totalScore": 4.9,
    "permanentlyClosed": false,
    "temporarilyClosed": false,
    "placeId": "ChIJ4QIh--_PXzkRqGEAL5oTBsY",
    "categories": [
      "Car leasing service"
    ],
    "reviewsCount": 79,
    "imagesCount": 4,
    "openingHours": [
      {
        "day": "Monday",
        "hours": "Open 24 hours"
      },
      {
        "day": "Tuesday",
        "hours": "Open 24 hours"
      },
      {
        "day": "Wednesday",
        "hours": "Open 24 hours"
      },
      {
        "day": "Thursday",
        "hours": "Open 24 hours"
      },
      {
        "day": "Friday",
        "hours": "Open 24 hours"
      },
      {
        "day": "Saturday",
        "hours": "Open 24 hours"
      },
      {
        "day": "Sunday",
        "hours": "Open 24 hours"
      }
    ],
    "imageUrl": "https://media.indianluxurycars.com/google/52f7e922323d7d1cbe15fc91e081b699e113aa012f950a88182a1156fa261077.jpg",
    "url": "https://www.google.com/maps/search/?api=1&query=Baba%20Ramdev%20Tours%20%26%20Travels&query_place_id=ChIJ4QIh--_PXzkRqGEAL5oTBsY"
  },
  {
    "title": "Bharat Tours & travel",
    "categoryName": "Car rental agency",
    "address": "204, Sainath Heights, near, Iskcon Temple Rd, Gotri, Vadodara, Gujarat 390007, India",
    "neighborhood": "Gotri",
    "street": "204, Sainath Heights, near, Iskcon Temple Rd",
    "city": "Vadodara",
    "postalCode": "390007",
    "state": "Gujarat",
    "countryCode": "IN",
    "phone": "+919824419201",
    "phoneUnformatted": "+919824419201",
    "location": {
      "lat": 22.3088191,
      "lng": 73.1519781
    },
    "totalScore": 5,
    "permanentlyClosed": false,
    "temporarilyClosed": false,
    "placeId": "ChIJe3d5lv_JXzkRQcu-n2pO5gA",
    "categories": [
      "Car rental agency",
      "Driver's license office",
      "Taxicab Stand"
    ],
    "reviewsCount": 1,
    "imagesCount": 1,
    "openingHours": [
      {
        "day": "Monday",
        "hours": "Open 24 hours"
      },
      {
        "day": "Tuesday",
        "hours": "Open 24 hours"
      },
      {
        "day": "Wednesday",
        "hours": "Open 24 hours"
      },
      {
        "day": "Thursday",
        "hours": "Open 24 hours"
      },
      {
        "day": "Friday",
        "hours": "Open 24 hours"
      },
      {
        "day": "Saturday",
        "hours": "Open 24 hours"
      },
      {
        "day": "Sunday",
        "hours": "Open 24 hours"
      }
    ],
    "imageUrl": "https://media.indianluxurycars.com/google/c9b823dbbecf2cdd41f72f8b8b4cc69edaa3dc5b3f9799a6486b0bddad617a1d.jpg",
    "url": "https://www.google.com/maps/search/?api=1&query=Bharat%20Tours%20%26%20travel&query_place_id=ChIJe3d5lv_JXzkRQcu-n2pO5gA"
  },
  {
    "title": "Bharti Travels",
    "subTitle": "ભારતી ટ્રાવેલ્સ",
    "categoryName": "Car leasing service",
    "address": "A 1-4, Darshanam Antica Danteshwar Road, Tarsali, opp. HWP Colony, Vadodara, Gujarat 390004, India",
    "neighborhood": "ONGC, Danteshwar",
    "street": "A 1-4, Darshanam Antica Danteshwar Road, Tarsali, opp. HWP Colony",
    "city": "Vadodara",
    "postalCode": "390004",
    "state": "Gujarat",
    "countryCode": "IN",
    "website": "https://www.bhartitravels.in/",
    "phone": "+919712916129",
    "phoneUnformatted": "+919712916129",
    "location": {
      "lat": 22.2676662,
      "lng": 73.2187704
    },
    "totalScore": 4.6,
    "permanentlyClosed": false,
    "temporarilyClosed": false,
    "placeId": "ChIJA3eU86_FXzkRJ4TxyGd6NjE",
    "categories": [
      "Car leasing service",
      "Travel agency",
      "Event management company",
      "Logistics service",
      "Tour operator"
    ],
    "reviewsCount": 55,
    "imagesCount": 191,
    "openingHours": [
      {
        "day": "Monday",
        "hours": "Open 24 hours"
      },
      {
        "day": "Tuesday",
        "hours": "Open 24 hours"
      },
      {
        "day": "Wednesday",
        "hours": "Open 24 hours"
      },
      {
        "day": "Thursday",
        "hours": "Open 24 hours"
      },
      {
        "day": "Friday",
        "hours": "Open 24 hours"
      },
      {
        "day": "Saturday",
        "hours": "Open 24 hours"
      },
      {
        "day": "Sunday",
        "hours": "Open 24 hours"
      }
    ],
    "imageUrl": "https://media.indianluxurycars.com/google/34a585ac97fa642595007b8f3bda2bf5879ba3d50584bc0744cc171b1ecf002b.jpg",
    "url": "https://www.google.com/maps/search/?api=1&query=Bharti%20Travels&query_place_id=ChIJA3eU86_FXzkRJ4TxyGd6NjE"
  },
  {
    "title": "Bittu tours & Travels",
    "categoryName": "Car rental agency",
    "address": "Tulshidham Complex, F 5 BALAJI APPARTMENT, Jupiter Rd, beside BANKERS SUPERSPECIALITY HOSPITAL, Manjalpur, Vadodara, Gujarat 390011, India",
    "neighborhood": "Manjalpur",
    "street": "Tulshidham Complex, F 5 BALAJI APPARTMENT, Jupiter Rd, beside BANKERS SUPERSPECIALITY HOSPITAL",
    "city": "Vadodara",
    "postalCode": "390011",
    "state": "Gujarat",
    "countryCode": "IN",
    "website": "http://www.bittutravels.in/",
    "phone": "+917016654415",
    "phoneUnformatted": "+917016654415",
    "location": {
      "lat": 22.2647206,
      "lng": 73.1957026
    },
    "totalScore": 4.8,
    "permanentlyClosed": false,
    "temporarilyClosed": false,
    "placeId": "ChIJ3ViISyDFXzkRE8iWpPC6kPQ",
    "categories": [
      "Car rental agency",
      "Bus charter",
      "Car leasing service",
      "Taxi service",
      "Minibus taxi service",
      "Ticket office",
      "Tour agency",
      "Tour operator",
      "Travel agency",
      "Visa consulting service"
    ],
    "reviewsCount": 84,
    "imagesCount": 234,
    "openingHours": [],
    "imageUrl": "https://media.indianluxurycars.com/google/5addc973fc76b1977cdcb4b4b40b66bbeab44890e071dd38d1aa701f6524ca48.jpg",
    "url": "https://www.google.com/maps/search/?api=1&query=Bittu%20tours%20%26%20Travels&query_place_id=ChIJ3ViISyDFXzkRE8iWpPC6kPQ"
  },
  {
    "title": "BMW Eminent Cars - Vadodara",
    "categoryName": "BMW dealer",
    "address": "TP Scheme no. 20, FP No, 31, Sun Pharma Rd, opp. HDFC Bank, Vadodara, Gujarat 390012, India",
    "neighborhood": "Pramukh Swami nagar, Atladara",
    "street": "TP Scheme no. 20, FP No, 31, Sun Pharma Rd, opp. HDFC Bank",
    "city": "Vadodara",
    "postalCode": "390012",
    "state": "Gujarat",
    "countryCode": "IN",
    "website": "https://www.bmw-eminentcars.in/",
    "phone": "+916356040000",
    "phoneUnformatted": "+916356040000",
    "location": {
      "lat": 22.2802092,
      "lng": 73.1542051
    },
    "totalScore": 4.6,
    "permanentlyClosed": false,
    "temporarilyClosed": false,
    "placeId": "ChIJAaTMQTzGXzkR9JNeDFKsuxg",
    "categories": [
      "BMW dealer",
      "Car dealer",
      "Electric motor vehicle dealer",
      "Used car dealer"
    ],
    "reviewsCount": 170,
    "imagesCount": 75,
    "openingHours": [
      {
        "day": "Monday",
        "hours": "10 AM to 7 PM"
      },
      {
        "day": "Tuesday",
        "hours": "10 AM to 7 PM"
      },
      {
        "day": "Wednesday",
        "hours": "10 AM to 7 PM"
      },
      {
        "day": "Thursday",
        "hours": "10 AM to 7 PM"
      },
      {
        "day": "Friday",
        "hours": "10 AM to 7 PM"
      },
      {
        "day": "Saturday",
        "hours": "10 AM to 7 PM"
      },
      {
        "day": "Sunday",
        "hours": "Closed"
      }
    ],
    "imageUrl": "https://media.indianluxurycars.com/google/ea74574b3ae0f7831668c1e3c918524bc5b96460b6424beb115c9adee767016b.jpg",
    "url": "https://www.google.com/maps/search/?api=1&query=BMW%20Eminent%20Cars%20-%20Vadodara&query_place_id=ChIJAaTMQTzGXzkR9JNeDFKsuxg"
  },
  {
    "title": "CAR MAX AUTO CONSULTANTS",
    "subTitle": "કાર મેક્સ ઓટો કન્સલ્ટન્ટ્સ",
    "categoryName": "Car dealer",
    "address": "Shop No:, Panchsheel Complex, 14, Warasiya Ring Rd, Vijay Nagar, Harni, Vadodara, Gujarat 390022, India",
    "neighborhood": "Vijay Nagar, Harni",
    "street": "Shop No:, Panchsheel Complex, 14, Warasiya Ring Rd",
    "city": "Vadodara",
    "postalCode": "390022",
    "state": "Gujarat",
    "countryCode": "IN",
    "phone": "+919824379448",
    "phoneUnformatted": "+919824379448",
    "location": {
      "lat": 22.3180273,
      "lng": 73.2203184
    },
    "totalScore": 4.7,
    "permanentlyClosed": false,
    "temporarilyClosed": false,
    "placeId": "ChIJUz34eW7PXzkRjKlX8WoHhNA",
    "categories": [
      "Car dealer"
    ],
    "reviewsCount": 13,
    "imagesCount": 1,
    "openingHours": [
      {
        "day": "Monday",
        "hours": "10 AM to 8 PM"
      },
      {
        "day": "Tuesday",
        "hours": "10 AM to 8 PM"
      },
      {
        "day": "Wednesday",
        "hours": "10 AM to 8 PM"
      },
      {
        "day": "Thursday",
        "hours": "10 AM to 8 PM"
      },
      {
        "day": "Friday",
        "hours": "10 AM to 8 PM"
      },
      {
        "day": "Saturday",
        "hours": "10 AM to 8 PM"
      },
      {
        "day": "Sunday",
        "hours": "Closed"
      }
    ],
    "imageUrl": "https://media.indianluxurycars.com/google/c25977172f2c5bfda7a362f9de846091db6902ff131af024fe97c33d0d985422.jpg",
    "url": "https://www.google.com/maps/search/?api=1&query=CAR%20MAX%20AUTO%20CONSULTANTS&query_place_id=ChIJUz34eW7PXzkRjKlX8WoHhNA"
  },
  {
    "title": "CarZone Akota",
    "subTitle": "કાર્જોને અકોટા",
    "categoryName": "Used car dealer",
    "address": "Radhakrishna chowkdi, opp. Radhakrishna park, Sheetal Nagar, Akota, Vadodara, Gujarat 390020, India",
    "neighborhood": "Sheetal Nagar, Akota",
    "street": "Radhakrishna chowkdi, opp. Radhakrishna park",
    "city": "Vadodara",
    "postalCode": "390020",
    "state": "Gujarat",
    "countryCode": "IN",
    "phone": "+919825147588",
    "phoneUnformatted": "+919825147588",
    "location": {
      "lat": 22.2935235,
      "lng": 73.1679285
    },
    "totalScore": 4.9,
    "permanentlyClosed": false,
    "temporarilyClosed": false,
    "placeId": "ChIJtYhUQ4LHXzkRTc96OqQAESE",
    "categories": [
      "Used car dealer"
    ],
    "reviewsCount": 34,
    "imagesCount": 18,
    "openingHours": [
      {
        "day": "Monday",
        "hours": "10 AM to 8:30 PM"
      },
      {
        "day": "Tuesday",
        "hours": "10 AM to 8:30 PM"
      },
      {
        "day": "Wednesday",
        "hours": "10 AM to 8:30 PM"
      },
      {
        "day": "Thursday",
        "hours": "10 AM to 8:30 PM"
      },
      {
        "day": "Friday",
        "hours": "10 AM to 8:30 PM"
      },
      {
        "day": "Saturday",
        "hours": "10 AM to 8:30 PM"
      },
      {
        "day": "Sunday",
        "hours": "10 AM to 8:30 PM"
      }
    ],
    "imageUrl": "https://media.indianluxurycars.com/google/f352bb68aa4f16b5cb36847262e4568e53a5503fe8c74ffa9dff69ed8cf264c1.jpg",
    "url": "https://www.google.com/maps/search/?api=1&query=CarZone%20Akota&query_place_id=ChIJtYhUQ4LHXzkRTc96OqQAESE"
  },
  {
    "title": "CarzSpa Haily's - Car Detailing, PPF and Ceramic Coating Studio, Vadodara",
    "categoryName": "Car detailing service",
    "address": "Shop No 7,9-10,11, Silver Square Complex, Akota, Apartments, Dinesh Mill Rd, near The Fern - An Ecotel Hotel, Haripura, Vadodara, Gujarat 390007, India",
    "neighborhood": "Shree Nagar Co-operative Housing Society, Purushottam Nagar, Haripura",
    "street": "Shop No 7,9-10,11, Silver Square Complex, Akota, Apartments, Dinesh Mill Rd, near The Fern - An Ecotel Hotel",
    "city": "Vadodara",
    "postalCode": "390007",
    "state": "Gujarat",
    "countryCode": "IN",
    "website": "https://studios.carzspa.com/carzspa/vadodara/akota/carzspa-in-akota-vadodara--41e4b751-39cb-4fdb-828f-47156082f3ec/home",
    "phone": "+918037759627",
    "phoneUnformatted": "+918037759627",
    "location": {
      "lat": 22.3022713,
      "lng": 73.1758368
    },
    "totalScore": 4.9,
    "permanentlyClosed": false,
    "temporarilyClosed": false,
    "placeId": "ChIJR23obhDGXzkRGMTKDto6hdk",
    "categories": [
      "Car detailing service",
      "Auto care products store",
      "Auto painting",
      "Auto restoration service",
      "Auto window tinting service",
      "Car accessories store",
      "Vehicle wrapping service"
    ],
    "reviewsCount": 394,
    "imagesCount": 505,
    "openingHours": [
      {
        "day": "Monday",
        "hours": "9:30 AM to 7 PM"
      },
      {
        "day": "Tuesday",
        "hours": "9:30 AM to 7 PM"
      },
      {
        "day": "Wednesday",
        "hours": "9:30 AM to 7 PM"
      },
      {
        "day": "Thursday",
        "hours": "9:30 AM to 7 PM"
      },
      {
        "day": "Friday",
        "hours": "9:30 AM to 7 PM"
      },
      {
        "day": "Saturday",
        "hours": "9:30 AM to 7 PM"
      },
      {
        "day": "Sunday",
        "hours": "9:30 AM to 7 PM"
      }
    ],
    "imageUrl": "https://media.indianluxurycars.com/google/e0c335fe253906e82af3daef34f22af7c5e6ba28fc90dde26d1143d037805f4b.jpg",
    "url": "https://www.google.com/maps/search/?api=1&query=CarzSpa%20Haily's%20-%20Car%20Detailing%2C%20PPF%20and%20Ceramic%20Coating%20Studio%2C%20Vadodara&query_place_id=ChIJR23obhDGXzkRGMTKDto6hdk"
  },
  {
    "title": "Charotar Tours & Travels",
    "subTitle": "ચરોતર ટુર્સ અને ટ્રાવેલ્સ (ગાડી અને બસ ભાડે સર્વિસ)",
    "categoryName": "Car rental agency",
    "address": "176, Nizampura Rd, Swaminarayan Nagar, Nizampura, Vadodara, Gujarat 390024, India",
    "neighborhood": "Swaminarayan Nagar, Nizampura",
    "street": "176, Nizampura Rd",
    "city": "Vadodara",
    "postalCode": "390024",
    "state": "Gujarat",
    "countryCode": "IN",
    "website": "http://www.charotartoursntravels.com/",
    "phone": "+918401131817",
    "phoneUnformatted": "+918401131817",
    "location": {
      "lat": 22.3382938,
      "lng": 73.1795213
    },
    "totalScore": 4.5,
    "permanentlyClosed": false,
    "temporarilyClosed": false,
    "placeId": "ChIJWfRld9PIXzkRySL3jCnf9NA",
    "categories": [
      "Car rental agency",
      "Bus tour agency",
      "Taxi service",
      "Minibus taxi service",
      "Tour operator"
    ],
    "reviewsCount": 135,
    "imagesCount": 47,
    "openingHours": [],
    "imageUrl": "https://media.indianluxurycars.com/google/e16f7bcc5abacd95f78926d1b292cbc34f7b7cd3adfe89e1a6bec1c55a8dc79a.jpg",
    "url": "https://www.google.com/maps/search/?api=1&query=Charotar%20Tours%20%26%20Travels&query_place_id=ChIJWfRld9PIXzkRySL3jCnf9NA"
  },
  {
    "title": "Devarsh Car Accessories & Interior works",
    "categoryName": "Car accessories store",
    "address": "Kashiweshwar Township, E-28, Jetalpur Rd, opp. Avdhoot Hospital, Chikuwadi, Alkapuri, Vadodara, Gujarat 390007, India",
    "neighborhood": "Chikuwadi, Alkapuri",
    "street": "Kashiweshwar Township, E-28, Jetalpur Rd, opp. Avdhoot Hospital",
    "city": "Vadodara",
    "postalCode": "390007",
    "state": "Gujarat",
    "countryCode": "IN",
    "phone": "+919979585423",
    "phoneUnformatted": "+919979585423",
    "location": {
      "lat": 22.3069236,
      "lng": 73.1705231
    },
    "totalScore": 5,
    "permanentlyClosed": false,
    "temporarilyClosed": false,
    "placeId": "ChIJhziE7f_HXzkRSRNr00mBwHo",
    "categories": [
      "Car accessories store"
    ],
    "reviewsCount": 417,
    "imagesCount": 1236,
    "openingHours": [
      {
        "day": "Monday",
        "hours": "9:30 AM to 9 PM"
      },
      {
        "day": "Tuesday",
        "hours": "9:30 AM to 9 PM"
      },
      {
        "day": "Wednesday",
        "hours": "9:30 AM to 9 PM"
      },
      {
        "day": "Thursday",
        "hours": "9:30 AM to 9 PM"
      },
      {
        "day": "Friday",
        "hours": "9:30 AM to 9 PM"
      },
      {
        "day": "Saturday",
        "hours": "9:30 AM to 9 PM"
      },
      {
        "day": "Sunday",
        "hours": "9:30 AM to 9 PM"
      }
    ],
    "imageUrl": "https://media.indianluxurycars.com/google/7409ec75b81296a16c970b6ce62ca0eb2aee42ffa5678a0b879ae56426b49a8f.jpg",
    "url": "https://www.google.com/maps/search/?api=1&query=Devarsh%20Car%20Accessories%20%26%20Interior%20works&query_place_id=ChIJhziE7f_HXzkRSRNr00mBwHo"
  },
  {
    "title": "F1 Motors",
    "categoryName": "Car dealer",
    "address": "Ashwamegh 1, complex, akota main road, Samrajya Township 1, Pratham Avenue, Akota, Vadodara, Gujarat 390007, India",
    "neighborhood": "Samrajya Township 1, Pratham Avenue, Akota",
    "street": "Ashwamegh 1, complex, akota main road",
    "city": "Vadodara",
    "postalCode": "390007",
    "state": "Gujarat",
    "countryCode": "IN",
    "phone": "+919974027036",
    "phoneUnformatted": "+919974027036",
    "location": {
      "lat": 22.2904636,
      "lng": 73.1713567
    },
    "totalScore": 4.9,
    "permanentlyClosed": false,
    "temporarilyClosed": false,
    "placeId": "ChIJ1-NxyATGXzkRYA87Y_g9p5s",
    "categories": [
      "Car dealer"
    ],
    "reviewsCount": 82,
    "imagesCount": 67,
    "openingHours": [
      {
        "day": "Monday",
        "hours": "Open 24 hours"
      },
      {
        "day": "Tuesday",
        "hours": "Open 24 hours"
      },
      {
        "day": "Wednesday",
        "hours": "Open 24 hours"
      },
      {
        "day": "Thursday",
        "hours": "Open 24 hours"
      },
      {
        "day": "Friday",
        "hours": "Open 24 hours"
      },
      {
        "day": "Saturday",
        "hours": "Open 24 hours"
      },
      {
        "day": "Sunday",
        "hours": "Open 24 hours"
      }
    ],
    "imageUrl": "https://media.indianluxurycars.com/google/39d0f82d76b70c562c426331c950015b8c09562c6de917dc7ab4a526abd93315.jpg",
    "url": "https://www.google.com/maps/search/?api=1&query=F1%20Motors&query_place_id=ChIJ1-NxyATGXzkRYA87Y_g9p5s"
  },
  {
    "title": "Garnet Galaxy Pre-Owned Luxury Cars in Vadodara",
    "categoryName": "Car dealer",
    "address": "Garnet Galaxy, Opp Transpek company, Near Squirrel circle, Road, Kalali, Vadodara, Gujarat 390010, India",
    "neighborhood": "Kalali",
    "street": "Garnet Galaxy, Opp Transpek company, Near Squirrel circle, Road",
    "city": "Vadodara",
    "postalCode": "390010",
    "state": "Gujarat",
    "countryCode": "IN",
    "website": "https://www.facebook.com/CarWaleabSureGarnetGalaxyVadodara",
    "location": {
      "lat": 22.2743427,
      "lng": 73.1640987
    },
    "totalScore": 4.3,
    "permanentlyClosed": false,
    "temporarilyClosed": false,
    "placeId": "ChIJKcDuBMDHXzkROI12lwUrTw4",
    "categories": [
      "Car dealer"
    ],
    "reviewsCount": 12,
    "imagesCount": 15,
    "openingHours": [
      {
        "day": "Monday",
        "hours": "10 AM to 6:30 PM"
      },
      {
        "day": "Tuesday",
        "hours": "10 AM to 6:30 PM"
      },
      {
        "day": "Wednesday",
        "hours": "10 AM to 6:30 PM"
      },
      {
        "day": "Thursday",
        "hours": "10 AM to 6:30 PM"
      },
      {
        "day": "Friday",
        "hours": "10 AM to 6:30 PM"
      },
      {
        "day": "Saturday",
        "hours": "10 AM to 6:30 PM"
      },
      {
        "day": "Sunday",
        "hours": "11 AM to 5 PM"
      }
    ],
    "imageUrl": "https://media.indianluxurycars.com/google/f773d51e160bdebd8347a30e00c962c680a9489c2c499cfae1fd88824cc682f7.jpg",
    "url": "https://www.google.com/maps/search/?api=1&query=Garnet%20Galaxy%20Pre-Owned%20Luxury%20Cars%20in%20Vadodara&query_place_id=ChIJKcDuBMDHXzkROI12lwUrTw4"
  },
  {
    "title": "Jagdamba Car Accessories",
    "subTitle": "જગદંબા કાર એક્સેસરીઝ",
    "categoryName": "Car stereo store",
    "address": "Sardar Bhavan Lane Near Bank Of Baroda, opp. Karelibaug Police Station, Bhutdi Zampa, Nagarwada, Vadodara, Gujarat 390006, India",
    "neighborhood": "Bhutdi Zampa, Nagarwada",
    "street": "Sardar Bhavan Lane Near Bank Of Baroda, opp. Karelibaug Police Station",
    "city": "Vadodara",
    "postalCode": "390006",
    "state": "Gujarat",
    "countryCode": "IN",
    "website": "https://www.youtube.com/channel/UC6p3U5VOvL6lZQhWFn6_qdQ",
    "phone": "+919824313832",
    "phoneUnformatted": "+919824313832",
    "location": {
      "lat": 22.3051433,
      "lng": 73.2056493
    },
    "totalScore": 4.2,
    "permanentlyClosed": false,
    "temporarilyClosed": false,
    "placeId": "ChIJx4Aec17PXzkRy_0KMfV812w",
    "categories": [
      "Car stereo store",
      "Auto accessories wholesaler",
      "Car accessories store"
    ],
    "reviewsCount": 362,
    "imagesCount": 193,
    "openingHours": [
      {
        "day": "Monday",
        "hours": "10:30 AM to 8 PM"
      },
      {
        "day": "Tuesday",
        "hours": "10:30 AM to 8 PM"
      },
      {
        "day": "Wednesday",
        "hours": "10 AM to 8 PM"
      },
      {
        "day": "Thursday",
        "hours": "10 AM to 8 PM"
      },
      {
        "day": "Friday",
        "hours": "10 AM to 8 PM"
      },
      {
        "day": "Saturday",
        "hours": "10 AM to 8 PM"
      },
      {
        "day": "Sunday",
        "hours": "10 AM to 8 PM"
      }
    ],
    "imageUrl": "https://media.indianluxurycars.com/google/6240402001398183b17475f0c76eb806b7e37dc2fef93d6d2845cc3637d73808.jpg",
    "url": "https://www.google.com/maps/search/?api=1&query=Jagdamba%20Car%20Accessories&query_place_id=ChIJx4Aec17PXzkRy_0KMfV812w"
  },
  {
    "title": "Jay Ambe Travels | Waghodia Road | Vadodara/Baroda",
    "categoryName": "Car rental agency",
    "address": "Complex, 1 Shreeji Avenue, Dabhoi - Waghodia Ring Rd, Vadodara, Gujarat 390025, India",
    "neighborhood": "Goverdhan Township, Kendranagar",
    "street": "Complex, 1 Shreeji Avenue, Dabhoi - Waghodia Ring Rd",
    "city": "Vadodara",
    "postalCode": "390025",
    "state": "Gujarat",
    "countryCode": "IN",
    "website": "https://jay-ambe-travels.grexa.site/",
    "phone": "+919998952405",
    "phoneUnformatted": "+919998952405",
    "location": {
      "lat": 22.2821242,
      "lng": 73.2342261
    },
    "totalScore": 5,
    "permanentlyClosed": false,
    "temporarilyClosed": false,
    "placeId": "ChIJZyO7XLrFXzkRpjc8aXmy5bE",
    "categories": [
      "Car rental agency",
      "Car leasing service",
      "Leasing service"
    ],
    "reviewsCount": 93,
    "imagesCount": 34,
    "openingHours": [
      {
        "day": "Monday",
        "hours": "Open 24 hours"
      },
      {
        "day": "Tuesday",
        "hours": "Open 24 hours"
      },
      {
        "day": "Wednesday",
        "hours": "Open 24 hours"
      },
      {
        "day": "Thursday",
        "hours": "Open 24 hours"
      },
      {
        "day": "Friday",
        "hours": "Open 24 hours"
      },
      {
        "day": "Saturday",
        "hours": "Open 24 hours"
      },
      {
        "day": "Sunday",
        "hours": "Open 24 hours"
      }
    ],
    "imageUrl": "https://media.indianluxurycars.com/google/e47be7ab005af1a77457fce24e269ab09c68ffde58493de5c3b648efda34f6a7.png",
    "url": "https://www.google.com/maps/search/?api=1&query=Jay%20Ambe%20Travels%20%7C%20Waghodia%20Road%20%7C%20Vadodara%2FBaroda&query_place_id=ChIJZyO7XLrFXzkRpjc8aXmy5bE"
  },
  {
    "title": "Jay Bhole Travels & Car Rental Service",
    "categoryName": "Car rental agency",
    "address": "Bhairav Nagar, Manjalpur, Vadodara, Gujarat 390011, India",
    "neighborhood": "Bhairav Nagar, Manjalpur",
    "city": "Vadodara",
    "postalCode": "390011",
    "state": "Gujarat",
    "countryCode": "IN",
    "phone": "+917567269178",
    "phoneUnformatted": "+917567269178",
    "location": {
      "lat": 22.2602361,
      "lng": 73.1912136
    },
    "totalScore": 4.9,
    "permanentlyClosed": false,
    "temporarilyClosed": false,
    "placeId": "ChIJbzbf8G4kbAwRa6Ah7uoGGvo",
    "categories": [
      "Car rental agency",
      "Car leasing service",
      "Taxi service",
      "Travel agency"
    ],
    "reviewsCount": 112,
    "imagesCount": 152,
    "openingHours": [
      {
        "day": "Monday",
        "hours": "Open 24 hours"
      },
      {
        "day": "Tuesday",
        "hours": "Open 24 hours"
      },
      {
        "day": "Wednesday",
        "hours": "Open 24 hours"
      },
      {
        "day": "Thursday",
        "hours": "Open 24 hours"
      },
      {
        "day": "Friday",
        "hours": "Open 24 hours"
      },
      {
        "day": "Saturday",
        "hours": "Open 24 hours"
      },
      {
        "day": "Sunday",
        "hours": "Open 24 hours"
      }
    ],
    "imageUrl": "https://media.indianluxurycars.com/google/22a64c3bf9c0dec625e86b3c9428f65bf3efe250612fb44eec93054454516661.jpg",
    "url": "https://www.google.com/maps/search/?api=1&query=Jay%20Bhole%20Travels%20%26%20Car%20Rental%20Service&query_place_id=ChIJbzbf8G4kbAwRa6Ah7uoGGvo"
  },
  {
    "title": "Jay Mahakali Travels & Taxi Service, Car Rental in Vadodara",
    "categoryName": "Car rental agency",
    "address": "Riddhi Siddhi Society, D/209, Soma Talav Rd, near MM Vohra Showroom, Dhanlaxmi Park Society, Jalaram Nagar, Waghodia, Vadodara, Gujarat 390025, India",
    "neighborhood": "Dhanlaxmi Park Society, Jalaram Nagar, Waghodia",
    "street": "Riddhi Siddhi Society, D/209, Soma Talav Rd, near MM Vohra Showroom",
    "city": "Vadodara",
    "postalCode": "390025",
    "state": "Gujarat",
    "countryCode": "IN",
    "website": "http://www.jaymahakalitravels.com/",
    "phone": "+919662919180",
    "phoneUnformatted": "+919662919180",
    "location": {
      "lat": 22.2789864,
      "lng": 73.2363816
    },
    "totalScore": 5,
    "permanentlyClosed": false,
    "temporarilyClosed": false,
    "placeId": "ChIJAQAAjAzFXzkR7o-dz0nzPfE",
    "categories": [
      "Car rental agency",
      "Car leasing service",
      "Taxi service",
      "Tour operator",
      "Travel agency"
    ],
    "reviewsCount": 35,
    "imagesCount": 10,
    "openingHours": [
      {
        "day": "Monday",
        "hours": "Open 24 hours"
      },
      {
        "day": "Tuesday",
        "hours": "Open 24 hours"
      },
      {
        "day": "Wednesday",
        "hours": "Open 24 hours"
      },
      {
        "day": "Thursday",
        "hours": "Open 24 hours"
      },
      {
        "day": "Friday",
        "hours": "Open 24 hours"
      },
      {
        "day": "Saturday",
        "hours": "Open 24 hours"
      },
      {
        "day": "Sunday",
        "hours": "Open 24 hours"
      }
    ],
    "imageUrl": "https://media.indianluxurycars.com/google/c9300d3facf449be27faefc6bf5efd712df67b2790265950e903698a5347f5bf.jpg",
    "url": "https://www.google.com/maps/search/?api=1&query=Jay%20Mahakali%20Travels%20%26%20Taxi%20Service%2C%20Car%20Rental%20in%20Vadodara&query_place_id=ChIJAQAAjAzFXzkR7o-dz0nzPfE"
  },
  {
    "title": "JAY MOTORS",
    "categoryName": "Car dealer",
    "address": "G/4, Palm Exotic, High Tension Rd, Subhanpura, Vadodara, Gujarat 390023, India",
    "neighborhood": "Subhanpura",
    "street": "G/4, Palm Exotic, High Tension Rd",
    "city": "Vadodara",
    "postalCode": "390023",
    "state": "Gujarat",
    "countryCode": "IN",
    "location": {
      "lat": 22.3225126,
      "lng": 73.1598131
    },
    "totalScore": 5,
    "permanentlyClosed": false,
    "temporarilyClosed": false,
    "placeId": "ChIJfaavysHIXzkRYRZonncZ3aY",
    "categories": [
      "Car dealer"
    ],
    "reviewsCount": 3,
    "imagesCount": 4,
    "openingHours": [
      {
        "day": "Monday",
        "hours": "9 AM to 8:30 PM"
      },
      {
        "day": "Tuesday",
        "hours": "9 AM to 8:30 PM"
      },
      {
        "day": "Wednesday",
        "hours": "9 AM to 8:30 PM"
      },
      {
        "day": "Thursday",
        "hours": "9 AM to 8:30 PM"
      },
      {
        "day": "Friday",
        "hours": "9 AM to 8:30 PM"
      },
      {
        "day": "Saturday",
        "hours": "9 AM to 8:30 PM"
      },
      {
        "day": "Sunday",
        "hours": "9 AM to 8:30 PM"
      }
    ],
    "imageUrl": "https://media.indianluxurycars.com/google/363a3801ec8ea52d917d19a1f7c43d464e160bb9f6251adb62e421d746905f73.jpg",
    "url": "https://www.google.com/maps/search/?api=1&query=JAY%20MOTORS&query_place_id=ChIJfaavysHIXzkRYRZonncZ3aY"
  },
  {
    "title": "JJ Events & Decor",
    "subTitle": "જે જે ટ્રાવેલ્સ",
    "categoryName": "Car rental agency",
    "address": "Sidcup Tower, F-105, Race Course Rd, near Vadodara, Race Course, Gautam Nagar, Vadiwadi, Vadodara, Gujarat 390023, India",
    "neighborhood": "Race Course, Gautam Nagar, Vadiwadi",
    "street": "Sidcup Tower, F-105, Race Course Rd, near Vadodara",
    "city": "Vadodara",
    "postalCode": "390023",
    "state": "Gujarat",
    "countryCode": "IN",
    "phone": "+919824074936",
    "phoneUnformatted": "+919824074936",
    "location": {
      "lat": 22.3131409,
      "lng": 73.1639557
    },
    "totalScore": 4.2,
    "permanentlyClosed": false,
    "temporarilyClosed": false,
    "placeId": "ChIJMc-kC7zIXzkRfhoQb1Hra08",
    "categories": [
      "Car rental agency",
      "Travel agency"
    ],
    "reviewsCount": 26,
    "imagesCount": 26,
    "openingHours": [
      {
        "day": "Monday",
        "hours": "9:30 AM to 6:30 PM"
      },
      {
        "day": "Tuesday",
        "hours": "9:30 AM to 6:30 PM"
      },
      {
        "day": "Wednesday",
        "hours": "9:30 AM to 6:30 PM"
      },
      {
        "day": "Thursday",
        "hours": "9:30 AM to 6:30 PM"
      },
      {
        "day": "Friday",
        "hours": "9:30 AM to 6:30 PM"
      },
      {
        "day": "Saturday",
        "hours": "9:30 AM to 6:30 PM"
      },
      {
        "day": "Sunday",
        "hours": "Closed"
      }
    ],
    "imageUrl": "https://media.indianluxurycars.com/google/5d5091bed6b202a3ce74021fc0da2982a722814de9757137bfd0569b3297cca0.jpg",
    "url": "https://www.google.com/maps/search/?api=1&query=JJ%20Events%20%26%20Decor&query_place_id=ChIJMc-kC7zIXzkRfhoQb1Hra08"
  },
  {
    "title": "Krishna Cars",
    "subTitle": "ક્રિષ્ના કાર્સ",
    "categoryName": "Car dealer",
    "address": "Showroom No. 21-22, Vasanti Nivas, mali mohalla naka, opposite chubbs safes showr, opposite A.S. Motors, Salatwada, Karelibagh, Vadodara, Gujarat 390001, India",
    "neighborhood": "Salatwada, Karelibagh",
    "street": "Showroom No. 21-22, Vasanti Nivas, mali mohalla naka, opposite chubbs safes showr, opposite A.S. Motors",
    "city": "Vadodara",
    "postalCode": "390001",
    "state": "Gujarat",
    "countryCode": "IN",
    "phone": "+919825061771",
    "phoneUnformatted": "+919825061771",
    "location": {
      "lat": 22.3068595,
      "lng": 73.1961865
    },
    "totalScore": 2.7,
    "permanentlyClosed": false,
    "temporarilyClosed": false,
    "placeId": "ChIJgyy2h1nPXzkRXri0_Ee4qwM",
    "categories": [
      "Car dealer",
      "Motorcycle dealer",
      "Used car dealer"
    ],
    "reviewsCount": 3,
    "imagesCount": 3,
    "openingHours": [
      {
        "day": "Monday",
        "hours": "9:30 AM to 8:30 PM"
      },
      {
        "day": "Tuesday",
        "hours": "9:30 AM to 8:30 PM"
      },
      {
        "day": "Wednesday",
        "hours": "9:30 AM to 8:30 PM"
      },
      {
        "day": "Thursday",
        "hours": "9:30 AM to 8:30 PM"
      },
      {
        "day": "Friday",
        "hours": "9:30 AM to 8:30 PM"
      },
      {
        "day": "Saturday",
        "hours": "9:30 AM to 8:30 PM"
      },
      {
        "day": "Sunday",
        "hours": "9:30 AM to 2:45 PM"
      }
    ],
    "imageUrl": "https://media.indianluxurycars.com/google/b7c5375ee99018ba584ec56952028fe255d8e6601f301e31912c5112d1760e48.jpg",
    "url": "https://www.google.com/maps/search/?api=1&query=Krishna%20Cars&query_place_id=ChIJgyy2h1nPXzkRXri0_Ee4qwM"
  },
  {
    "title": "Less Driven Cars - Genuine Used Cars",
    "subTitle": "લેસ ડ્રાઇવન કાર્સ - ગેનુઇને યુઝ્ડ કાર્સ",
    "categoryName": "Used car dealer",
    "address": "GF-10, Arize House, B/S Venus Hospital, 206/7, Old Padra Rd, beside Venus Hospital, opp. Ward No. 6, Shreenathji Park Society, Madhav Nagar, Akota, Vadodara, Gujarat 390007, India",
    "neighborhood": "Shreenathji Park Society, Madhav Nagar, Akota",
    "street": "GF-10, Arize House, B/S Venus Hospital, 206/7, Old Padra Rd, beside Venus Hospital, opp. Ward No. 6",
    "city": "Vadodara",
    "postalCode": "390007",
    "state": "Gujarat",
    "countryCode": "IN",
    "website": "http://www.lessdrivencars.com/",
    "phone": "+918469788889",
    "phoneUnformatted": "+918469788889",
    "location": {
      "lat": 22.2888346,
      "lng": 73.1656606
    },
    "totalScore": 4.2,
    "permanentlyClosed": false,
    "temporarilyClosed": false,
    "placeId": "ChIJZy_LXxfFXzkRaPgTbEuYtYw",
    "categories": [
      "Used car dealer"
    ],
    "reviewsCount": 9,
    "imagesCount": 1,
    "openingHours": [
      {
        "day": "Monday",
        "hours": "10:30 AM to 8 PM"
      },
      {
        "day": "Tuesday",
        "hours": "10:30 AM to 8 PM"
      },
      {
        "day": "Wednesday",
        "hours": "10:30 AM to 8 PM"
      },
      {
        "day": "Thursday",
        "hours": "10:30 AM to 8 PM"
      },
      {
        "day": "Friday",
        "hours": "10:30 AM to 8 PM"
      },
      {
        "day": "Saturday",
        "hours": "10:30 AM to 8 PM"
      },
      {
        "day": "Sunday",
        "hours": "10:30 AM to 8 PM"
      }
    ],
    "imageUrl": "https://media.indianluxurycars.com/google/799f2dcb1aa4fe013f1b33e5a8f81b839a83df696881824e5b5f78a4093b50d8.jpg",
    "url": "https://www.google.com/maps/search/?api=1&query=Less%20Driven%20Cars%20-%20Genuine%20Used%20Cars&query_place_id=ChIJZy_LXxfFXzkRaPgTbEuYtYw"
  },
  {
    "title": "Lotus Automotives",
    "categoryName": "Car dealer",
    "address": "2,3, Darshan Flats, Gotri Rd, opp. Rajesh Tower Road, Divya Darshan Society, Hari Nagar, Vadodara, Gujarat 390021, India",
    "neighborhood": "Divya Darshan Society, Hari Nagar",
    "street": "2,3, Darshan Flats, Gotri Rd, opp. Rajesh Tower Road",
    "city": "Vadodara",
    "postalCode": "390021",
    "state": "Gujarat",
    "countryCode": "IN",
    "phone": "+918235353588",
    "phoneUnformatted": "+918235353588",
    "location": {
      "lat": 22.3152932,
      "lng": 73.1509076
    },
    "totalScore": 4.6,
    "permanentlyClosed": false,
    "temporarilyClosed": false,
    "placeId": "ChIJ--9zzp7JXzkRWVEUInC65Ys",
    "categories": [
      "Car dealer"
    ],
    "reviewsCount": 17,
    "imagesCount": 47,
    "openingHours": [
      {
        "day": "Monday",
        "hours": "11 AM to 7 PM"
      },
      {
        "day": "Tuesday",
        "hours": "11 AM to 7 PM"
      },
      {
        "day": "Wednesday",
        "hours": "11 AM to 7 PM"
      },
      {
        "day": "Thursday",
        "hours": "11 AM to 7 PM"
      },
      {
        "day": "Friday",
        "hours": "11 AM to 7 PM"
      },
      {
        "day": "Saturday",
        "hours": "11 AM to 7 PM"
      },
      {
        "day": "Sunday",
        "hours": "11 AM to 7 PM"
      }
    ],
    "imageUrl": "https://media.indianluxurycars.com/google/27df7a2bc70342cba8d5cd984916e90f888323002fa5b4b94a525a6187564e2b.jpg",
    "url": "https://www.google.com/maps/search/?api=1&query=Lotus%20Automotives&query_place_id=ChIJ--9zzp7JXzkRWVEUInC65Ys"
  },
  {
    "title": "LUXURY CAR TAXI VADODARA",
    "categoryName": "Car leasing service",
    "address": "Amrapali Complex, makarpura, Karelibagh, Vadodara, Gujarat 390018, India",
    "neighborhood": "makarpura, Karelibagh",
    "street": "Amrapali Complex",
    "city": "Vadodara",
    "postalCode": "390018",
    "state": "Gujarat",
    "countryCode": "IN",
    "location": {
      "lat": 22.3203816,
      "lng": 73.1993189
    },
    "totalScore": 5,
    "permanentlyClosed": false,
    "temporarilyClosed": false,
    "placeId": "ChIJI9VS5YvPXzkRyqfHH42UtvE",
    "categories": [
      "Car leasing service",
      "Tour operator",
      "Tourist information center",
      "Travel agency"
    ],
    "reviewsCount": 1,
    "imagesCount": 8,
    "openingHours": [
      {
        "day": "Monday",
        "hours": "Open 24 hours"
      },
      {
        "day": "Tuesday",
        "hours": "Open 24 hours"
      },
      {
        "day": "Wednesday",
        "hours": "Open 24 hours"
      },
      {
        "day": "Thursday",
        "hours": "Open 24 hours"
      },
      {
        "day": "Friday",
        "hours": "Open 24 hours"
      },
      {
        "day": "Saturday",
        "hours": "Open 24 hours"
      },
      {
        "day": "Sunday",
        "hours": "Open 24 hours"
      }
    ],
    "imageUrl": "https://media.indianluxurycars.com/google/262de4f25b8cf837abd7de63f5557549a6a58f806aace7aa8bce26a3c0a314ad.png",
    "url": "https://www.google.com/maps/search/?api=1&query=LUXURY%20CAR%20TAXI%20VADODARA&query_place_id=ChIJI9VS5YvPXzkRyqfHH42UtvE"
  },
  {
    "title": "LUXURY MOTORS",
    "subTitle": "લકઝરી મોટર્સ",
    "categoryName": "Car repair and maintenance service",
    "address": "52,53, Mohangirikrupa Society, Vadsar Rd, opp. Bank Of Baroda, Makarpura GIDC, Manjalpur, Vadodara, Gujarat 390010, India",
    "neighborhood": "Makarpura GIDC, Manjalpur",
    "street": "52,53, Mohangirikrupa Society, Vadsar Rd, opp. Bank Of Baroda",
    "city": "Vadodara",
    "postalCode": "390010",
    "state": "Gujarat",
    "countryCode": "IN",
    "phone": "+919558083608",
    "phoneUnformatted": "+919558083608",
    "location": {
      "lat": 22.2587795,
      "lng": 73.1922949
    },
    "totalScore": 4.9,
    "permanentlyClosed": false,
    "temporarilyClosed": false,
    "placeId": "ChIJE7ZNncPFXzkRsVeUYFPlqxE",
    "categories": [
      "Car repair and maintenance service"
    ],
    "reviewsCount": 16,
    "imagesCount": 30,
    "openingHours": [
      {
        "day": "Monday",
        "hours": "9 AM to 10 PM"
      },
      {
        "day": "Tuesday",
        "hours": "9 AM to 10 PM"
      },
      {
        "day": "Wednesday",
        "hours": "9 AM to 10 PM"
      },
      {
        "day": "Thursday",
        "hours": "9 AM to 10 PM"
      },
      {
        "day": "Friday",
        "hours": "9 AM to 10 PM"
      },
      {
        "day": "Saturday",
        "hours": "9 AM to 10 PM"
      },
      {
        "day": "Sunday",
        "hours": "9 AM to 10 PM"
      }
    ],
    "imageUrl": "https://media.indianluxurycars.com/google/df3bdb173a87579f188fb18b8a1e34e10b197aef5c39c7ff1497ade6dcf4ad1c.jpg",
    "url": "https://www.google.com/maps/search/?api=1&query=LUXURY%20MOTORS&query_place_id=ChIJE7ZNncPFXzkRsVeUYFPlqxE"
  },
  {
    "title": "MAHADEV TAXI & CAB SERVICES - Taxi Service In Vadodara, Baroda Taxi Service, Airport Cab, One Way Cab, Car Rental Service",
    "subTitle": "મહાદેવ ટેક્સી",
    "categoryName": "Car rental agency",
    "address": "A 301 Darshanam Oasis, New Karelibaug Opp: My Shannon School, Sayaji Twp Rd, near Mukhinagar, Vadodara, Gujarat 390019, India",
    "neighborhood": "Ayodhya Nagar, Sayaji Park Society",
    "street": "A 301 Darshanam Oasis, New Karelibaug Opp: My Shannon School, Sayaji Twp Rd, near Mukhinagar",
    "city": "Vadodara",
    "postalCode": "390019",
    "state": "Gujarat",
    "countryCode": "IN",
    "website": "https://mahadevcabservice.com/",
    "phone": "+919638244688",
    "phoneUnformatted": "+919638244688",
    "location": {
      "lat": 22.3214986,
      "lng": 73.2328593
    },
    "totalScore": 4.9,
    "permanentlyClosed": false,
    "temporarilyClosed": false,
    "placeId": "ChIJt87GIJzPXzkRtVQYmXS2tZ4",
    "categories": [
      "Car rental agency",
      "Taxi service"
    ],
    "reviewsCount": 1637,
    "imagesCount": 20,
    "openingHours": [],
    "imageUrl": "https://media.indianluxurycars.com/google/c6fc30b029bbcab615c631778b57ece7f881c1e1ef60088a0874db8f40361a45.jpg",
    "url": "https://www.google.com/maps/search/?api=1&query=MAHADEV%20TAXI%20%26%20CAB%20SERVICES%20-%20Taxi%20Service%20In%20Vadodara%2C%20Baroda%20Taxi%20Service%2C%20Airport%20Cab%2C%20One%20Way%20Cab%2C%20Car%20Rental%20Service&query_place_id=ChIJt87GIJzPXzkRtVQYmXS2tZ4"
  },
  {
    "title": "Mahindra MM Vora Automobile - SUV & Commercial Vehicle Showroom",
    "subTitle": "મહિન્દ્રા એમએમ વોરા ઓટોમોબાઇલ્સ",
    "categoryName": "Car dealer",
    "address": "Dabhoi Rd, opp. Octroi Check Post, near Soma Talab, Uma Nagar, Soma Talav, Vadodara, Gujarat 390025, India",
    "neighborhood": "Uma Nagar, Soma Talav",
    "street": "Dabhoi Rd, opp. Octroi Check Post, near Soma Talab",
    "city": "Vadodara",
    "postalCode": "390025",
    "state": "Gujarat",
    "countryCode": "IN",
    "website": "https://dealers-auto.mahindra.com/mahindra-mm-vora-automobile-suv-and-commercial-showroom-mv001m010261-vadodara",
    "phone": "+917948221619",
    "phoneUnformatted": "+917948221619",
    "location": {
      "lat": 22.2787235,
      "lng": 73.23273
    },
    "totalScore": 4.1,
    "permanentlyClosed": false,
    "temporarilyClosed": false,
    "placeId": "ChIJoQEiC5jFXzkRIO3yAkf3-VQ",
    "categories": [
      "Car dealer"
    ],
    "reviewsCount": 436,
    "imagesCount": 210,
    "openingHours": [
      {
        "day": "Monday",
        "hours": "9:30 AM to 7:30 PM"
      },
      {
        "day": "Tuesday",
        "hours": "9:30 AM to 7:30 PM"
      },
      {
        "day": "Wednesday",
        "hours": "9:30 AM to 7:30 PM"
      },
      {
        "day": "Thursday",
        "hours": "9:30 AM to 7:30 PM"
      },
      {
        "day": "Friday",
        "hours": "9:30 AM to 7:30 PM"
      },
      {
        "day": "Saturday",
        "hours": "9:30 AM to 7:30 PM"
      },
      {
        "day": "Sunday",
        "hours": "10 AM to 5 PM"
      }
    ],
    "imageUrl": "https://media.indianluxurycars.com/google/aa95ea5518fd373c931d03ea984c9be8bd20ed2a6b272fe3717171b6a6656714.jpg",
    "url": "https://www.google.com/maps/search/?api=1&query=Mahindra%20MM%20Vora%20Automobile%20-%20SUV%20%26%20Commercial%20Vehicle%20Showroom&query_place_id=ChIJoQEiC5jFXzkRIO3yAkf3-VQ"
  },
  {
    "title": "Matrix cabs Pvt Ltd",
    "categoryName": "Car leasing service",
    "address": "206, Nautillus Building, Police Station, near Hotel Kansar, behind Sayajigunj, Sarod, Sayajiganj, Vadodara, Gujarat 390007, India",
    "neighborhood": "Sarod, Sayajiganj",
    "street": "206, Nautillus Building, Police Station, near Hotel Kansar, behind Sayajigunj",
    "city": "Vadodara",
    "postalCode": "390007",
    "state": "Gujarat",
    "countryCode": "IN",
    "website": "https://www.matrixcab.in/",
    "phone": "+918602920292",
    "phoneUnformatted": "+918602920292",
    "location": {
      "lat": 22.3092423,
      "lng": 73.1827333
    },
    "totalScore": 4.8,
    "permanentlyClosed": false,
    "temporarilyClosed": false,
    "placeId": "ChIJYaagDT3PXzkRBiWXR9Hexgc",
    "categories": [
      "Car leasing service",
      "Taxi service"
    ],
    "reviewsCount": 1323,
    "imagesCount": 5,
    "openingHours": [],
    "imageUrl": "https://media.indianluxurycars.com/google/c5eee1cdb0bcb21de732ec4635b304b165c22b5e1504b1520c4cb3569ac98a93.jpg",
    "url": "https://www.google.com/maps/search/?api=1&query=Matrix%20cabs%20Pvt%20Ltd&query_place_id=ChIJYaagDT3PXzkRBiWXR9Hexgc"
  },
  {
    "title": "Mercedes-Benz - Landmark Cars Showroom Vadodara",
    "categoryName": "Mercedes-Benz dealer",
    "address": "Next to Gujarat Public School Near Kalali, Railway Crossing, Atladara, Vadodara, Gujarat 390007, India",
    "neighborhood": "Atladara",
    "street": "Next to Gujarat Public School Near Kalali, Railway Crossing",
    "city": "Vadodara",
    "postalCode": "390007",
    "state": "Gujarat",
    "countryCode": "IN",
    "website": "https://www.landmarkcarsgj.mercedes-benz.co.in/en/desktop/passenger-cars/vehicle-type/new-cars/model-overview-new.html",
    "phone": "+919377390001",
    "phoneUnformatted": "+919377390001",
    "location": {
      "lat": 22.2765337,
      "lng": 73.1626332
    },
    "totalScore": 4.6,
    "permanentlyClosed": false,
    "temporarilyClosed": false,
    "placeId": "ChIJ4YQUWhTGXzkReD85nigU0ko",
    "categories": [
      "Mercedes-Benz dealer",
      "Car dealer"
    ],
    "reviewsCount": 276,
    "imagesCount": 178,
    "openingHours": [
      {
        "day": "Monday",
        "hours": "10 AM to 7 PM"
      },
      {
        "day": "Tuesday",
        "hours": "10 AM to 7 PM"
      },
      {
        "day": "Wednesday",
        "hours": "10 AM to 7 PM"
      },
      {
        "day": "Thursday",
        "hours": "10 AM to 7 PM"
      },
      {
        "day": "Friday",
        "hours": "10 AM to 7 PM"
      },
      {
        "day": "Saturday",
        "hours": "10 AM to 7 PM"
      },
      {
        "day": "Sunday",
        "hours": "10 AM to 7 PM"
      }
    ],
    "imageUrl": "https://media.indianluxurycars.com/google/7fd4f7c0ebc9bee522695e37ca48595ae11981686d97b98f7987c7fccc667e6f.jpg",
    "url": "https://www.google.com/maps/search/?api=1&query=Mercedes-Benz%20-%20Landmark%20Cars%20Showroom%20Vadodara&query_place_id=ChIJ4YQUWhTGXzkReD85nigU0ko"
  },
  {
    "title": "Mitron Rental Car's",
    "categoryName": "Car leasing service",
    "address": "Sangam Cir, Sangam Char Rasta, Sawad, Bapunagar, Vadodara, Gujarat 390022, India",
    "neighborhood": "Sangam Char Rasta, Sawad, Bapunagar",
    "street": "Sangam Cir",
    "city": "Vadodara",
    "postalCode": "390022",
    "state": "Gujarat",
    "countryCode": "IN",
    "location": {
      "lat": 22.3195069,
      "lng": 73.2122868
    },
    "totalScore": 5,
    "permanentlyClosed": false,
    "temporarilyClosed": false,
    "placeId": "ChIJGftvMfnPXzkR9uudoChAJ2k",
    "categories": [
      "Car leasing service"
    ],
    "reviewsCount": 5,
    "imagesCount": 6,
    "openingHours": [
      {
        "day": "Monday",
        "hours": "Open 24 hours"
      },
      {
        "day": "Tuesday",
        "hours": "Open 24 hours"
      },
      {
        "day": "Wednesday",
        "hours": "Open 24 hours"
      },
      {
        "day": "Thursday",
        "hours": "Open 24 hours"
      },
      {
        "day": "Friday",
        "hours": "Open 24 hours"
      },
      {
        "day": "Saturday",
        "hours": "Open 24 hours"
      },
      {
        "day": "Sunday",
        "hours": "Open 24 hours"
      }
    ],
    "imageUrl": "https://media.indianluxurycars.com/google/f7e675ddcf64b74d826e4d087f3d913813c1c50fbdf22facf9109951f74ef127.jpg",
    "url": "https://www.google.com/maps/search/?api=1&query=Mitron%20Rental%20Car's&query_place_id=ChIJGftvMfnPXzkR9uudoChAJ2k"
  },
  {
    "title": "Modi Travels",
    "subTitle": "મોદી ટ્રાવેલ્સ",
    "categoryName": "Car rental agency",
    "address": "FF - 117 Shree Siddhivinayak Complex, Faramji Rd, near Harmony Hotel, opposite Railway Booking Office, Alkapuri, Vadodara, Gujarat 390007, India",
    "neighborhood": "Alkapuri",
    "street": "FF - 117 Shree Siddhivinayak Complex, Faramji Rd, near Harmony Hotel, opposite Railway Booking Office",
    "city": "Vadodara",
    "postalCode": "390007",
    "state": "Gujarat",
    "countryCode": "IN",
    "website": "https://mydigitalcard.pro/Modi-Travels-",
    "phone": "+919825041629",
    "phoneUnformatted": "+919825041629",
    "location": {
      "lat": 22.3112472,
      "lng": 73.1794274
    },
    "totalScore": 4.8,
    "permanentlyClosed": false,
    "temporarilyClosed": false,
    "placeId": "ChIJAQAAwDbPXzkR6B6ab7u8ZxU",
    "categories": [
      "Car rental agency",
      "Car leasing service",
      "Taxi service"
    ],
    "reviewsCount": 749,
    "imagesCount": 149,
    "openingHours": [
      {
        "day": "Monday",
        "hours": "Open 24 hours"
      },
      {
        "day": "Tuesday",
        "hours": "Open 24 hours"
      },
      {
        "day": "Wednesday",
        "hours": "Open 24 hours"
      },
      {
        "day": "Thursday",
        "hours": "Open 24 hours"
      },
      {
        "day": "Friday",
        "hours": "Open 24 hours"
      },
      {
        "day": "Saturday",
        "hours": "Open 24 hours"
      },
      {
        "day": "Sunday",
        "hours": "Open 24 hours"
      }
    ],
    "imageUrl": "https://media.indianluxurycars.com/google/306c088334460adfa4ee3c4b8041d6e07fc0cdf049ebe2ab156bcb57ef15ff61.jpg",
    "url": "https://www.google.com/maps/search/?api=1&query=Modi%20Travels&query_place_id=ChIJAQAAwDbPXzkR6B6ab7u8ZxU"
  },
  {
    "title": "Morden Auto Consultant - Car Dealer/Used Car Dealer/Second Hand Car Dealer In Makarpura",
    "subTitle": "મોર્ડન ઓટો સલાહકાર",
    "categoryName": "Used car dealer",
    "address": "Shop No.10/10, Brij Industries, Vadsar Road, opposite Shree Saibaba Mandir, Krishna Nagar, Makarpura GIDC, Makarpura, Vadodara, Gujarat 390010, India",
    "neighborhood": "Krishna Nagar, Makarpura GIDC, Makarpura",
    "street": "Shop No.10/10, Brij Industries, Vadsar Road, opposite Shree Saibaba Mandir",
    "city": "Vadodara",
    "postalCode": "390010",
    "state": "Gujarat",
    "countryCode": "IN",
    "phone": "+919924828559",
    "phoneUnformatted": "+919924828559",
    "location": {
      "lat": 22.2575881,
      "lng": 73.1956268
    },
    "totalScore": 4.8,
    "permanentlyClosed": false,
    "temporarilyClosed": false,
    "placeId": "ChIJB0jpos3FXzkR7YXlt0kBIFk",
    "categories": [
      "Used car dealer"
    ],
    "reviewsCount": 37,
    "imagesCount": 75,
    "openingHours": [
      {
        "day": "Monday",
        "hours": "9 AM to 8 PM"
      },
      {
        "day": "Tuesday",
        "hours": "9 AM to 8 PM"
      },
      {
        "day": "Wednesday",
        "hours": "9 AM to 8 PM"
      },
      {
        "day": "Thursday",
        "hours": "9 AM to 8 PM"
      },
      {
        "day": "Friday",
        "hours": "9 AM to 8 PM"
      },
      {
        "day": "Saturday",
        "hours": "9 AM to 8 PM"
      },
      {
        "day": "Sunday",
        "hours": "9 AM to 8 PM"
      }
    ],
    "imageUrl": "https://media.indianluxurycars.com/google/eadef58c67e8c71c59b69f53c918fea2275c73b7cdaf273be34c0d57879ee634.jpg",
    "url": "https://www.google.com/maps/search/?api=1&query=Morden%20Auto%20Consultant%20-%20Car%20Dealer%2FUsed%20Car%20Dealer%2FSecond%20Hand%20Car%20Dealer%20In%20Makarpura&query_place_id=ChIJB0jpos3FXzkR7YXlt0kBIFk"
  },
  {
    "title": "NEW MAA TRAVELS VADODARA",
    "categoryName": "Car rental agency",
    "address": "Sama gam nr, Urmi School Over Bridge, New Sama, Vadodara, Gujarat 390024, India",
    "neighborhood": "New Sama",
    "street": "Sama gam nr, Urmi School Over Bridge",
    "city": "Vadodara",
    "postalCode": "390024",
    "state": "Gujarat",
    "countryCode": "IN",
    "phone": "+919925376716",
    "phoneUnformatted": "+919925376716",
    "location": {
      "lat": 22.3380625,
      "lng": 73.2041875
    },
    "permanentlyClosed": false,
    "temporarilyClosed": false,
    "placeId": "ChIJc-xGmX7PXzkRtLhuqWDRFiw",
    "categories": [
      "Car rental agency"
    ],
    "imagesCount": 2,
    "openingHours": [
      {
        "day": "Monday",
        "hours": "Open 24 hours"
      },
      {
        "day": "Tuesday",
        "hours": "Open 24 hours"
      },
      {
        "day": "Wednesday",
        "hours": "Open 24 hours"
      },
      {
        "day": "Thursday",
        "hours": "Open 24 hours"
      },
      {
        "day": "Friday",
        "hours": "Open 24 hours"
      },
      {
        "day": "Saturday",
        "hours": "Open 24 hours"
      },
      {
        "day": "Sunday",
        "hours": "Open 24 hours"
      }
    ],
    "imageUrl": "https://media.indianluxurycars.com/google/a92d0e38f91107da4fc96f752a4747e36cfcfc651f9c894e9612fe8ff733f75c.jpg",
    "url": "https://www.google.com/maps/search/?api=1&query=NEW%20MAA%20TRAVELS%20VADODARA&query_place_id=ChIJc-xGmX7PXzkRtLhuqWDRFiw"
  },
  {
    "title": "NUMBER 1 CARS GUJARAT",
    "categoryName": "Car dealer",
    "address": "Waghodia road, nr Vrundavan char rasta , bharat petrol pump Pachi & Ganesh dosa Gali & Bapod, Garden ni gali 69, Chandranagar Society, Vadodara, Gujarat 390019, India",
    "neighborhood": "Chandranagar Society, Waghodia",
    "street": "Waghodia road, nr Vrundavan char rasta , bharat petrol pump Pachi & Ganesh dosa Gali & Bapod, Garden ni gali 69",
    "city": "Vadodara",
    "postalCode": "390019",
    "state": "Gujarat",
    "countryCode": "IN",
    "location": {
      "lat": 22.3030906,
      "lng": 73.2369252
    },
    "totalScore": 4.6,
    "permanentlyClosed": false,
    "temporarilyClosed": false,
    "placeId": "ChIJfaKpQ9PPXzkRugLUBDdBnbU",
    "categories": [
      "Car dealer"
    ],
    "reviewsCount": 28,
    "imagesCount": 7,
    "openingHours": [
      {
        "day": "Monday",
        "hours": "9 AM to 7 PM"
      },
      {
        "day": "Tuesday",
        "hours": "9 AM to 7 PM"
      },
      {
        "day": "Wednesday",
        "hours": "9 AM to 7 PM"
      },
      {
        "day": "Thursday",
        "hours": "9 AM to 7 PM"
      },
      {
        "day": "Friday",
        "hours": "9 AM to 7 PM"
      },
      {
        "day": "Saturday",
        "hours": "9 AM to 7 PM"
      },
      {
        "day": "Sunday",
        "hours": "9 AM to 6 PM"
      }
    ],
    "imageUrl": "https://media.indianluxurycars.com/google/f6d1273838da413d353f41ccb5aeb55a8fbc134b7f32a20e73d70989b32873ad.jpg",
    "url": "https://www.google.com/maps/search/?api=1&query=NUMBER%201%20CARS%20GUJARAT&query_place_id=ChIJfaKpQ9PPXzkRugLUBDdBnbU"
  },
  {
    "title": "P R MEHTA CAR RENTAL",
    "subTitle": "પ ર મેહતા કાર રેંટલ पी आर मेहता कार रेंटल",
    "categoryName": "Car rental agency",
    "address": "Krishna Industrial Estate, B/7/34, Gorwa Rd, opposite Bidc Gorwa, BIDC Gorwa Estate, Gorwa, Vadodara, Gujarat 390003, India",
    "neighborhood": "BIDC Gorwa Estate, Gorwa",
    "street": "Krishna Industrial Estate, B/7/34, Gorwa Rd, opposite Bidc Gorwa",
    "city": "Vadodara",
    "postalCode": "390003",
    "state": "Gujarat",
    "countryCode": "IN",
    "website": "http://www.prmehta.com/contact_us",
    "phone": "+919537242424",
    "phoneUnformatted": "+919537242424",
    "location": {
      "lat": 22.3281843,
      "lng": 73.166526
    },
    "totalScore": 3.9,
    "permanentlyClosed": false,
    "temporarilyClosed": false,
    "placeId": "ChIJ-aAnEcTIXzkRDeJuFfox_dI",
    "categories": [
      "Car rental agency"
    ],
    "reviewsCount": 55,
    "imagesCount": 514,
    "openingHours": [
      {
        "day": "Monday",
        "hours": "Open 24 hours"
      },
      {
        "day": "Tuesday",
        "hours": "Open 24 hours"
      },
      {
        "day": "Wednesday",
        "hours": "Open 24 hours"
      },
      {
        "day": "Thursday",
        "hours": "Open 24 hours"
      },
      {
        "day": "Friday",
        "hours": "Open 24 hours"
      },
      {
        "day": "Saturday",
        "hours": "Open 24 hours"
      },
      {
        "day": "Sunday",
        "hours": "Open 24 hours"
      }
    ],
    "imageUrl": "https://media.indianluxurycars.com/google/a72656f9a111e05f92f14252670bf90fa50b19d8b6ab040688acc00114490e64.jpg",
    "url": "https://www.google.com/maps/search/?api=1&query=P%20R%20MEHTA%20CAR%20RENTAL&query_place_id=ChIJ-aAnEcTIXzkRDeJuFfox_dI"
  },
  {
    "title": "Panchal Cars",
    "subTitle": "પંચાલ કાર્સ",
    "categoryName": "Used car dealer",
    "address": "society Nr, Parth Bhoomi 1, Jupiter Rd, Manjalpur, Vadodara, Gujarat 390010, India",
    "neighborhood": "Manjalpur",
    "street": "society Nr, Parth Bhoomi 1, Jupiter Rd",
    "city": "Vadodara",
    "postalCode": "390010",
    "state": "Gujarat",
    "countryCode": "IN",
    "phone": "+917383312356",
    "phoneUnformatted": "+917383312356",
    "location": {
      "lat": 22.2614461,
      "lng": 73.1944263
    },
    "totalScore": 4.1,
    "permanentlyClosed": false,
    "temporarilyClosed": false,
    "placeId": "ChIJzTPsVrDFXzkRhWnFpIhfKiA",
    "categories": [
      "Used car dealer"
    ],
    "reviewsCount": 28,
    "imagesCount": 19,
    "openingHours": [
      {
        "day": "Monday",
        "hours": "10 AM to 7 PM"
      },
      {
        "day": "Tuesday",
        "hours": "10 AM to 7 PM"
      },
      {
        "day": "Wednesday",
        "hours": "10 AM to 7 PM"
      },
      {
        "day": "Thursday",
        "hours": "10 AM to 7 PM"
      },
      {
        "day": "Friday",
        "hours": "10 AM to 7 PM"
      },
      {
        "day": "Saturday",
        "hours": "10 AM to 7 PM"
      },
      {
        "day": "Sunday",
        "hours": "10 AM to 2 PM"
      }
    ],
    "imageUrl": "https://media.indianluxurycars.com/google/c6000189a7bf484a6fca3266a5f580f1b1f590137ed54ccd9bd9a9f74e0815f2.jpg",
    "url": "https://www.google.com/maps/search/?api=1&query=Panchal%20Cars&query_place_id=ChIJzTPsVrDFXzkRhWnFpIhfKiA"
  },
  {
    "title": "Parth Bus services PVT LTD",
    "categoryName": "Car rental agency",
    "address": "GF-33,34, Maruthi Complex, opposite Bharati Complex, Swaminarayan Nagar, Nizampura, Vadodara, Gujarat 390024, India",
    "neighborhood": "Swaminarayan Nagar, Nizampura",
    "street": "GF-33,34, Maruthi Complex, opposite Bharati Complex",
    "city": "Vadodara",
    "postalCode": "390024",
    "state": "Gujarat",
    "countryCode": "IN",
    "website": "https://parthbusservices.com/",
    "phone": "+919824076940",
    "phoneUnformatted": "+919824076940",
    "location": {
      "lat": 22.3387913,
      "lng": 73.1781842
    },
    "totalScore": 3.9,
    "permanentlyClosed": false,
    "temporarilyClosed": false,
    "placeId": "ChIJVVVVVTLPXzkRBy4BA3WJN_o",
    "categories": [
      "Car rental agency",
      "Bus tour agency",
      "Car leasing service",
      "Travel agency",
      "Minibus taxi service",
      "Taxi service"
    ],
    "reviewsCount": 302,
    "imagesCount": 100,
    "openingHours": [
      {
        "day": "Monday",
        "hours": "10 AM to 10 PM"
      },
      {
        "day": "Tuesday",
        "hours": "10 AM to 10 PM"
      },
      {
        "day": "Wednesday",
        "hours": "10 AM to 10 PM"
      },
      {
        "day": "Thursday",
        "hours": "10 AM to 10 PM"
      },
      {
        "day": "Friday",
        "hours": "10 AM to 10 PM"
      },
      {
        "day": "Saturday",
        "hours": "10 AM to 10 PM"
      },
      {
        "day": "Sunday",
        "hours": "10 AM to 10 PM"
      }
    ],
    "imageUrl": "https://media.indianluxurycars.com/google/c2493c3e08103c0ef2407a5dff25b82d4b82cd7ea8c427a72a6f6c1d5f99b943.jpg",
    "url": "https://www.google.com/maps/search/?api=1&query=Parth%20Bus%20services%20PVT%20LTD&query_place_id=ChIJVVVVVTLPXzkRBy4BA3WJN_o"
  },
  {
    "title": "Pramukh Auto Deal",
    "subTitle": "પ્રમુખ ઓટો ડીલ",
    "categoryName": "Used car dealer",
    "address": "25, Shankheshwar Parshwanath Marg Near Soni Center,Opp. D Mart,Rang Yogi Society, Akota, Shankheshwar Parshwanath Marg, Near Soni Center,Opp. D Mart,Rang Yogi Society, Ajit Nagar Society, Akota, Vadodara, Gujarat 390007, India",
    "neighborhood": "Near Soni Center,Opp. D Mart,Rang Yogi Society, Ajit Nagar Society, Akota",
    "street": "25, Shankheshwar Parshwanath Marg Near Soni Center,Opp. D Mart,Rang Yogi Society, Akota, Shankheshwar Parshwanath Marg",
    "city": "Vadodara",
    "postalCode": "390007",
    "state": "Gujarat",
    "countryCode": "IN",
    "phone": "+919825045597",
    "phoneUnformatted": "+919825045597",
    "location": {
      "lat": 22.2991437,
      "lng": 73.1706125
    },
    "totalScore": 4.4,
    "permanentlyClosed": false,
    "temporarilyClosed": false,
    "placeId": "ChIJH12jDKjIXzkR9T2AKVqK7Io",
    "categories": [
      "Used car dealer",
      "Life insurance agency"
    ],
    "reviewsCount": 9,
    "imagesCount": 4,
    "openingHours": [
      {
        "day": "Monday",
        "hours": "10 AM to 7:30 PM"
      },
      {
        "day": "Tuesday",
        "hours": "10 AM to 7:30 PM"
      },
      {
        "day": "Wednesday",
        "hours": "10 AM to 7:30 PM"
      },
      {
        "day": "Thursday",
        "hours": "10 AM to 7:30 PM"
      },
      {
        "day": "Friday",
        "hours": "10 AM to 7:30 PM"
      },
      {
        "day": "Saturday",
        "hours": "10 AM to 7:30 PM"
      },
      {
        "day": "Sunday",
        "hours": "10 AM to 2:45 PM"
      }
    ],
    "imageUrl": "https://media.indianluxurycars.com/google/4a89947d1d8ad6e186ae730819ddbd201988abbcdd04ee49a3bc9ce956d62d06.jpg",
    "url": "https://www.google.com/maps/search/?api=1&query=Pramukh%20Auto%20Deal&query_place_id=ChIJH12jDKjIXzkR9T2AKVqK7Io"
  },
  {
    "title": "Prime Auto Deal",
    "categoryName": "Car dealer",
    "address": "1-1, near Gopinathji Honda showroom, Makarpura GIDC, Makarpura, Vadodara, Gujarat 390010, India",
    "neighborhood": "Makarpura GIDC, Makarpura",
    "street": "1-1, near Gopinathji Honda showroom",
    "city": "Vadodara",
    "postalCode": "390010",
    "state": "Gujarat",
    "countryCode": "IN",
    "phone": "+917990556162",
    "phoneUnformatted": "+917990556162",
    "location": {
      "lat": 22.2591179,
      "lng": 73.1848659
    },
    "totalScore": 3.7,
    "permanentlyClosed": false,
    "temporarilyClosed": false,
    "placeId": "ChIJt4xGinHPXzkRNwmJ2u992Cg",
    "categories": [
      "Car dealer",
      "Auto broker"
    ],
    "reviewsCount": 158,
    "imagesCount": 1,
    "openingHours": [
      {
        "day": "Monday",
        "hours": "10:30 AM to 8:30 PM"
      },
      {
        "day": "Tuesday",
        "hours": "10:30 AM to 8:30 PM"
      },
      {
        "day": "Wednesday",
        "hours": "10:30 AM to 8:30 PM"
      },
      {
        "day": "Thursday",
        "hours": "10:30 AM to 8:30 PM"
      },
      {
        "day": "Friday",
        "hours": "10:30 AM to 8:30 PM"
      },
      {
        "day": "Saturday",
        "hours": "10:30 AM to 8:30 PM"
      },
      {
        "day": "Sunday",
        "hours": "10:30 AM to 8:30 PM"
      }
    ],
    "imageUrl": "https://media.indianluxurycars.com/google/8fdce6ef8c0c27d902ec6f9323efa1af57fab1b3211062fa47ff18c04bb74a57.jpg",
    "url": "https://www.google.com/maps/search/?api=1&query=Prime%20Auto%20Deal&query_place_id=ChIJt4xGinHPXzkRNwmJ2u992Cg"
  },
  {
    "title": "Ramesh Motors",
    "subTitle": "રમેશ મોટર્સ",
    "categoryName": "Used car dealer",
    "address": "GIDC Rd, near Jupiter Road, char rasta, Makarpura, Vadodara, Gujarat 390010, India",
    "neighborhood": "char rasta, Makarpura",
    "street": "GIDC Rd, near Jupiter Road",
    "city": "Vadodara",
    "postalCode": "390010",
    "state": "Gujarat",
    "countryCode": "IN",
    "website": "https://www.rameshmotors.com/",
    "phone": "+919998226688",
    "phoneUnformatted": "+919998226688",
    "location": {
      "lat": 22.2589265,
      "lng": 73.1938374
    },
    "totalScore": 3.7,
    "permanentlyClosed": false,
    "temporarilyClosed": false,
    "placeId": "ChIJvbzYpArFXzkRw8BRZpGsOD0",
    "categories": [
      "Used car dealer",
      "Car dealer",
      "Car finance and loan company",
      "Motor vehicle dealer",
      "Parking garage"
    ],
    "reviewsCount": 41,
    "imagesCount": 16,
    "openingHours": [
      {
        "day": "Monday",
        "hours": "9:30 AM to 8 PM"
      },
      {
        "day": "Tuesday",
        "hours": "9:30 AM to 8 PM"
      },
      {
        "day": "Wednesday",
        "hours": "9:30 AM to 8 PM"
      },
      {
        "day": "Thursday",
        "hours": "9:30 AM to 8 PM"
      },
      {
        "day": "Friday",
        "hours": "9:30 AM to 8 PM"
      },
      {
        "day": "Saturday",
        "hours": "9:30 AM to 8 PM"
      },
      {
        "day": "Sunday",
        "hours": "9:30 AM to 8 PM"
      }
    ],
    "imageUrl": "https://media.indianluxurycars.com/google/5fbb0544ccd08ff99b512697d57234f1b739159c4bf444b70d1df36fcdb9ed06.jpg",
    "url": "https://www.google.com/maps/search/?api=1&query=Ramesh%20Motors&query_place_id=ChIJvbzYpArFXzkRw8BRZpGsOD0"
  },
  {
    "title": "Raza tours",
    "categoryName": "Car rental agency",
    "address": "Sofiya park 33.34 madhu nagar, Gujarat 390003, India",
    "neighborhood": "BIDC Gorwa Estate, Gorwa",
    "street": "Sofiya park 33.34 madhu nagar",
    "city": "Vadodara",
    "postalCode": "390003",
    "state": "Gujarat",
    "countryCode": "IN",
    "location": {
      "lat": 22.3272148,
      "lng": 73.1629542
    },
    "permanentlyClosed": false,
    "temporarilyClosed": false,
    "placeId": "ChIJc_BWhvjJXzkRXX45eJwWpm4",
    "categories": [
      "Car rental agency",
      "Hotel"
    ],
    "imagesCount": 2,
    "openingHours": [],
    "imageUrl": "https://media.indianluxurycars.com/google/7611e69785c125fa30e2a6bd4bc6505cb984b6baf9ec69ef5c992b657d6a0999.png",
    "url": "https://www.google.com/maps/search/?api=1&query=Raza%20tours&query_place_id=ChIJc_BWhvjJXzkRXX45eJwWpm4"
  },
  {
    "title": "Rent & Go Travels",
    "categoryName": "Car rental agency",
    "address": "GF-11, Veer Avenue, Chandralok Society, Nr Patel Wadi, Manjalpur, Vadodara, Gujarat 390011, India",
    "neighborhood": "Chandralok Society, Nr Patel Wadi, Manjalpur",
    "street": "GF-11, Veer Avenue",
    "city": "Vadodara",
    "postalCode": "390011",
    "state": "Gujarat",
    "countryCode": "IN",
    "website": "https://rentandgotravels.com/",
    "phone": "+917666052166",
    "phoneUnformatted": "+917666052166",
    "location": {
      "lat": 22.2780296,
      "lng": 73.1924198
    },
    "totalScore": 4.9,
    "permanentlyClosed": false,
    "temporarilyClosed": false,
    "placeId": "ChIJBco1yDLPXzkRTgJyhOOo4Tc",
    "categories": [
      "Car rental agency",
      "Airport shuttle service",
      "Car leasing service",
      "Taxi service",
      "Tour operator",
      "Travel agency",
      "Van rental agency"
    ],
    "reviewsCount": 114,
    "imagesCount": 267,
    "openingHours": [],
    "imageUrl": "https://media.indianluxurycars.com/google/a761b60c855a2318c3c2ed603ad74dd3fc4dc0abac19af43c2730c6c845e9f78.png",
    "url": "https://www.google.com/maps/search/?api=1&query=Rent%20%26%20Go%20Travels&query_place_id=ChIJBco1yDLPXzkRTgJyhOOo4Tc"
  },
  {
    "title": "Self drive cars in vadodara",
    "categoryName": "Car leasing service",
    "address": "35, Saidham Society, Nagba Nagar, New VIP Road, Vadodara, Gujarat 390022, India",
    "neighborhood": "Saidham Society, Nagba Nagar, New VIP Road",
    "street": "35",
    "city": "Vadodara",
    "postalCode": "390022",
    "state": "Gujarat",
    "countryCode": "IN",
    "phone": "+916351598367",
    "phoneUnformatted": "+916351598367",
    "location": {
      "lat": 22.3217041,
      "lng": 73.2296881
    },
    "totalScore": 4.3,
    "permanentlyClosed": false,
    "temporarilyClosed": false,
    "placeId": "ChIJLcw58rHPXzkRvuGRE_aJN2U",
    "categories": [
      "Car leasing service"
    ],
    "reviewsCount": 6,
    "imagesCount": 34,
    "openingHours": [],
    "imageUrl": "https://media.indianluxurycars.com/google/bdcf544cd663cc7d93c520164876a3497f3a4d5417b5a1d7962cbe1a4232377a.jpg",
    "url": "https://www.google.com/maps/search/?api=1&query=Self%20drive%20cars%20in%20vadodara&query_place_id=ChIJLcw58rHPXzkRvuGRE_aJN2U"
  },
  {
    "title": "Self drive cars travels",
    "categoryName": "Car rental agency",
    "address": "Vadodara Railway Station, Maharaja Sayajirao University, Sayajiganj, Vadodara, Gujarat 390007, India",
    "neighborhood": "Vadodara Railway Station, Maharaja Sayajirao University, Sayajiganj",
    "city": "Vadodara",
    "postalCode": "390007",
    "state": "Gujarat",
    "countryCode": "IN",
    "phone": "+919328232541",
    "phoneUnformatted": "+919328232541",
    "location": {
      "lat": 22.3111631,
      "lng": 73.1819631
    },
    "totalScore": 1,
    "permanentlyClosed": false,
    "temporarilyClosed": false,
    "placeId": "ChIJS6OeCX_JXzkRtCQhWZsrwPQ",
    "categories": [
      "Car rental agency",
      "Airport",
      "Car leasing service",
      "Taxi service",
      "Car sharing location"
    ],
    "reviewsCount": 1,
    "imagesCount": 1,
    "openingHours": [],
    "imageUrl": "https://media.indianluxurycars.com/google/782319136161471dbfc164bf32caa358c32fcfb044f03e633e4178103c1d5377.jpg",
    "url": "https://www.google.com/maps/search/?api=1&query=Self%20drive%20cars%20travels&query_place_id=ChIJS6OeCX_JXzkRtCQhWZsrwPQ"
  },
  {
    "title": "Sharnam Autobiz",
    "categoryName": "Car dealer",
    "address": "A-131,132 Emerald One Complex, Jetalpur Rd, Vadodara, Gujarat 390007, India",
    "neighborhood": "Anand Nagar, Haripura",
    "street": "A-131,132 Emerald One Complex, Jetalpur Rd",
    "city": "Vadodara",
    "postalCode": "390007",
    "state": "Gujarat",
    "countryCode": "IN",
    "phone": "+919723823742",
    "phoneUnformatted": "+919723823742",
    "location": {
      "lat": 22.3073688,
      "lng": 73.1754682
    },
    "totalScore": 5,
    "permanentlyClosed": false,
    "temporarilyClosed": false,
    "placeId": "ChIJFSkN-QbJXzkRJ8rI7-AmqGk",
    "categories": [
      "Car dealer"
    ],
    "reviewsCount": 40,
    "imagesCount": 114,
    "openingHours": [
      {
        "day": "Monday",
        "hours": "10 AM to 7 PM"
      },
      {
        "day": "Tuesday",
        "hours": "10 AM to 7 PM"
      },
      {
        "day": "Wednesday",
        "hours": "10 AM to 7 PM"
      },
      {
        "day": "Thursday",
        "hours": "10 AM to 7 PM"
      },
      {
        "day": "Friday",
        "hours": "10 AM to 7 PM"
      },
      {
        "day": "Saturday",
        "hours": "10 AM to 7 PM"
      },
      {
        "day": "Sunday",
        "hours": "Closed"
      }
    ],
    "imageUrl": "https://media.indianluxurycars.com/google/9f8507d350f0e22d870a62acd7d542079392e09914ccb0c01636ee10f40b2ec0.jpg",
    "url": "https://www.google.com/maps/search/?api=1&query=Sharnam%20Autobiz&query_place_id=ChIJFSkN-QbJXzkRJ8rI7-AmqGk"
  },
  {
    "title": "Shree Ambica Cars",
    "subTitle": "શ્રી અંબિકા કાર",
    "categoryName": "Used car dealer",
    "address": "7579+JX6, Ring Rd, nr. Vishwamitri River, Vadsar, Kalali, Vadodara, Gujarat 390010, India",
    "neighborhood": "Vadsar, Kalali",
    "street": "7579+JX6, Ring Rd, nr. Vishwamitri River",
    "city": "Vadodara",
    "postalCode": "390010",
    "state": "Gujarat",
    "countryCode": "IN",
    "phone": "+919879120071",
    "phoneUnformatted": "+919879120071",
    "location": {
      "lat": 22.2640327,
      "lng": 73.1698912
    },
    "totalScore": 4.4,
    "permanentlyClosed": false,
    "temporarilyClosed": false,
    "placeId": "ChIJo6qqqqnIXzkRW86FV-P8FNQ",
    "categories": [
      "Used car dealer"
    ],
    "reviewsCount": 39,
    "imagesCount": 11,
    "openingHours": [
      {
        "day": "Monday",
        "hours": "9:30 AM to 8:30 PM"
      },
      {
        "day": "Tuesday",
        "hours": "9:30 AM to 8:30 PM"
      },
      {
        "day": "Wednesday",
        "hours": "9:30 AM to 8:30 PM"
      },
      {
        "day": "Thursday",
        "hours": "9:30 AM to 8:30 PM"
      },
      {
        "day": "Friday",
        "hours": "9:30 AM to 8:30 PM"
      },
      {
        "day": "Saturday",
        "hours": "9:30 AM to 8:30 PM"
      },
      {
        "day": "Sunday",
        "hours": "9:30 AM to 8:30 PM"
      }
    ],
    "imageUrl": "https://media.indianluxurycars.com/google/fb652be0bb1f6fab59f3dfa0c4c5ae365f587abd778839902cffd90362ab2186.jpg",
    "url": "https://www.google.com/maps/search/?api=1&query=Shree%20Ambica%20Cars&query_place_id=ChIJo6qqqqnIXzkRW86FV-P8FNQ"
  },
  {
    "title": "Shree Pradeep Tourism INDIA Pvt Ltd",
    "categoryName": "Car rental agency",
    "address": "Prathamesh Plaza, G -17, Palace Rd, near Nehru Bhawan, Mahavir Colony, Kevdabaug, Vadodara, Gujarat 390001, India",
    "neighborhood": "Mahavir Colony, Kevdabaug",
    "street": "Prathamesh Plaza, G -17, Palace Rd, near Nehru Bhawan",
    "city": "Vadodara",
    "postalCode": "390001",
    "state": "Gujarat",
    "countryCode": "IN",
    "website": "https://mydigitalcard.pro/Shree-Pradeep-Tourism-India-Pvt-Ltd-",
    "phone": "+918141686132",
    "phoneUnformatted": "+918141686132",
    "location": {
      "lat": 22.2957823,
      "lng": 73.1985239
    },
    "totalScore": 4,
    "permanentlyClosed": false,
    "temporarilyClosed": false,
    "placeId": "ChIJVVXZOvTFXzkR5Wkwnh95yfs",
    "categories": [
      "Car rental agency",
      "Bus ticket agency",
      "Bus tour agency",
      "Car leasing service",
      "Travel agency",
      "Tour operator"
    ],
    "reviewsCount": 31,
    "imagesCount": 28,
    "openingHours": [
      {
        "day": "Monday",
        "hours": "10 AM to 9 PM"
      },
      {
        "day": "Tuesday",
        "hours": "10 AM to 9 PM"
      },
      {
        "day": "Wednesday",
        "hours": "10 AM to 9 PM"
      },
      {
        "day": "Thursday",
        "hours": "10 AM to 9 PM"
      },
      {
        "day": "Friday",
        "hours": "10 AM to 9 PM"
      },
      {
        "day": "Saturday",
        "hours": "10 AM to 9 PM"
      },
      {
        "day": "Sunday",
        "hours": "10 AM to 9 PM"
      }
    ],
    "imageUrl": "https://media.indianluxurycars.com/google/ee92fdc127878f5188206c04c05bd6b083b1f289d381cd17de3114b9b2abaf9b.jpg",
    "url": "https://www.google.com/maps/search/?api=1&query=Shree%20Pradeep%20Tourism%20INDIA%20Pvt%20Ltd&query_place_id=ChIJVVXZOvTFXzkR5Wkwnh95yfs"
  },
  {
    "title": "Shree Umiya Auto Deal - Best Used Car Dealers, Second Hand Car Dealers, Car Dealers In Vadodara",
    "subTitle": "શ્રી ઉમિયા ઓટો ડીલ",
    "categoryName": "Used car dealer",
    "address": "Lakod Complex, 298/5, Shop No. 2, Vijay St, opp. Lucky Restaurant, GIDC Estate, Makarpura GIDC, Makarpura, Vadodara, Gujarat 390010, India",
    "neighborhood": "GIDC Estate, Makarpura GIDC, Makarpura",
    "street": "Lakod Complex, 298/5, Shop No. 2, Vijay St, opp. Lucky Restaurant",
    "city": "Vadodara",
    "postalCode": "390010",
    "state": "Gujarat",
    "countryCode": "IN",
    "phone": "+919427342207",
    "phoneUnformatted": "+919427342207",
    "location": {
      "lat": 22.2543035,
      "lng": 73.1937822
    },
    "totalScore": 4.1,
    "permanentlyClosed": false,
    "temporarilyClosed": false,
    "placeId": "ChIJyU7Nq9LFXzkRsz6_TYqhtDA",
    "categories": [
      "Used car dealer"
    ],
    "reviewsCount": 134,
    "imagesCount": 109,
    "openingHours": [
      {
        "day": "Monday",
        "hours": "10 AM to 8 PM"
      },
      {
        "day": "Tuesday",
        "hours": "10 AM to 8 PM"
      },
      {
        "day": "Wednesday",
        "hours": "10 AM to 8 PM"
      },
      {
        "day": "Thursday",
        "hours": "10 AM to 8 PM"
      },
      {
        "day": "Friday",
        "hours": "10 AM to 8 PM"
      },
      {
        "day": "Saturday",
        "hours": "10 AM to 8 PM"
      },
      {
        "day": "Sunday",
        "hours": "10 AM to 8 PM"
      }
    ],
    "imageUrl": "https://media.indianluxurycars.com/google/e6fd5766ef83fc7be9043040c06a0b3abaa166dc0ce1073ab230bc3b260f28c5.jpg",
    "url": "https://www.google.com/maps/search/?api=1&query=Shree%20Umiya%20Auto%20Deal%20-%20Best%20Used%20Car%20Dealers%2C%20Second%20Hand%20Car%20Dealers%2C%20Car%20Dealers%20In%20Vadodara&query_place_id=ChIJyU7Nq9LFXzkRsz6_TYqhtDA"
  },
  {
    "title": "Smeet Travels – Trusted Baroda Taxi Service for Statue of Unity, Airport & One-Way Cabs",
    "categoryName": "Car rental agency",
    "address": "Juni Ramvadi Society, 23, Guru Gobindsinhji Marg, behind Roses Garden, Roshan Nagar, Navayard, Vadodara, Gujarat 390024, India",
    "neighborhood": "Roshan Nagar, Navayard",
    "street": "Juni Ramvadi Society, 23, Guru Gobindsinhji Marg, behind Roses Garden",
    "city": "Vadodara",
    "postalCode": "390024",
    "state": "Gujarat",
    "countryCode": "IN",
    "website": "https://smeetparmar05.wixsite.com/my-site-1",
    "phone": "+917990634239",
    "phoneUnformatted": "+917990634239",
    "location": {
      "lat": 22.3368209,
      "lng": 73.1731181
    },
    "totalScore": 5,
    "permanentlyClosed": false,
    "temporarilyClosed": false,
    "placeId": "ChIJYcLQmPfJXzkRQ15ZmRbfYwo",
    "categories": [
      "Car rental agency",
      "Taxi service",
      "Minibus taxi service"
    ],
    "reviewsCount": 371,
    "imagesCount": 21,
    "openingHours": [],
    "imageUrl": "https://media.indianluxurycars.com/google/28d7cd01fccbb5966be72a43aac7be7933e99ca5bd27468645d2604983634efa.jpg",
    "url": "https://www.google.com/maps/search/?api=1&query=Smeet%20Travels%20%E2%80%93%20Trusted%20Baroda%20Taxi%20Service%20for%20Statue%20of%20Unity%2C%20Airport%20%26%20One-Way%20Cabs&query_place_id=ChIJYcLQmPfJXzkRQ15ZmRbfYwo"
  },
  {
    "title": "Sulsa Travels & Car Rental",
    "subTitle": "સુલ્સા ટ્રાવેલ્સ",
    "categoryName": "Car rental agency",
    "address": "opp. Lalaji Kui Masjid, Nagarwada, Vadodara, Gujarat 390001, India",
    "neighborhood": "Nagarwada",
    "street": "opp. Lalaji Kui Masjid",
    "city": "Vadodara",
    "postalCode": "390001",
    "state": "Gujarat",
    "countryCode": "IN",
    "website": "http://sulsatravels.com/",
    "phone": "+919825042266",
    "phoneUnformatted": "+919825042266",
    "location": {
      "lat": 22.3071566,
      "lng": 73.201439
    },
    "totalScore": 4.8,
    "permanentlyClosed": false,
    "temporarilyClosed": false,
    "placeId": "ChIJAQAAUF_PXzkRK0Qk6sN4JLY",
    "categories": [
      "Car rental agency",
      "Bus tour agency",
      "Car leasing service",
      "Minibus taxi service",
      "Taxi service"
    ],
    "reviewsCount": 145,
    "imagesCount": 326,
    "openingHours": [
      {
        "day": "Monday",
        "hours": "Open 24 hours"
      },
      {
        "day": "Tuesday",
        "hours": "Open 24 hours"
      },
      {
        "day": "Wednesday",
        "hours": "Open 24 hours"
      },
      {
        "day": "Thursday",
        "hours": "Open 24 hours"
      },
      {
        "day": "Friday",
        "hours": "Open 24 hours"
      },
      {
        "day": "Saturday",
        "hours": "Open 24 hours"
      },
      {
        "day": "Sunday",
        "hours": "Open 24 hours"
      }
    ],
    "imageUrl": "https://media.indianluxurycars.com/google/dd02ddab6364d50f40156d2faab4717fdb5dfaab44d4ae3995ea2011d5e9b90b.png",
    "url": "https://www.google.com/maps/search/?api=1&query=Sulsa%20Travels%20%26%20Car%20Rental&query_place_id=ChIJAQAAUF_PXzkRK0Qk6sN4JLY"
  },
  {
    "title": "UNIVERSAL AUTO DEAL",
    "categoryName": "Used car dealer",
    "address": "29/soujanya Complex, Vadsar Rd, nr. Spark Paradise, Gujarat 390010, India",
    "neighborhood": "Vadsar, Kalali",
    "street": "29/soujanya Complex, Vadsar Rd, nr. Spark Paradise",
    "city": "Vadodara",
    "postalCode": "390010",
    "state": "Gujarat",
    "countryCode": "IN",
    "phone": "+917779008434",
    "phoneUnformatted": "+917779008434",
    "location": {
      "lat": 22.2625802,
      "lng": 73.171891
    },
    "totalScore": 4.7,
    "permanentlyClosed": false,
    "temporarilyClosed": false,
    "placeId": "ChIJb2BaAaDHXzkRB0pkQ34JDEE",
    "categories": [
      "Used car dealer"
    ],
    "reviewsCount": 67,
    "imagesCount": 214,
    "openingHours": [
      {
        "day": "Monday",
        "hours": "9:30 AM to 8 PM"
      },
      {
        "day": "Tuesday",
        "hours": "9:30 AM to 8 PM"
      },
      {
        "day": "Wednesday",
        "hours": "9:30 AM to 8 PM"
      },
      {
        "day": "Thursday",
        "hours": "9:30 AM to 8 PM"
      },
      {
        "day": "Friday",
        "hours": "9:30 AM to 8 PM"
      },
      {
        "day": "Saturday",
        "hours": "9:30 AM to 8 PM"
      },
      {
        "day": "Sunday",
        "hours": "9:30 AM to 8 PM"
      }
    ],
    "imageUrl": "https://media.indianluxurycars.com/google/b87a1b663a167cf31783d84655cd2cc7f7db60aab54e533e01ab83799e43ee2e.jpg",
    "url": "https://www.google.com/maps/search/?api=1&query=UNIVERSAL%20AUTO%20DEAL&query_place_id=ChIJb2BaAaDHXzkRB0pkQ34JDEE"
  },
  {
    "title": "V.i.P Cars Rental Services",
    "categoryName": "Car leasing service",
    "address": "Amit Nagar Cir, Amit Nagar, Gayatri Nagar, Karelibagh, Vadodara, Gujarat 390022, India",
    "neighborhood": "Amit Nagar, Gayatri Nagar, Karelibagh",
    "street": "Amit Nagar Cir",
    "city": "Vadodara",
    "postalCode": "390022",
    "state": "Gujarat",
    "countryCode": "IN",
    "phone": "+919601324511",
    "phoneUnformatted": "+919601324511",
    "location": {
      "lat": 22.3276018,
      "lng": 73.207495
    },
    "totalScore": 4.8,
    "permanentlyClosed": false,
    "temporarilyClosed": false,
    "placeId": "ChIJEV6IuyXPXzkRFY35eWCVLS4",
    "categories": [
      "Car leasing service"
    ],
    "reviewsCount": 19,
    "imagesCount": 32,
    "openingHours": [
      {
        "day": "Monday",
        "hours": "Open 24 hours"
      },
      {
        "day": "Tuesday",
        "hours": "Open 24 hours"
      },
      {
        "day": "Wednesday",
        "hours": "Open 24 hours"
      },
      {
        "day": "Thursday",
        "hours": "Open 24 hours"
      },
      {
        "day": "Friday",
        "hours": "Open 24 hours"
      },
      {
        "day": "Saturday",
        "hours": "Open 24 hours"
      },
      {
        "day": "Sunday",
        "hours": "Open 24 hours"
      }
    ],
    "imageUrl": "https://media.indianluxurycars.com/google/ee31ce559353d5e63a42d706c9a334017555a6d77fef1ead40463c598d74704c.jpg",
    "url": "https://www.google.com/maps/search/?api=1&query=V.i.P%20Cars%20Rental%20Services&query_place_id=ChIJEV6IuyXPXzkRFY35eWCVLS4"
  },
  {
    "title": "Vadodara Car Rental",
    "subTitle": "વડોદરા કાર રેંટલ",
    "categoryName": "Car rental agency",
    "address": "TF -26, RAAMA EMPERRO, AKASHWANI MAIN ROAD, nr. SHELL PETROL PUMP, opp. ARMY CAMPUS, Manjalpur, Vadodara, Gujarat 390009, India",
    "neighborhood": "Manjalpur",
    "street": "TF -26, RAAMA EMPERRO, AKASHWANI MAIN ROAD, nr. SHELL PETROL PUMP, opp. ARMY CAMPUS",
    "city": "Vadodara",
    "postalCode": "390009",
    "state": "Gujarat",
    "countryCode": "IN",
    "website": "http://www.vadodaracarrental.com/",
    "phone": "+917984539155",
    "phoneUnformatted": "+917984539155",
    "location": {
      "lat": 22.2666962,
      "lng": 73.2014731
    },
    "totalScore": 4,
    "permanentlyClosed": false,
    "temporarilyClosed": false,
    "placeId": "ChIJo8GXg67FXzkRxvdGmef2bKo",
    "categories": [
      "Car rental agency",
      "Car leasing service",
      "Taxi service",
      "Tour agency",
      "Tour operator",
      "Travel agency"
    ],
    "reviewsCount": 62,
    "imagesCount": 78,
    "openingHours": [
      {
        "day": "Monday",
        "hours": "Open 24 hours"
      },
      {
        "day": "Tuesday",
        "hours": "Open 24 hours"
      },
      {
        "day": "Wednesday",
        "hours": "Open 24 hours"
      },
      {
        "day": "Thursday",
        "hours": "Open 24 hours"
      },
      {
        "day": "Friday",
        "hours": "Open 24 hours"
      },
      {
        "day": "Saturday",
        "hours": "Open 24 hours"
      },
      {
        "day": "Sunday",
        "hours": "Open 24 hours"
      }
    ],
    "imageUrl": "https://media.indianluxurycars.com/google/a9f37007deaa0982fb26d82d4c266bbe9fabbc35447e8f9028df5efd2989eceb.jpg",
    "url": "https://www.google.com/maps/search/?api=1&query=Vadodara%20Car%20Rental&query_place_id=ChIJo8GXg67FXzkRxvdGmef2bKo"
  },
  {
    "title": "Vadodara Tours & Travels",
    "categoryName": "Car leasing service",
    "address": "1st Floor, Iscon Jan Mahal, 132 - A, opp. Vadodara Railway Station, Opp. Pravasi Gruh, Near Railway Station, Maharaja Sayajirao University, Sayajiganj, Vadodara, Gujarat 390007, India",
    "neighborhood": "Opp. Pravasi Gruh, Near Railway Station, Maharaja Sayajirao University, Sayajiganj",
    "street": "1st Floor, Iscon Jan Mahal, 132 - A, opp. Vadodara Railway Station",
    "city": "Vadodara",
    "postalCode": "390007",
    "state": "Gujarat",
    "countryCode": "IN",
    "website": "http://www.vadodaratourstravels.com/",
    "phone": "+918980858511",
    "phoneUnformatted": "+918980858511",
    "location": {
      "lat": 22.3116028,
      "lng": 73.1815652
    },
    "totalScore": 4.8,
    "permanentlyClosed": false,
    "temporarilyClosed": false,
    "placeId": "ChIJpXoDqsnPXzkRblVqRqWfPJ8",
    "categories": [
      "Car leasing service",
      "Bus charter",
      "Chauffeur service",
      "Tour operator",
      "Transportation service",
      "Van rental agency"
    ],
    "reviewsCount": 59,
    "imagesCount": 20,
    "openingHours": [
      {
        "day": "Monday",
        "hours": "Open 24 hours"
      },
      {
        "day": "Tuesday",
        "hours": "Open 24 hours"
      },
      {
        "day": "Wednesday",
        "hours": "Open 24 hours"
      },
      {
        "day": "Thursday",
        "hours": "Open 24 hours"
      },
      {
        "day": "Friday",
        "hours": "Open 24 hours"
      },
      {
        "day": "Saturday",
        "hours": "Open 24 hours"
      },
      {
        "day": "Sunday",
        "hours": "Open 24 hours"
      }
    ],
    "imageUrl": "https://media.indianluxurycars.com/google/14f02661df5b26788bb1cd1e0d0c4b71c2ebe635590c7e3c659ab03e9d1eeb90.jpg",
    "url": "https://www.google.com/maps/search/?api=1&query=Vadodara%20Tours%20%26%20Travels&query_place_id=ChIJpXoDqsnPXzkRblVqRqWfPJ8"
  },
  {
    "title": "Vivek Motors || Used Car Dealer, Second Hand Car Dealer",
    "categoryName": "Used car dealer",
    "address": "nr. Vadsar Road, Suncity, Makarpura, Vadodara, Gujarat 390010, India",
    "neighborhood": "Suncity, Makarpura",
    "street": "nr. Vadsar Road",
    "city": "Vadodara",
    "postalCode": "390010",
    "state": "Gujarat",
    "countryCode": "IN",
    "website": "http://www.vivekmotors.com/",
    "phone": "+918000708116",
    "phoneUnformatted": "+918000708116",
    "location": {
      "lat": 22.260335,
      "lng": 73.1799924
    },
    "totalScore": 4.8,
    "permanentlyClosed": false,
    "temporarilyClosed": false,
    "placeId": "ChIJz3AYSwDHXzkR7-DCH5X0ACQ",
    "categories": [
      "Used car dealer"
    ],
    "reviewsCount": 38,
    "imagesCount": 108,
    "openingHours": [
      {
        "day": "Monday",
        "hours": "9 AM to 8 PM"
      },
      {
        "day": "Tuesday",
        "hours": "9 AM to 8 PM"
      },
      {
        "day": "Wednesday",
        "hours": "9 AM to 8 PM"
      },
      {
        "day": "Thursday",
        "hours": "9 AM to 8 PM"
      },
      {
        "day": "Friday",
        "hours": "9 AM to 8 PM"
      },
      {
        "day": "Saturday",
        "hours": "9 AM to 8 PM"
      },
      {
        "day": "Sunday",
        "hours": "9 AM to 8 PM"
      }
    ],
    "imageUrl": "https://media.indianluxurycars.com/google/902372354e2772382263cfc731f0858931184585dfa4e86c5dff09e0c1864d62.jpg",
    "url": "https://www.google.com/maps/search/?api=1&query=Vivek%20Motors%20%7C%7C%20Used%20Car%20Dealer%2C%20Second%20Hand%20Car%20Dealer&query_place_id=ChIJz3AYSwDHXzkR7-DCH5X0ACQ"
  },
  {
    "title": "White Carbon Motors",
    "categoryName": "Motor vehicle dealer",
    "address": "GF 3, Sun Avenue, beside Ambe School Road, opp. Sun City Bungalows, Shakti Nagar, Manjalpur, Vadodara, Gujarat 390011, India",
    "neighborhood": "Shakti Nagar, Manjalpur",
    "street": "GF 3, Sun Avenue, beside Ambe School Road, opp. Sun City Bungalows",
    "city": "Vadodara",
    "postalCode": "390011",
    "state": "Gujarat",
    "countryCode": "IN",
    "website": "http://whitecarbonmotors.com/o3/",
    "location": {
      "lat": 22.2643117,
      "lng": 73.1817475
    },
    "totalScore": 4.4,
    "permanentlyClosed": false,
    "temporarilyClosed": false,
    "placeId": "ChIJz15OHGLHXzkRCLAMNmkj470",
    "categories": [
      "Motor vehicle dealer"
    ],
    "reviewsCount": 8,
    "imagesCount": 31,
    "openingHours": [
      {
        "day": "Monday",
        "hours": "10 AM to 7 PM"
      },
      {
        "day": "Tuesday",
        "hours": "10 AM to 7 PM"
      },
      {
        "day": "Wednesday",
        "hours": "10 AM to 7 PM"
      },
      {
        "day": "Thursday",
        "hours": "10 AM to 7 PM"
      },
      {
        "day": "Friday",
        "hours": "10 AM to 7 PM"
      },
      {
        "day": "Saturday",
        "hours": "10 AM to 7 PM"
      },
      {
        "day": "Sunday",
        "hours": "10 AM to 2 PM"
      }
    ],
    "imageUrl": "https://media.indianluxurycars.com/google/33b8098ca677dcffb20d209d2ee8030864fae27db839532d9995a432529c172f.jpg",
    "url": "https://www.google.com/maps/search/?api=1&query=White%20Carbon%20Motors&query_place_id=ChIJz15OHGLHXzkRCLAMNmkj470"
  },
  {
    "title": "Yaduvanshi Travels",
    "categoryName": "Car rental agency",
    "address": "Shop-12, Krishna Park Ln, Bapod, Madhavpura, Vadodara, Gujarat 390019, India",
    "neighborhood": "Bapod, Madhavpura",
    "street": "Shop-12, Krishna Park Ln",
    "city": "Vadodara",
    "postalCode": "390019",
    "state": "Gujarat",
    "countryCode": "IN",
    "phone": "+917226877773",
    "phoneUnformatted": "+917226877773",
    "location": {
      "lat": 22.3054856,
      "lng": 73.2389196
    },
    "totalScore": 4.8,
    "permanentlyClosed": false,
    "temporarilyClosed": false,
    "placeId": "ChIJgTqNkz_PXzkRMgVjmOO4eNY",
    "categories": [
      "Car rental agency"
    ],
    "reviewsCount": 92,
    "imagesCount": 8,
    "openingHours": [
      {
        "day": "Monday",
        "hours": "Open 24 hours"
      },
      {
        "day": "Tuesday",
        "hours": "Open 24 hours"
      },
      {
        "day": "Wednesday",
        "hours": "Open 24 hours"
      },
      {
        "day": "Thursday",
        "hours": "Open 24 hours"
      },
      {
        "day": "Friday",
        "hours": "Open 24 hours"
      },
      {
        "day": "Saturday",
        "hours": "Open 24 hours"
      },
      {
        "day": "Sunday",
        "hours": "Open 24 hours"
      }
    ],
    "imageUrl": "https://media.indianluxurycars.com/google/f330480930becc8cf758c8ec5bd52a17d8cd9a0a2da7fd7a7fe865ad514e03c1.png",
    "url": "https://www.google.com/maps/search/?api=1&query=Yaduvanshi%20Travels&query_place_id=ChIJgTqNkz_PXzkRMgVjmOO4eNY"
  },
  {
    "title": "Your Car - Self Drive Car Rental in Vadodara",
    "categoryName": "Car rental agency",
    "address": "P/31 krishna velly complex, Amit Nagar Cir, Vadodara, Gujarat 390022, India",
    "neighborhood": "Shanti Park Society, Gayatri Nagar, Karelibagh",
    "street": "P/31 krishna velly complex, Amit Nagar Cir",
    "city": "Vadodara",
    "postalCode": "390022",
    "state": "Gujarat",
    "countryCode": "IN",
    "phone": "+919099999694",
    "phoneUnformatted": "+919099999694",
    "location": {
      "lat": 22.3298555,
      "lng": 73.2069343
    },
    "totalScore": 3.9,
    "permanentlyClosed": false,
    "temporarilyClosed": false,
    "placeId": "ChIJo1AQPTbPXzkRLXkLMqbxlDA",
    "categories": [
      "Car rental agency"
    ],
    "reviewsCount": 25,
    "imagesCount": 41,
    "openingHours": [
      {
        "day": "Monday",
        "hours": "Open 24 hours"
      },
      {
        "day": "Tuesday",
        "hours": "Open 24 hours"
      },
      {
        "day": "Wednesday",
        "hours": "Open 24 hours"
      },
      {
        "day": "Thursday",
        "hours": "Open 24 hours"
      },
      {
        "day": "Friday",
        "hours": "Open 24 hours"
      },
      {
        "day": "Saturday",
        "hours": "Open 24 hours"
      },
      {
        "day": "Sunday",
        "hours": "Open 24 hours"
      }
    ],
    "imageUrl": "https://media.indianluxurycars.com/google/447f5f560c52b3fcb3c24929691a785592316de27d2972e2e874857f54b34012.jpg",
    "url": "https://www.google.com/maps/search/?api=1&query=Your%20Car%20-%20Self%20Drive%20Car%20Rental%20in%20Vadodara&query_place_id=ChIJo1AQPTbPXzkRLXkLMqbxlDA"
  }
]
