[
  {
    "title": "Aarohi Cabs",
    "subTitle": "आरोही कैब्स",
    "categoryName": "Car rental agency",
    "address": "Shop no.05, Guru Gobind Singh Complex, Mall, near Vinayak plaza, Pared Kothi, Maldahiya, Chetganj, Varanasi, Uttar Pradesh 221001, India",
    "neighborhood": "Pared Kothi, Maldahiya, Chetganj",
    "street": "Shop no.05, Guru Gobind Singh Complex, Mall, near Vinayak plaza",
    "city": "Varanasi",
    "postalCode": "221001",
    "state": "Uttar Pradesh",
    "countryCode": "IN",
    "website": "https://aarohicabs.com/",
    "phone": "+917355020071",
    "phoneUnformatted": "+917355020071",
    "location": {
      "lat": 25.3255898,
      "lng": 82.9924658
    },
    "totalScore": 5,
    "permanentlyClosed": false,
    "temporarilyClosed": false,
    "placeId": "ChIJW2pESKMvjjkRHuy7IHRsMZ4",
    "categories": [
      "Car rental agency",
      "Bus tour agency",
      "Car leasing service",
      "Taxi service",
      "Rental car return location",
      "Tour agency",
      "Tour operator",
      "Travel agency"
    ],
    "reviewsCount": 124,
    "imagesCount": 50,
    "openingHours": [],
    "imageUrl": "https://media.indianluxurycars.com/google/151ad243366bf20808ebb75eb586e71caebd5397e3ac381eb78098eb6cbb16c9.jpg",
    "url": "https://www.google.com/maps/search/?api=1&query=Aarohi%20Cabs&query_place_id=ChIJW2pESKMvjjkRHuy7IHRsMZ4"
  },
  {
    "title": "Badshah car dealers",
    "subTitle": "बादशाह कार डीलर्स",
    "categoryName": "Used car dealer",
    "address": "E1, Badshah bag colony, Fatman Rd, near water tank, Maldahiya, Sigra, Varanasi, Uttar Pradesh 221002, India",
    "neighborhood": "Maldahiya, Sigra",
    "street": "E1, Badshah bag colony, Fatman Rd, near water tank",
    "city": "Varanasi",
    "postalCode": "221002",
    "state": "Uttar Pradesh",
    "countryCode": "IN",
    "phone": "+917394091111",
    "phoneUnformatted": "+917394091111",
    "location": {
      "lat": 25.3213791,
      "lng": 82.9945529
    },
    "totalScore": 4.9,
    "permanentlyClosed": false,
    "temporarilyClosed": false,
    "placeId": "ChIJ2ZYhD-wvjjkRVKgNxS9aPPg",
    "categories": [
      "Used car dealer",
      "Auto broker",
      "Car dealer"
    ],
    "reviewsCount": 151,
    "imagesCount": 117,
    "openingHours": [
      {
        "day": "Monday",
        "hours": "7 AM to 10 PM"
      },
      {
        "day": "Tuesday",
        "hours": "7 AM to 10 PM"
      },
      {
        "day": "Wednesday",
        "hours": "7 AM to 10 PM"
      },
      {
        "day": "Thursday",
        "hours": "7 AM to 10 PM"
      },
      {
        "day": "Friday",
        "hours": "7 AM to 10 PM"
      },
      {
        "day": "Saturday",
        "hours": "7 AM to 10 PM"
      },
      {
        "day": "Sunday",
        "hours": "7 AM to 10 PM"
      }
    ],
    "imageUrl": "https://media.indianluxurycars.com/google/743158388cbffbfda39813ce640b8123db10f82bcb79c04f80e679d5c0251bcf.png",
    "url": "https://www.google.com/maps/search/?api=1&query=Badshah%20car%20dealers&query_place_id=ChIJ2ZYhD-wvjjkRVKgNxS9aPPg"
  },
  {
    "title": "Bajrang Tour and travels",
    "subTitle": "बजरंग टूर एंड ट्रैवल्स",
    "categoryName": "Car rental agency",
    "address": "Hukulganj, Khajuri Colony, Varanasi, Uttar Pradesh 221002, India",
    "neighborhood": "Hukulganj, Khajuri Colony",
    "city": "Varanasi",
    "postalCode": "221002",
    "state": "Uttar Pradesh",
    "countryCode": "IN",
    "phone": "+917905049172",
    "phoneUnformatted": "+917905049172",
    "location": {
      "lat": 25.3366189,
      "lng": 82.9938407
    },
    "totalScore": 5,
    "permanentlyClosed": false,
    "temporarilyClosed": false,
    "placeId": "ChIJM8lL1iIvjjkRG4CBJurzBJs",
    "categories": [
      "Car rental agency",
      "Car leasing service",
      "Taxi service",
      "Scooter rental service",
      "Tour agency",
      "Tour operator",
      "Travel agency"
    ],
    "reviewsCount": 187,
    "imagesCount": 9,
    "openingHours": [],
    "imageUrl": "https://media.indianluxurycars.com/google/34f9ca295f597757631a400a85275e3f720bb6300b034892e38b71c55dbdc93e.jpg",
    "url": "https://www.google.com/maps/search/?api=1&query=Bajrang%20Tour%20and%20travels&query_place_id=ChIJM8lL1iIvjjkRG4CBJurzBJs"
  },
  {
    "title": "Balaji Travels - Varanasi Tour Package | Best Travel Agency | Travel Agent | Tour Operator | Tour & Travel",
    "subTitle": "बालाजी ट्रेवल्स",
    "categoryName": "Car leasing service",
    "address": "B-20/36 A, near Jain Mandir Complex, Bhelupur, Varanasi, Uttar Pradesh 221010, India",
    "neighborhood": "Bhelupur",
    "street": "B-20/36 A, near Jain Mandir Complex",
    "city": "Varanasi",
    "postalCode": "221010",
    "state": "Uttar Pradesh",
    "countryCode": "IN",
    "website": "http://balajitravels.org/",
    "phone": "+919936100221",
    "phoneUnformatted": "+919936100221",
    "location": {
      "lat": 25.3001108,
      "lng": 82.99978
    },
    "totalScore": 4.4,
    "permanentlyClosed": false,
    "temporarilyClosed": false,
    "placeId": "ChIJgdlS6vsxjjkR2529iF6z2gg",
    "categories": [
      "Car leasing service",
      "Airport shuttle service",
      "Bus tour agency",
      "Cabin rental agency",
      "Travel agency",
      "Sightseeing tour agency",
      "Taxi service",
      "Tour agency",
      "Tourist information center",
      "Train ticket agency"
    ],
    "reviewsCount": 1079,
    "imagesCount": 325,
    "openingHours": [
      {
        "day": "Monday",
        "hours": "Open 24 hours"
      },
      {
        "day": "Tuesday",
        "hours": "Open 24 hours"
      },
      {
        "day": "Wednesday",
        "hours": "Open 24 hours"
      },
      {
        "day": "Thursday",
        "hours": "Open 24 hours"
      },
      {
        "day": "Friday",
        "hours": "Open 24 hours"
      },
      {
        "day": "Saturday",
        "hours": "Open 24 hours"
      },
      {
        "day": "Sunday",
        "hours": "Open 24 hours"
      }
    ],
    "imageUrl": "https://media.indianluxurycars.com/google/f81862a13ee634fa82b2833bf908c0e9b5730852547bdb370c57c2b2cd90f2bf.jpg",
    "url": "https://www.google.com/maps/search/?api=1&query=Balaji%20Travels%20-%20Varanasi%20Tour%20Package%20%7C%20Best%20Travel%20Agency%20%7C%20Travel%20Agent%20%7C%20Tour%20Operator%20%7C%20Tour%20%26%20Travel&query_place_id=ChIJgdlS6vsxjjkR2529iF6z2gg"
  },
  {
    "title": "Banaras Motors",
    "subTitle": "बनारस मोटर्स",
    "categoryName": "Used car dealer",
    "address": "S-15/4,A-1, Nadesar Rd, Near Chola Mota, Ghausabad, Nadesar, Chaukaghat, Varanasi, Uttar Pradesh 221002, India",
    "neighborhood": "Ghausabad, Nadesar, Chaukaghat",
    "street": "S-15/4,A-1, Nadesar Rd, Near Chola Mota",
    "city": "Varanasi",
    "postalCode": "221002",
    "state": "Uttar Pradesh",
    "countryCode": "IN",
    "phone": "+919889962953",
    "phoneUnformatted": "+919889962953",
    "location": {
      "lat": 25.3334083,
      "lng": 82.9930496
    },
    "totalScore": 4,
    "permanentlyClosed": false,
    "temporarilyClosed": false,
    "placeId": "ChIJwb4nf98tjjkRawi58G77Euc",
    "categories": [
      "Used car dealer"
    ],
    "reviewsCount": 21,
    "imagesCount": 17,
    "openingHours": [
      {
        "day": "Monday",
        "hours": "11 AM to 7 PM"
      },
      {
        "day": "Tuesday",
        "hours": "11 AM to 7 PM"
      },
      {
        "day": "Wednesday",
        "hours": "11 AM to 7 PM"
      },
      {
        "day": "Thursday",
        "hours": "11 AM to 7 PM"
      },
      {
        "day": "Friday",
        "hours": "11 AM to 7 PM"
      },
      {
        "day": "Saturday",
        "hours": "11 AM to 7 PM"
      },
      {
        "day": "Sunday",
        "hours": "11 AM to 7 PM"
      }
    ],
    "imageUrl": "https://media.indianluxurycars.com/google/dee80799b1f33089dea7cbb0e2ee4983efd1692846c45f1e6dbdb4ff4fd1777c.jpg",
    "url": "https://www.google.com/maps/search/?api=1&query=Banaras%20Motors&query_place_id=ChIJwb4nf98tjjkRawi58G77Euc"
  },
  {
    "title": "Banaras Taxi",
    "subTitle": "बनारस टैक्सी",
    "categoryName": "Car rental agency",
    "address": "Neel Cottage, S-21/114-17-A, Pared Kothi, Maldahiya, Chetganj, Varanasi, Uttar Pradesh 221002, India",
    "neighborhood": "Pared Kothi, Maldahiya, Chetganj",
    "street": "Neel Cottage, S-21/114-17-A",
    "city": "Varanasi",
    "postalCode": "221002",
    "state": "Uttar Pradesh",
    "countryCode": "IN",
    "website": "https://banarastaxi.in/",
    "phone": "+917754888203",
    "phoneUnformatted": "+917754888203",
    "location": {
      "lat": 25.3255468,
      "lng": 82.9925556
    },
    "totalScore": 4.9,
    "permanentlyClosed": false,
    "temporarilyClosed": false,
    "placeId": "ChIJuxqKSRovjjkR29H8MZUOjkg",
    "categories": [
      "Car rental agency",
      "Bus tour agency",
      "Car leasing service",
      "Taxi service",
      "Rental car return location",
      "Tour agency",
      "Tour operator",
      "Travel agency"
    ],
    "reviewsCount": 458,
    "imagesCount": 67,
    "openingHours": [],
    "imageUrl": "https://media.indianluxurycars.com/google/690534bb02954fcff20ffb63bb3ab3068ba50ad6655085c2cf07b4cc11a7cbac.jpg",
    "url": "https://www.google.com/maps/search/?api=1&query=Banaras%20Taxi&query_place_id=ChIJuxqKSRovjjkR29H8MZUOjkg"
  },
  {
    "title": "Bhagyalaxmi Travels : Best Travel Agency in Varanasi-Prayagraj",
    "subTitle": "भाग्यलक्ष्मी ट्रैवल्स : बेस्ट ट्रैवल एजेंसी इन वाराणसी-प्रयागराज",
    "categoryName": "Car rental agency",
    "address": "50,51, Shop no.07, D 37, Girja Ghar Chauraha, Badadev, Sidhgiribagh, Varanasi, Uttar Pradesh 221001, India",
    "neighborhood": "Badadev, Sidhgiribagh",
    "street": "50,51, Shop no.07, D 37, Girja Ghar Chauraha",
    "city": "Varanasi",
    "postalCode": "221001",
    "state": "Uttar Pradesh",
    "countryCode": "IN",
    "website": "https://bhagyalaxmitravels.in/",
    "phone": "+918400349205",
    "phoneUnformatted": "+918400349205",
    "location": {
      "lat": 25.3094853,
      "lng": 83.0055305
    },
    "totalScore": 5,
    "permanentlyClosed": false,
    "temporarilyClosed": false,
    "placeId": "ChIJrV6GbTQvjjkR-q3bJTTOVUI",
    "categories": [
      "Car rental agency",
      "Bus tour agency",
      "Car leasing service",
      "Travel agency",
      "Rental car return location",
      "Taxi service",
      "Tour agency",
      "Tour operator",
      "Tourist information center"
    ],
    "reviewsCount": 110,
    "imagesCount": 60,
    "openingHours": [
      {
        "day": "Monday",
        "hours": "Open 24 hours"
      },
      {
        "day": "Tuesday",
        "hours": "Open 24 hours"
      },
      {
        "day": "Wednesday",
        "hours": "Open 24 hours"
      },
      {
        "day": "Thursday",
        "hours": "Open 24 hours"
      },
      {
        "day": "Friday",
        "hours": "Open 24 hours"
      },
      {
        "day": "Saturday",
        "hours": "Open 24 hours"
      },
      {
        "day": "Sunday",
        "hours": "Open 24 hours"
      }
    ],
    "imageUrl": "https://media.indianluxurycars.com/google/15f53edc9eb5d7fb6396f0b459e8df5bb7faf41acd9f839b9a253c8dbf9be7b3.jpg",
    "url": "https://www.google.com/maps/search/?api=1&query=Bhagyalaxmi%20Travels%20%3A%20Best%20Travel%20Agency%20in%20Varanasi-Prayagraj&query_place_id=ChIJrV6GbTQvjjkR-q3bJTTOVUI"
  },
  {
    "title": "Big Cab Varanasi",
    "subTitle": "बिग कैब वाराणसी",
    "categoryName": "Car rental agency",
    "address": "Flat No.102, 1st Floor, H.No.K.33/4, mohalla bhutahi imali, Kotwali, Varanasi, Uttar Pradesh 221001, India",
    "neighborhood": "Golghar, Kotwali",
    "street": "Flat No.102, 1st Floor, H.No.K.33/4, mohalla bhutahi imali",
    "city": "Varanasi",
    "postalCode": "221001",
    "state": "Uttar Pradesh",
    "countryCode": "IN",
    "website": "https://bigcab.in/",
    "location": {
      "lat": 25.3171101,
      "lng": 83.0144409
    },
    "totalScore": 4.7,
    "permanentlyClosed": false,
    "temporarilyClosed": false,
    "placeId": "ChIJzaL1cQ8ujjkRYvXtF50dPdM",
    "categories": [
      "Car rental agency",
      "Taxi service",
      "Tour operator",
      "Travel agency"
    ],
    "reviewsCount": 266,
    "imagesCount": 231,
    "openingHours": [],
    "imageUrl": "https://media.indianluxurycars.com/google/b43f8c947104720d448bfa3090fae84c37b85c513e7ec741588f31368a23d919.jpg",
    "url": "https://www.google.com/maps/search/?api=1&query=Big%20Cab%20Varanasi&query_place_id=ChIJzaL1cQ8ujjkRYvXtF50dPdM"
  },
  {
    "title": "Bijaylaxmi Car Rental Service",
    "subTitle": "विजयलक्ष्मी कार रेंटल सर्विस",
    "categoryName": "Car rental agency",
    "address": "Guru Govind Singh Complex, Mall, near Vinayak plaza, Maldahiya, Chetganj, Varanasi, Uttar Pradesh 221001, India",
    "neighborhood": "Maldahiya, Chetganj",
    "street": "Guru Govind Singh Complex, Mall, near Vinayak plaza",
    "city": "Varanasi",
    "postalCode": "221001",
    "state": "Uttar Pradesh",
    "countryCode": "IN",
    "website": "https://bijaylaxmitravels.com/",
    "phone": "+918090232626",
    "phoneUnformatted": "+918090232626",
    "location": {
      "lat": 25.3242992,
      "lng": 82.9920586
    },
    "totalScore": 4.9,
    "permanentlyClosed": false,
    "temporarilyClosed": false,
    "placeId": "ChIJGUhy2xwtjjkRRn4zl1VP4Yo",
    "categories": [
      "Car rental agency",
      "Bus tour agency",
      "Car leasing service",
      "Rental car return location",
      "Taxi service",
      "Tour agency",
      "Tour operator",
      "Travel agency"
    ],
    "reviewsCount": 548,
    "imagesCount": 119,
    "openingHours": [
      {
        "day": "Monday",
        "hours": "Open 24 hours"
      },
      {
        "day": "Tuesday",
        "hours": "Open 24 hours"
      },
      {
        "day": "Wednesday",
        "hours": "Open 24 hours"
      },
      {
        "day": "Thursday",
        "hours": "Open 24 hours"
      },
      {
        "day": "Friday",
        "hours": "Open 24 hours"
      },
      {
        "day": "Saturday",
        "hours": "Open 24 hours"
      },
      {
        "day": "Sunday",
        "hours": "Open 24 hours"
      }
    ],
    "imageUrl": "https://media.indianluxurycars.com/google/f015d6124de255489e5ff686e1b68ae0e2b09f70c69b90c61b56f066337b3b20.jpg",
    "url": "https://www.google.com/maps/search/?api=1&query=Bijaylaxmi%20Car%20Rental%20Service&query_place_id=ChIJGUhy2xwtjjkRRn4zl1VP4Yo"
  },
  {
    "title": "Book Cab Varanasi",
    "subTitle": "बुक कैब वाराणसी",
    "categoryName": "Car leasing service",
    "address": "Opp. Taj, basement cantonment, Varanasi, Uttar Pradesh 221002, India",
    "neighborhood": "Opp. Taj, basement cantonment",
    "city": "Varanasi",
    "postalCode": "221002",
    "state": "Uttar Pradesh",
    "countryCode": "IN",
    "website": "http://www.bookcabvaranasi.com/",
    "phone": "+919838409911",
    "phoneUnformatted": "+919838409911",
    "location": {
      "lat": 25.3356261,
      "lng": 82.9838906
    },
    "totalScore": 4.8,
    "permanentlyClosed": false,
    "temporarilyClosed": false,
    "placeId": "ChIJbTTGMNgtjjkRgNYAQVW2jrE",
    "categories": [
      "Car leasing service",
      "Taxi service",
      "Tour agency",
      "Tour operator",
      "Transportation service",
      "Travel agency"
    ],
    "reviewsCount": 459,
    "imagesCount": 151,
    "openingHours": [],
    "imageUrl": "https://media.indianluxurycars.com/google/f31590e85c61c1b35ff947b76163383dd3c670ee30ba9c61a28c2a9de8418791.jpg",
    "url": "https://www.google.com/maps/search/?api=1&query=Book%20Cab%20Varanasi&query_place_id=ChIJbTTGMNgtjjkRgNYAQVW2jrE"
  },
  {
    "title": "Book Taxi Varanasi",
    "subTitle": "बुक टैक्सी वाराणसी",
    "categoryName": "Car rental agency",
    "address": "E-3, Chandra Residency, S10/266, Hukulganj, Khajuri Colony, Varanasi, Uttar Pradesh 221002, India",
    "neighborhood": "Hukulganj, Khajuri Colony",
    "street": "E-3, Chandra Residency, S10/266",
    "city": "Varanasi",
    "postalCode": "221002",
    "state": "Uttar Pradesh",
    "countryCode": "IN",
    "website": "https://booktaxivaranasi.com/",
    "phone": "+919125816299",
    "phoneUnformatted": "+919125816299",
    "location": {
      "lat": 25.3417204,
      "lng": 82.9962421
    },
    "totalScore": 4.8,
    "permanentlyClosed": false,
    "temporarilyClosed": false,
    "placeId": "ChIJ_____xMujjkRCP0tlr6rE80",
    "categories": [
      "Car rental agency",
      "Airport shuttle service",
      "Car leasing service",
      "Taxi service",
      "Minibus taxi service",
      "Travel agency"
    ],
    "reviewsCount": 728,
    "imagesCount": 102,
    "openingHours": [],
    "imageUrl": "https://media.indianluxurycars.com/google/e026128d02ad57c920a5efcbf77045c97cb2a8f9ae1d5f0322aa6e639a59f984.jpg",
    "url": "https://www.google.com/maps/search/?api=1&query=Book%20Taxi%20Varanasi&query_place_id=ChIJ_____xMujjkRCP0tlr6rE80"
  },
  {
    "title": "Cab Booking in Varanasi | Airport Pickup-Drop | Local and Out Station",
    "subTitle": "कैब बुकिंग इन वाराणसी | एयरपोर्ट पिकअप-ड्रॉप | लोकल एंड आउट स्टेशन",
    "categoryName": "Car leasing service",
    "address": "Nirala Nagar, Shivpurva, Mahmoorganj, Varanasi, Uttar Pradesh 221010, India",
    "neighborhood": "Mahmoorganj",
    "street": "Nirala Nagar, Shivpurva",
    "city": "Varanasi",
    "postalCode": "221010",
    "state": "Uttar Pradesh",
    "countryCode": "IN",
    "website": "http://visitkashi.in/",
    "phone": "+919260912327",
    "phoneUnformatted": "+919260912327",
    "location": {
      "lat": 25.308369,
      "lng": 82.9819047
    },
    "totalScore": 4.3,
    "permanentlyClosed": false,
    "temporarilyClosed": false,
    "placeId": "ChIJ2w1L168tjjkR3yAJXymrJSk",
    "categories": [
      "Car leasing service"
    ],
    "reviewsCount": 3,
    "imagesCount": 4,
    "openingHours": [
      {
        "day": "Monday",
        "hours": "9:30 AM to 8:30 PM"
      },
      {
        "day": "Tuesday",
        "hours": "9:30 AM to 8:30 PM"
      },
      {
        "day": "Wednesday",
        "hours": "9:30 AM to 8:30 PM"
      },
      {
        "day": "Thursday",
        "hours": "9:30 AM to 8:30 PM"
      },
      {
        "day": "Friday",
        "hours": "9:30 AM to 8:30 PM"
      },
      {
        "day": "Saturday",
        "hours": "9:30 AM to 8:30 PM"
      },
      {
        "day": "Sunday",
        "hours": "9:30 AM to 8:30 PM"
      }
    ],
    "imageUrl": "https://media.indianluxurycars.com/google/8331bd6ffb829b1fbd9c35028c3f755bcfb63dd5da0b094a3bec13f1f7651423.jpg",
    "url": "https://www.google.com/maps/search/?api=1&query=Cab%20Booking%20in%20Varanasi%20%7C%20Airport%20Pickup-Drop%20%7C%20Local%20and%20Out%20Station&query_place_id=ChIJ2w1L168tjjkR3yAJXymrJSk"
  },
  {
    "title": "Car kharido Becho 24",
    "subTitle": "कार खरीदो बेचो 24",
    "categoryName": "Used car dealer",
    "address": "C-28/68-A, Andhrapull, Teliyabag, Varanasi, Uttar Pradesh 221002, India",
    "neighborhood": "Andhrapull, Teliyabag",
    "street": "C-28/68-A",
    "city": "Varanasi",
    "postalCode": "221002",
    "state": "Uttar Pradesh",
    "countryCode": "IN",
    "website": "https://carkharidobecho24.com/",
    "phone": "+916394138273",
    "phoneUnformatted": "+916394138273",
    "location": {
      "lat": 25.329916,
      "lng": 82.9951758
    },
    "totalScore": 4.9,
    "permanentlyClosed": false,
    "temporarilyClosed": false,
    "placeId": "ChIJA1YYqtgvjjkRwMCerYX0LnI",
    "categories": [
      "Used car dealer",
      "Car finance and loan company"
    ],
    "reviewsCount": 214,
    "imagesCount": 67,
    "openingHours": [
      {
        "day": "Monday",
        "hours": "9 AM to 6 PM"
      },
      {
        "day": "Tuesday",
        "hours": "9 AM to 6 PM"
      },
      {
        "day": "Wednesday",
        "hours": "9 AM to 6 PM"
      },
      {
        "day": "Thursday",
        "hours": "9 AM to 6 PM"
      },
      {
        "day": "Friday",
        "hours": "9 AM to 6 PM"
      },
      {
        "day": "Saturday",
        "hours": "9 AM to 6 PM"
      },
      {
        "day": "Sunday",
        "hours": "Closed"
      }
    ],
    "imageUrl": "https://media.indianluxurycars.com/google/083e9f1051dad1c63c15a2e3e94ade955bd7a0fe9b256553cd3b865b84be2bea.jpg",
    "url": "https://www.google.com/maps/search/?api=1&query=Car%20kharido%20Becho%2024&query_place_id=ChIJA1YYqtgvjjkRwMCerYX0LnI"
  },
  {
    "title": "Car Rental In varanasi",
    "subTitle": "कार किराए पर लेने वाराणसी में",
    "categoryName": "Car rental agency",
    "address": "AF 3/4 Imlak Phase 2, near Hotel Taj, Nadesar, Chaukaghat, Varanasi, Uttar Pradesh 221002, India",
    "neighborhood": "Nadesar, Chaukaghat",
    "street": "AF 3/4 Imlak Phase 2, near Hotel Taj",
    "city": "Varanasi",
    "postalCode": "221002",
    "state": "Uttar Pradesh",
    "countryCode": "IN",
    "website": "http://www.carrentalinvaranasi.com/",
    "phone": "+919935028452",
    "phoneUnformatted": "+919935028452",
    "location": {
      "lat": 25.3327168,
      "lng": 82.9923955
    },
    "totalScore": 4.7,
    "permanentlyClosed": false,
    "temporarilyClosed": false,
    "placeId": "ChIJkTt3kN8tjjkR3zWfMJywQAE",
    "categories": [
      "Car rental agency",
      "Car leasing service",
      "Taxi service"
    ],
    "reviewsCount": 6,
    "openingHours": [
      {
        "day": "Monday",
        "hours": "10 AM to 6 PM"
      },
      {
        "day": "Tuesday",
        "hours": "10 AM to 6 PM"
      },
      {
        "day": "Wednesday",
        "hours": "10 AM to 6 PM"
      },
      {
        "day": "Thursday",
        "hours": "10 AM to 6 PM"
      },
      {
        "day": "Friday",
        "hours": "10 AM to 6 PM"
      },
      {
        "day": "Saturday",
        "hours": "10 AM to 6 PM"
      },
      {
        "day": "Sunday",
        "hours": "10 AM to 6 PM"
      }
    ],
    "url": "https://www.google.com/maps/search/?api=1&query=Car%20Rental%20In%20varanasi&query_place_id=ChIJkTt3kN8tjjkR3zWfMJywQAE"
  },
  {
    "title": "Charvis Motors",
    "subTitle": "चार्विस मोटर्स",
    "categoryName": "Car dealer",
    "address": "2nd Floor, 8XFR+PR7 Vinayak plaza, 201, Maldahiya, Chetganj, Varanasi, Uttar Pradesh 221002, India",
    "neighborhood": "Maldahiya, Chetganj",
    "street": "2nd Floor, 8XFR+PR7 Vinayak plaza, 201",
    "city": "Varanasi",
    "postalCode": "221002",
    "state": "Uttar Pradesh",
    "countryCode": "IN",
    "website": "http://www.charvismotors.com/",
    "phone": "+919415903823",
    "phoneUnformatted": "+919415903823",
    "location": {
      "lat": 25.3242992,
      "lng": 82.9920586
    },
    "totalScore": 5,
    "permanentlyClosed": false,
    "temporarilyClosed": false,
    "placeId": "ChIJ4ZPvpr3gpacR00gEDCUnt8E",
    "categories": [
      "Car dealer",
      "Auto auction",
      "Auto broker",
      "Motoring club",
      "Smart Car dealer",
      "Used car dealer"
    ],
    "reviewsCount": 51,
    "imagesCount": 17,
    "openingHours": [
      {
        "day": "Monday",
        "hours": "10 AM to 9 PM"
      },
      {
        "day": "Tuesday",
        "hours": "10 AM to 9 PM"
      },
      {
        "day": "Wednesday",
        "hours": "10 AM to 9 PM"
      },
      {
        "day": "Thursday",
        "hours": "10 AM to 9 PM"
      },
      {
        "day": "Friday",
        "hours": "10 AM to 9 PM"
      },
      {
        "day": "Saturday",
        "hours": "10 AM to 12 AM"
      },
      {
        "day": "Sunday",
        "hours": "12 to 9 AM"
      }
    ],
    "imageUrl": "https://media.indianluxurycars.com/google/77a4cab296a77317c77df75dec2e46b63d76f3852f001cb22f649032013aa5c0.jpg",
    "url": "https://www.google.com/maps/search/?api=1&query=Charvis%20Motors&query_place_id=ChIJ4ZPvpr3gpacR00gEDCUnt8E"
  },
  {
    "title": "City Life Cabs: Best Car Rental in Varanasi-Ayodhya",
    "subTitle": "सिटी लाइफ कैब्स: बेस्ट कार रेंटल इन वाराणसी-अयोध्या",
    "categoryName": "Car rental agency",
    "address": "Shop no.17, Guru Govind Singh Complex Mall, near Vinayak plaza, Pared Kothi, Maldahiya, Chetganj, Varanasi, Uttar Pradesh 221001, India",
    "neighborhood": "Pared Kothi, Maldahiya, Chetganj",
    "street": "Shop no.17, Guru Govind Singh Complex Mall, near Vinayak plaza",
    "city": "Varanasi",
    "postalCode": "221001",
    "state": "Uttar Pradesh",
    "countryCode": "IN",
    "website": "https://citylifecabs.com/",
    "phone": "+918707493065",
    "phoneUnformatted": "+918707493065",
    "location": {
      "lat": 25.3256216,
      "lng": 82.9925099
    },
    "totalScore": 5,
    "permanentlyClosed": false,
    "temporarilyClosed": false,
    "placeId": "ChIJ3zJjIKUvjjkRKVbIVkTbQfM",
    "categories": [
      "Car rental agency",
      "Bus tour agency",
      "Car leasing service",
      "Rental car return location",
      "Taxi service",
      "Tour agency",
      "Tour operator",
      "Travel agency"
    ],
    "reviewsCount": 120,
    "imagesCount": 51,
    "openingHours": [
      {
        "day": "Monday",
        "hours": "Open 24 hours"
      },
      {
        "day": "Tuesday",
        "hours": "Open 24 hours"
      },
      {
        "day": "Wednesday",
        "hours": "Open 24 hours"
      },
      {
        "day": "Thursday",
        "hours": "Open 24 hours"
      },
      {
        "day": "Friday",
        "hours": "Open 24 hours"
      },
      {
        "day": "Saturday",
        "hours": "Open 24 hours"
      },
      {
        "day": "Sunday",
        "hours": "Open 24 hours"
      }
    ],
    "imageUrl": "https://media.indianluxurycars.com/google/199da13e29de817c849fbbf6ec775f4d148ccd7e2a07bf36470d391422189cea.jpg",
    "url": "https://www.google.com/maps/search/?api=1&query=City%20Life%20Cabs%3A%20Best%20Car%20Rental%20in%20Varanasi-Ayodhya&query_place_id=ChIJ3zJjIKUvjjkRKVbIVkTbQfM"
  },
  {
    "title": "Classic Car Accessories - Best Car Accessories |Car Accessories in Varanasi |Seat Cover in Varanasi",
    "subTitle": "क्लासिक कार सहायक उपकरण",
    "categoryName": "Car accessories store",
    "address": "opposite Police Chouki, Patel Nagar, Nadesar, Chaukaghat, Varanasi, Uttar Pradesh 221002, India",
    "neighborhood": "Patel Nagar, Nadesar, Chaukaghat",
    "street": "opposite Police Chouki",
    "city": "Varanasi",
    "postalCode": "221002",
    "state": "Uttar Pradesh",
    "countryCode": "IN",
    "phone": "+917007612104",
    "phoneUnformatted": "+917007612104",
    "location": {
      "lat": 25.3322681,
      "lng": 82.988067
    },
    "totalScore": 4.9,
    "permanentlyClosed": false,
    "temporarilyClosed": false,
    "placeId": "ChIJd2u9p98tjjkR4jluJMJ3_Po",
    "categories": [
      "Car accessories store"
    ],
    "reviewsCount": 129,
    "imagesCount": 79,
    "openingHours": [
      {
        "day": "Monday",
        "hours": "10 AM to 8 PM"
      },
      {
        "day": "Tuesday",
        "hours": "10 AM to 8 PM"
      },
      {
        "day": "Wednesday",
        "hours": "10 AM to 8 PM"
      },
      {
        "day": "Thursday",
        "hours": "10 AM to 8 PM"
      },
      {
        "day": "Friday",
        "hours": "10 AM to 8 PM"
      },
      {
        "day": "Saturday",
        "hours": "10 AM to 8 PM"
      },
      {
        "day": "Sunday",
        "hours": "10 AM to 5 PM"
      }
    ],
    "imageUrl": "https://media.indianluxurycars.com/google/4f7a49cbdaeca2422bd02f2935e5d7f229d0e62f105424cc3025fd423aeb1f46.jpg",
    "url": "https://www.google.com/maps/search/?api=1&query=Classic%20Car%20Accessories%20-%20Best%20Car%20Accessories%20%7CCar%20Accessories%20in%20Varanasi%20%7CSeat%20Cover%20in%20Varanasi&query_place_id=ChIJd2u9p98tjjkR4jluJMJ3_Po"
  },
  {
    "title": "Diamond Car Accessories | Car Accessories Dealer in Varanasi | Best Car Accessories Dealer in Varanasi",
    "subTitle": "हीरा कार सहायक उपकरण",
    "categoryName": "Car accessories store",
    "address": "Nadesar Rd, Motor Market, Nadesar Crossing, Nadesar, Chaukaghat, Varanasi, Uttar Pradesh 221002, India",
    "neighborhood": "Motor Market, Nadesar Crossing, Nadesar, Chaukaghat",
    "street": "Nadesar Rd",
    "city": "Varanasi",
    "postalCode": "221002",
    "state": "Uttar Pradesh",
    "countryCode": "IN",
    "website": "https://sites.google.com/view/diamondcaraccessories",
    "phone": "+919598958958",
    "phoneUnformatted": "+919598958958",
    "location": {
      "lat": 25.3320759,
      "lng": 82.990098
    },
    "totalScore": 3.7,
    "permanentlyClosed": false,
    "temporarilyClosed": false,
    "placeId": "ChIJGyN4Sd4tjjkRuLGLUpHPmq8",
    "categories": [
      "Car accessories store"
    ],
    "reviewsCount": 52,
    "imagesCount": 96,
    "openingHours": [
      {
        "day": "Monday",
        "hours": "9 AM to 9 PM"
      },
      {
        "day": "Tuesday",
        "hours": "9 AM to 9 PM"
      },
      {
        "day": "Wednesday",
        "hours": "9 AM to 9 PM"
      },
      {
        "day": "Thursday",
        "hours": "9 AM to 9 PM"
      },
      {
        "day": "Friday",
        "hours": "9 AM to 9 PM"
      },
      {
        "day": "Saturday",
        "hours": "9 AM to 9 PM"
      },
      {
        "day": "Sunday",
        "hours": "9 AM to 9 PM"
      }
    ],
    "imageUrl": "https://media.indianluxurycars.com/google/d3ecd6f4390d7b9635868860fc16f6ce1d942ad0d3387c08b501c6a6a101b25c.jpg",
    "url": "https://www.google.com/maps/search/?api=1&query=Diamond%20Car%20Accessories%20%7C%20Car%20Accessories%20Dealer%20in%20Varanasi%20%7C%20Best%20Car%20Accessories%20Dealer%20in%20Varanasi&query_place_id=ChIJGyN4Sd4tjjkRuLGLUpHPmq8"
  },
  {
    "title": "Fairdeal Car Bazar",
    "subTitle": "फेयरडील कार बाजार",
    "categoryName": "Used car dealer",
    "address": "Trust max Auto Hyundai Spare parts, S 15/20, Ghausabad, Nadesar, Chaukaghat, Varanasi, Uttar Pradesh 221002, India",
    "neighborhood": "Near Bridge, Nadesar, Chaukaghat",
    "street": "Trust max Auto Hyundai Spare parts, S 15/20, Ghausabad",
    "city": "Varanasi",
    "postalCode": "221002",
    "state": "Uttar Pradesh",
    "countryCode": "IN",
    "phone": "+919839175335",
    "phoneUnformatted": "+919839175335",
    "location": {
      "lat": 25.3333058,
      "lng": 82.9939156
    },
    "totalScore": 3.6,
    "permanentlyClosed": false,
    "temporarilyClosed": false,
    "placeId": "ChIJ4So8d3UujjkRtCdz7YX8XHE",
    "categories": [
      "Used car dealer"
    ],
    "reviewsCount": 19,
    "imagesCount": 25,
    "openingHours": [
      {
        "day": "Monday",
        "hours": "10:30 AM to 6 PM"
      },
      {
        "day": "Tuesday",
        "hours": "11 AM to 6 PM"
      },
      {
        "day": "Wednesday",
        "hours": "10:30 AM to 6 PM"
      },
      {
        "day": "Thursday",
        "hours": "10:30 AM to 6 PM"
      },
      {
        "day": "Friday",
        "hours": "10:30 AM to 6 PM"
      },
      {
        "day": "Saturday",
        "hours": "11 AM to 4 PM"
      },
      {
        "day": "Sunday",
        "hours": "8 AM to 6 PM"
      }
    ],
    "imageUrl": "https://media.indianluxurycars.com/google/66271f14e4713f2876428e29ebc49df1166bae6834cd8f84a7f1bb3db2f5b6fa.jpg",
    "url": "https://www.google.com/maps/search/?api=1&query=Fairdeal%20Car%20Bazar&query_place_id=ChIJ4So8d3UujjkRtCdz7YX8XHE"
  },
  {
    "title": "Galaxy Motors | Best Car Dealer in Varanasi | Car Dealer in Varanasi",
    "subTitle": "गैलेक्सी मोटर्स | बेस्ट कार डीलर इन वाराणसी | कार डीलर इन वाराणसी",
    "categoryName": "Car dealer",
    "address": "D65/426 E-1-K-D, near primary school, Lahartara Boulia, Bazardiha, Maheshpur, Varanasi, Uttar Pradesh 221002, India",
    "neighborhood": "Lahartara Boulia, Bazardiha, Maheshpur",
    "street": "D65/426 E-1-K-D, near primary school",
    "city": "Varanasi",
    "postalCode": "221002",
    "state": "Uttar Pradesh",
    "countryCode": "IN",
    "phone": "+919918664433",
    "phoneUnformatted": "+919918664433",
    "location": {
      "lat": 25.3183908,
      "lng": 82.9677456
    },
    "totalScore": 4,
    "permanentlyClosed": false,
    "temporarilyClosed": false,
    "placeId": "ChIJc6nYwCgtjjkRV1gFu0QLIGg",
    "categories": [
      "Car dealer"
    ],
    "reviewsCount": 34,
    "imagesCount": 100,
    "openingHours": [
      {
        "day": "Monday",
        "hours": "9 AM to 6 PM"
      },
      {
        "day": "Tuesday",
        "hours": "9 AM to 6 PM"
      },
      {
        "day": "Wednesday",
        "hours": "9 AM to 6 PM"
      },
      {
        "day": "Thursday",
        "hours": "9 AM to 6 PM"
      },
      {
        "day": "Friday",
        "hours": "9 AM to 6 PM"
      },
      {
        "day": "Saturday",
        "hours": "9 AM to 6 PM"
      },
      {
        "day": "Sunday",
        "hours": "9 AM to 6 PM"
      }
    ],
    "imageUrl": "https://media.indianluxurycars.com/google/6c3bcfca729d27052d8bf1b91417e2112fa7066a8988aea6904471ffa6f96a10.jpg",
    "url": "https://www.google.com/maps/search/?api=1&query=Galaxy%20Motors%20%7C%20Best%20Car%20Dealer%20in%20Varanasi%20%7C%20Car%20Dealer%20in%20Varanasi&query_place_id=ChIJc6nYwCgtjjkRV1gFu0QLIGg"
  },
  {
    "title": "Go Fida Car Accessories Shop",
    "subTitle": "जाओ फिदा कार सहायक उपकरण दुकान",
    "categoryName": "Car accessories store",
    "address": "Nadesar, Chaukaghat, Varanasi, Uttar Pradesh 221002, India",
    "neighborhood": "Nadesar, Chaukaghat",
    "city": "Varanasi",
    "postalCode": "221002",
    "state": "Uttar Pradesh",
    "countryCode": "IN",
    "phone": "+919935154444",
    "phoneUnformatted": "+919935154444",
    "location": {
      "lat": 25.3327244,
      "lng": 82.9888077
    },
    "totalScore": 4.2,
    "permanentlyClosed": false,
    "temporarilyClosed": false,
    "placeId": "ChIJcT1-Z94tjjkRJekTTcebDGM",
    "categories": [
      "Car accessories store",
      "Auto parts store"
    ],
    "reviewsCount": 208,
    "imagesCount": 22,
    "openingHours": [
      {
        "day": "Monday",
        "hours": "10:30 AM to 8 PM"
      },
      {
        "day": "Tuesday",
        "hours": "10:30 AM to 8 PM"
      },
      {
        "day": "Wednesday",
        "hours": "10:30 AM to 8 PM"
      },
      {
        "day": "Thursday",
        "hours": "10:30 AM to 8 PM"
      },
      {
        "day": "Friday",
        "hours": "10:30 AM to 8 PM"
      },
      {
        "day": "Saturday",
        "hours": "10:30 AM to 8 PM"
      },
      {
        "day": "Sunday",
        "hours": "10:30 AM to 3 PM"
      }
    ],
    "imageUrl": "https://media.indianluxurycars.com/google/2f30d50be0fc136219615f90ddb881d29a6030257740251fbca797099a29839e.jpg",
    "url": "https://www.google.com/maps/search/?api=1&query=Go%20Fida%20Car%20Accessories%20Shop&query_place_id=ChIJcT1-Z94tjjkRJekTTcebDGM"
  },
  {
    "title": "GUMMO INDIA",
    "subTitle": "गुम इंडिया",
    "categoryName": "Car leasing service",
    "address": "Girja Ghar Chauraha, Girja Ghar, Godowlia, Varanasi, Uttar Pradesh 221001, India",
    "neighborhood": "Girja Ghar, Godowlia",
    "street": "Girja Ghar Chauraha",
    "city": "Varanasi",
    "postalCode": "221001",
    "state": "Uttar Pradesh",
    "countryCode": "IN",
    "phone": "+919119976500",
    "phoneUnformatted": "+919119976500",
    "location": {
      "lat": 25.309555,
      "lng": 83.0054886
    },
    "totalScore": 5,
    "permanentlyClosed": false,
    "temporarilyClosed": false,
    "placeId": "ChIJw5FdoskvjjkRLRzMS3h3bGg",
    "categories": [
      "Car leasing service",
      "Taxi service",
      "Tour operator",
      "Travel agency"
    ],
    "reviewsCount": 12,
    "imagesCount": 32,
    "openingHours": [],
    "imageUrl": "https://media.indianluxurycars.com/google/cf6503186988c0521c12794fd95b0baaf7c93cc106ad4b275f1db6736e7137cd.jpg",
    "url": "https://www.google.com/maps/search/?api=1&query=GUMMO%20INDIA&query_place_id=ChIJw5FdoskvjjkRLRzMS3h3bGg"
  },
  {
    "title": "Holy Kashi Tour & Travels | Best Travel Agency in Varanasi | Tour Operator | Car Rental | Airport Taxi",
    "subTitle": "होली काशी टूर & ट्रैवल्स | बेस्ट ट्रैवल एजेंसी इन वाराणसी | टूर ऑपरेटर | कार रेंटल | एयरपोर्ट टैक्सी",
    "categoryName": "Car leasing service",
    "address": "N 15, Badi Gaibi Rd, Bajardiha, Varanasi, Uttar Pradesh 221010, India",
    "neighborhood": "Bajardiha",
    "street": "N 15, Badi Gaibi Rd",
    "city": "Varanasi",
    "postalCode": "221010",
    "state": "Uttar Pradesh",
    "countryCode": "IN",
    "website": "https://holykashitour.com/",
    "phone": "+919795889178",
    "phoneUnformatted": "+919795889178",
    "location": {
      "lat": 25.2980235,
      "lng": 82.991051
    },
    "totalScore": 4.9,
    "permanentlyClosed": false,
    "temporarilyClosed": false,
    "placeId": "ChIJ_____wYyjjkREF9eLkfrKeE",
    "categories": [
      "Car leasing service",
      "Airport shuttle service",
      "Travel agency",
      "Religious destination",
      "Sightseeing tour agency",
      "Taxi service",
      "Tour agency",
      "Tour operator",
      "Tourist attraction"
    ],
    "reviewsCount": 67,
    "imagesCount": 65,
    "openingHours": [
      {
        "day": "Monday",
        "hours": "Open 24 hours"
      },
      {
        "day": "Tuesday",
        "hours": "Open 24 hours"
      },
      {
        "day": "Wednesday",
        "hours": "Open 24 hours"
      },
      {
        "day": "Thursday",
        "hours": "Open 24 hours"
      },
      {
        "day": "Friday",
        "hours": "Open 24 hours"
      },
      {
        "day": "Saturday",
        "hours": "Open 24 hours"
      },
      {
        "day": "Sunday",
        "hours": "Open 24 hours"
      }
    ],
    "imageUrl": "https://media.indianluxurycars.com/google/83501972d8e88990f077187fb7f62e031e8e59e345ab5fc26b87d612a6414785.jpg",
    "url": "https://www.google.com/maps/search/?api=1&query=Holy%20Kashi%20Tour%20%26%20Travels%20%7C%20Best%20Travel%20Agency%20in%20Varanasi%20%7C%20Tour%20Operator%20%7C%20Car%20Rental%20%7C%20Airport%20Taxi&query_place_id=ChIJ_____wYyjjkREF9eLkfrKeE"
  },
  {
    "title": "Holy Voyages - Best Tourism Companies In India For Perfect Tour, Travel & Views",
    "subTitle": "होली वोयाज्स - बेस्ट टूरिज्म कंपनीज़ इन इंडिया फॉर परफेक्ट टूर, ट्रैवल & व्यूज",
    "categoryName": "Car leasing service",
    "address": "AF 3/4, Imlak Colony 2, Phase 2, Nadesar, Chaukaghat, Varanasi, Uttar Pradesh 221002, India",
    "neighborhood": "Imlak Colony 2, Phase 2, Nadesar, Chaukaghat",
    "street": "AF 3/4",
    "city": "Varanasi",
    "postalCode": "221002",
    "state": "Uttar Pradesh",
    "countryCode": "IN",
    "website": "https://holyvoyages.com/",
    "location": {
      "lat": 25.333564,
      "lng": 82.994507
    },
    "totalScore": 4.5,
    "permanentlyClosed": false,
    "temporarilyClosed": false,
    "placeId": "ChIJKz-sXn8ujjkRnacE8JuoQnc",
    "categories": [
      "Car leasing service",
      "Travel agency",
      "Sightseeing tour agency",
      "Taxi service",
      "Tour agency",
      "Tour operator"
    ],
    "reviewsCount": 52,
    "imagesCount": 189,
    "openingHours": [
      {
        "day": "Monday",
        "hours": "Open 24 hours"
      },
      {
        "day": "Tuesday",
        "hours": "Open 24 hours"
      },
      {
        "day": "Wednesday",
        "hours": "Open 24 hours"
      },
      {
        "day": "Thursday",
        "hours": "Open 24 hours"
      },
      {
        "day": "Friday",
        "hours": "Open 24 hours"
      },
      {
        "day": "Saturday",
        "hours": "Open 24 hours"
      },
      {
        "day": "Sunday",
        "hours": "Open 24 hours"
      }
    ],
    "imageUrl": "https://media.indianluxurycars.com/google/a0426b531730eaab8ae138cdf7118e8497a22d5bda733aba22f43907991fe6cd.jpg",
    "url": "https://www.google.com/maps/search/?api=1&query=Holy%20Voyages%20-%20Best%20Tourism%20Companies%20In%20India%20For%20Perfect%20Tour%2C%20Travel%20%26%20Views&query_place_id=ChIJKz-sXn8ujjkRnacE8JuoQnc"
  },
  {
    "title": "Jai Maa Sheetla tour And travels",
    "subTitle": "जय माँ शीतला टूर एंड ट्रैवल्स",
    "categoryName": "Car leasing service",
    "address": "Luxa Rd, near Sri Basdev Baba Mandir, Sidhgiribagh, Varanasi, Uttar Pradesh 221010, India",
    "neighborhood": "Sidhgiribagh",
    "street": "Luxa Rd, near Sri Basdev Baba Mandir",
    "city": "Varanasi",
    "postalCode": "221010",
    "state": "Uttar Pradesh",
    "countryCode": "IN",
    "website": "https://jsdl.in/DT-60RGFKZV1GC",
    "phone": "+919616045733",
    "phoneUnformatted": "+919616045733",
    "location": {
      "lat": 25.3096874,
      "lng": 83.0030198
    },
    "totalScore": 5,
    "permanentlyClosed": false,
    "temporarilyClosed": false,
    "placeId": "ChIJpd0fZSAzjjkRMbfm4tuow8A",
    "categories": [
      "Car leasing service",
      "Taxi service",
      "Tour agency"
    ],
    "reviewsCount": 16,
    "imagesCount": 6,
    "openingHours": [
      {
        "day": "Monday",
        "hours": "Open 24 hours"
      },
      {
        "day": "Tuesday",
        "hours": "Open 24 hours"
      },
      {
        "day": "Wednesday",
        "hours": "Open 24 hours"
      },
      {
        "day": "Thursday",
        "hours": "Open 24 hours"
      },
      {
        "day": "Friday",
        "hours": "Open 24 hours"
      },
      {
        "day": "Saturday",
        "hours": "Open 24 hours"
      },
      {
        "day": "Sunday",
        "hours": "Open 24 hours"
      }
    ],
    "imageUrl": "https://media.indianluxurycars.com/google/d7832596b7182dc05c8196f049613fbca7653e5a2595614ee35aadb9e63996cc.png",
    "url": "https://www.google.com/maps/search/?api=1&query=Jai%20Maa%20Sheetla%20tour%20And%20travels&query_place_id=ChIJpd0fZSAzjjkRMbfm4tuow8A"
  },
  {
    "title": "Kashi Journeys",
    "subTitle": "काशी यात्रा",
    "categoryName": "Car leasing service",
    "address": "S.9/302, K-1B, Panchkoshi Rd, Nai Basti, Pandeypur, Sikraul, Varanasi, Uttar Pradesh 221002, India",
    "neighborhood": "Nai Basti, Pandeypur, Sikraul",
    "street": "S.9/302, K-1B, Panchkoshi Rd",
    "city": "Varanasi",
    "postalCode": "221002",
    "state": "Uttar Pradesh",
    "countryCode": "IN",
    "phone": "+919452206434",
    "phoneUnformatted": "+919452206434",
    "location": {
      "lat": 25.349427,
      "lng": 82.9999219
    },
    "totalScore": 4.9,
    "permanentlyClosed": false,
    "temporarilyClosed": false,
    "placeId": "ChIJl35rGnwujjkR6zqqAc1WhJM",
    "categories": [
      "Car leasing service",
      "Boat rental service",
      "Sightseeing tour agency"
    ],
    "reviewsCount": 262,
    "imagesCount": 326,
    "openingHours": [
      {
        "day": "Monday",
        "hours": "5 AM to 9 PM"
      },
      {
        "day": "Tuesday",
        "hours": "5 AM to 9 PM"
      },
      {
        "day": "Wednesday",
        "hours": "5 AM to 9 PM"
      },
      {
        "day": "Thursday",
        "hours": "5 AM to 9 PM"
      },
      {
        "day": "Friday",
        "hours": "5 AM to 9 PM"
      },
      {
        "day": "Saturday",
        "hours": "5 AM to 9 PM"
      },
      {
        "day": "Sunday",
        "hours": "5 AM to 9 PM"
      }
    ],
    "imageUrl": "https://media.indianluxurycars.com/google/1f43bbfed0f5b2992961be1184ca1690380cbf275ad814004f5397bde8fa3ad1.jpg",
    "url": "https://www.google.com/maps/search/?api=1&query=Kashi%20Journeys&query_place_id=ChIJl35rGnwujjkR6zqqAc1WhJM"
  },
  {
    "title": "Kashi Motors Car Bazar",
    "subTitle": "काशी मोटर्स कार बाजार",
    "categoryName": "Used car dealer",
    "address": "Raja Bazar Rd, Nadesar, Chaukaghat, Varanasi, Uttar Pradesh 221002, India",
    "neighborhood": "Nadesar, Chaukaghat",
    "street": "Raja Bazar Rd",
    "city": "Varanasi",
    "postalCode": "221002",
    "state": "Uttar Pradesh",
    "countryCode": "IN",
    "phone": "+917376639754",
    "phoneUnformatted": "+917376639754",
    "location": {
      "lat": 25.3342621,
      "lng": 82.987625
    },
    "totalScore": 4.5,
    "permanentlyClosed": false,
    "temporarilyClosed": false,
    "placeId": "ChIJXYzEYN4tjjkRq2lmgAoGsRg",
    "categories": [
      "Used car dealer",
      "Loan agency"
    ],
    "reviewsCount": 15,
    "imagesCount": 6,
    "openingHours": [
      {
        "day": "Monday",
        "hours": "10 AM to 8 PM"
      },
      {
        "day": "Tuesday",
        "hours": "10 AM to 8 PM"
      },
      {
        "day": "Wednesday",
        "hours": "10 AM to 8 PM"
      },
      {
        "day": "Thursday",
        "hours": "10 AM to 8 PM"
      },
      {
        "day": "Friday",
        "hours": "10 AM to 8 PM"
      },
      {
        "day": "Saturday",
        "hours": "10 AM to 8 PM"
      },
      {
        "day": "Sunday",
        "hours": "10 AM to 8 PM"
      }
    ],
    "imageUrl": "https://media.indianluxurycars.com/google/c05d9e5e39a88fb1b9026c57698b9c8ad2da7f509c1280ca605a1a197d4a8c23.jpg",
    "url": "https://www.google.com/maps/search/?api=1&query=Kashi%20Motors%20Car%20Bazar&query_place_id=ChIJXYzEYN4tjjkRq2lmgAoGsRg"
  },
  {
    "title": "Kashi Pravah",
    "subTitle": "काशी प्रवाह",
    "categoryName": "Car leasing service",
    "address": "Sri Nagar Colony, Paharia, Varanasi, Uttar Pradesh 221007, India",
    "neighborhood": "Sri Nagar Colony, Paharia",
    "city": "Varanasi",
    "postalCode": "221007",
    "state": "Uttar Pradesh",
    "countryCode": "IN",
    "website": "http://kashipravah.com/",
    "phone": "+919651735403",
    "phoneUnformatted": "+919651735403",
    "location": {
      "lat": 25.358457,
      "lng": 83.0072933
    },
    "totalScore": 5,
    "permanentlyClosed": false,
    "temporarilyClosed": false,
    "placeId": "ChIJuR_tJx8vjjkRcwv-X1GPCog",
    "categories": [
      "Car leasing service",
      "Tour operator",
      "Sightseeing tour agency",
      "Taxi service",
      "Transportation service",
      "Travel agency"
    ],
    "reviewsCount": 6,
    "imagesCount": 54,
    "openingHours": [
      {
        "day": "Monday",
        "hours": "10 AM to 7 PM"
      },
      {
        "day": "Tuesday",
        "hours": "10 AM to 7 PM"
      },
      {
        "day": "Wednesday",
        "hours": "10 AM to 7 PM"
      },
      {
        "day": "Thursday",
        "hours": "10 AM to 7 PM"
      },
      {
        "day": "Friday",
        "hours": "10 AM to 7 PM"
      },
      {
        "day": "Saturday",
        "hours": "10 AM to 5 PM"
      },
      {
        "day": "Sunday",
        "hours": "Closed"
      }
    ],
    "imageUrl": "https://media.indianluxurycars.com/google/45e738374dcf7450144bc5c23723c1737644462cff4529d5026961487a463323.jpg",
    "url": "https://www.google.com/maps/search/?api=1&query=Kashi%20Pravah&query_place_id=ChIJuR_tJx8vjjkRcwv-X1GPCog"
  },
  {
    "title": "Kashi Tour Package | Best Travel Agency in Varanasi | Varanasi Tour Package | Tempo Traveller in Varanasi | Travel Agent",
    "subTitle": "काशी टूर पैकेज | बेस्ट ट्रैवल एजेंसी इन वाराणसी | वाराणसी टूर पैकेज | टेम्पो ट्रैवलर इन वाराणसी | ट्रैवल एजेंट",
    "categoryName": "Car rental agency",
    "address": "D 48/203, Godowalia, Godowliya-Luxa Rd, Ramapura Luxa, Varanasi, Uttar Pradesh 221001, India",
    "neighborhood": "Ramapura Luxa",
    "street": "D 48/203, Godowalia, Godowliya-Luxa Rd",
    "city": "Varanasi",
    "postalCode": "221001",
    "state": "Uttar Pradesh",
    "countryCode": "IN",
    "website": "https://kashitourpackages.online/",
    "phone": "+917460838988",
    "phoneUnformatted": "+917460838988",
    "location": {
      "lat": 25.3099014,
      "lng": 83.0064788
    },
    "totalScore": 4.9,
    "permanentlyClosed": false,
    "temporarilyClosed": false,
    "placeId": "ChIJazB7jNQvjjkRUkqSJopEr8Y",
    "categories": [
      "Car rental agency",
      "Airport shuttle service",
      "Car leasing service",
      "Taxi service",
      "Minibus taxi service",
      "Tour agency",
      "Tour operator"
    ],
    "reviewsCount": 112,
    "imagesCount": 132,
    "openingHours": [],
    "imageUrl": "https://media.indianluxurycars.com/google/1c74d200a8c029206025e32e1a89ae9c6424c917baf78934eb2164cd376d1797.jpg",
    "url": "https://www.google.com/maps/search/?api=1&query=Kashi%20Tour%20Package%20%7C%20Best%20Travel%20Agency%20in%20Varanasi%20%7C%20Varanasi%20Tour%20Package%20%7C%20Tempo%20Traveller%20in%20Varanasi%20%7C%20Travel%20Agent&query_place_id=ChIJazB7jNQvjjkRUkqSJopEr8Y"
  },
  {
    "title": "Khushi Taxi Service - Varanasi Taxi Service & Tempo Traveller in Varanasi",
    "subTitle": "खुशी टैक्सी सर्विस - वाराणसी टैक्सी सर्विस & टेम्पो ट्रैवलर इन वाराणसी",
    "categoryName": "Car leasing service",
    "address": "1, Pandeypur, Varanasi, Uttar Pradesh 221002, India",
    "neighborhood": "Pandeypur",
    "street": "1",
    "city": "Varanasi",
    "postalCode": "221002",
    "state": "Uttar Pradesh",
    "countryCode": "IN",
    "website": "https://khushitaxi.com/",
    "phone": "+919140138103",
    "phoneUnformatted": "+919140138103",
    "location": {
      "lat": 25.3630596,
      "lng": 82.996394
    },
    "totalScore": 5,
    "permanentlyClosed": false,
    "temporarilyClosed": false,
    "placeId": "ChIJkSgpj0gvjjkRu58rpEfah2A",
    "categories": [
      "Car leasing service",
      "Taxi service",
      "Minibus taxi service",
      "Travel agency"
    ],
    "reviewsCount": 4,
    "imagesCount": 4,
    "openingHours": [],
    "imageUrl": "https://media.indianluxurycars.com/google/5ff3b2ad5778cfa1e7c2927e78b1b84602c83337dfc35477bd4916dcd8a6731f.jpg",
    "url": "https://www.google.com/maps/search/?api=1&query=Khushi%20Taxi%20Service%20-%20Varanasi%20Taxi%20Service%20%26%20Tempo%20Traveller%20in%20Varanasi&query_place_id=ChIJkSgpj0gvjjkRu58rpEfah2A"
  },
  {
    "title": "Khushi Taxi service || Taxi Service in Varanasi",
    "subTitle": "खुशी टैक्सी सर्विस || टैक्सी सर्विस इन वाराणसी",
    "categoryName": "Car dealer",
    "address": "SA 5/46 M - 10, Sanjay Nagar Colony, Ramrepur, Paharia, Sarnath, Varanasi, Uttar Pradesh 221007, India",
    "neighborhood": "Ramrepur, Akatha, Sarnath",
    "street": "SA 5/46 M - 10, Sanjay Nagar Colony, Ramrepur, Paharia",
    "city": "Varanasi",
    "postalCode": "221007",
    "state": "Uttar Pradesh",
    "countryCode": "IN",
    "website": "https://khushitaxi.com/",
    "phone": "+919140138103",
    "phoneUnformatted": "+919140138103",
    "location": {
      "lat": 25.3582006,
      "lng": 83.0050829
    },
    "totalScore": 5,
    "permanentlyClosed": false,
    "temporarilyClosed": false,
    "placeId": "ChIJq-VBQTM-1aYRjLI2_CPCPuY",
    "categories": [
      "Car dealer",
      "Airport shuttle service",
      "Taxi service",
      "Car leasing service",
      "Car rental agency",
      "Chauffeur service",
      "Minibus taxi service",
      "Transportation service",
      "Travel agency",
      "Van rental agency"
    ],
    "reviewsCount": 137,
    "imagesCount": 112,
    "openingHours": [],
    "imageUrl": "https://media.indianluxurycars.com/google/e23654393164c12a5b862b91b21e955bbe62ff25330e64d2c28d2d6e51c06ece.jpg",
    "url": "https://www.google.com/maps/search/?api=1&query=Khushi%20Taxi%20service%20%7C%7C%20Taxi%20Service%20in%20Varanasi&query_place_id=ChIJq-VBQTM-1aYRjLI2_CPCPuY"
  },
  {
    "title": "Krishna Travels & function booking services",
    "subTitle": "कृष्णा ट्रैवल्स & फंक्शन बुकिंग सर्विसेस",
    "categoryName": "Car leasing service",
    "address": "D 59/103 Q-1-R, near W.H. Smith School, Sigra, Varanasi, Uttar Pradesh 221002, India",
    "neighborhood": "Sigra",
    "street": "D 59/103 Q-1-R, near W.H. Smith School",
    "city": "Varanasi",
    "postalCode": "221002",
    "state": "Uttar Pradesh",
    "countryCode": "IN",
    "website": "https://krishnatravelsvns.com/",
    "phone": "+918318756069",
    "phoneUnformatted": "+918318756069",
    "location": {
      "lat": 25.3089655,
      "lng": 82.9869097
    },
    "totalScore": 4.9,
    "permanentlyClosed": false,
    "temporarilyClosed": false,
    "placeId": "ChIJu0R_wdotjjkR0CP-hogPBVA",
    "categories": [
      "Car leasing service",
      "Bus charter",
      "Minibus taxi service",
      "Motor vehicle dealer",
      "School bus service",
      "Sightseeing tour agency",
      "Taxi service",
      "Tour agency",
      "Tour operator",
      "Travel agency"
    ],
    "reviewsCount": 101,
    "imagesCount": 92,
    "openingHours": [
      {
        "day": "Monday",
        "hours": "10 AM to 8:30 PM"
      },
      {
        "day": "Tuesday",
        "hours": "10 AM to 8:30 PM"
      },
      {
        "day": "Wednesday",
        "hours": "10 AM to 8:30 PM"
      },
      {
        "day": "Thursday",
        "hours": "10 AM to 8:30 PM"
      },
      {
        "day": "Friday",
        "hours": "10 AM to 8:30 PM"
      },
      {
        "day": "Saturday",
        "hours": "10 AM to 8:30 PM"
      },
      {
        "day": "Sunday",
        "hours": "Closed"
      }
    ],
    "imageUrl": "https://media.indianluxurycars.com/google/d8919e5f04f9a16b354e66f5acda2b0e5d59b70f31572a67003c61706a2d1662.jpg",
    "url": "https://www.google.com/maps/search/?api=1&query=Krishna%20Travels%20%26%20function%20booking%20services&query_place_id=ChIJu0R_wdotjjkR0CP-hogPBVA"
  },
  {
    "title": "Luxury Car Renta",
    "subTitle": "लक्जरी कार रेंटा",
    "categoryName": "Car leasing service",
    "address": "B-7, Andhrapul, Nadesar, Chetganj, Varanasi, Uttar Pradesh 221002, India",
    "neighborhood": "Andhrapul, Nadesar, Chetganj",
    "street": "B-7",
    "city": "Varanasi",
    "postalCode": "221002",
    "state": "Uttar Pradesh",
    "countryCode": "IN",
    "location": {
      "lat": 25.318505,
      "lng": 82.9900328
    },
    "permanentlyClosed": false,
    "temporarilyClosed": false,
    "placeId": "ChIJq0XX36ktjjkRWXv-qJm2Sp0",
    "categories": [
      "Car leasing service",
      "Car rental agency",
      "Motor vehicle dealer"
    ],
    "imagesCount": 5,
    "openingHours": [
      {
        "day": "Monday",
        "hours": "9 AM to 10 PM"
      },
      {
        "day": "Tuesday",
        "hours": "9 AM to 10 PM"
      },
      {
        "day": "Wednesday",
        "hours": "9 AM to 10 PM"
      },
      {
        "day": "Thursday",
        "hours": "9 AM to 10 PM"
      },
      {
        "day": "Friday",
        "hours": "9 AM to 10 PM"
      },
      {
        "day": "Saturday",
        "hours": "9 AM to 10 PM"
      },
      {
        "day": "Sunday",
        "hours": "9 AM to 10 PM"
      }
    ],
    "imageUrl": "https://media.indianluxurycars.com/google/c24b80ff8832f3313ec190b4085b7feb2142bc3b06a1b487a1b6b88af5965607.jpg",
    "url": "https://www.google.com/maps/search/?api=1&query=Luxury%20Car%20Renta&query_place_id=ChIJq0XX36ktjjkRWXv-qJm2Sp0"
  },
  {
    "title": "Luxury Car Rental",
    "subTitle": "लक्जरी कार रेंटल",
    "categoryName": "Car rental agency",
    "address": "Hamrautia, Varanasi, Uttar Pradesh 221002, India",
    "neighborhood": "Hamrautia",
    "city": "Varanasi",
    "postalCode": "221002",
    "state": "Uttar Pradesh",
    "countryCode": "IN",
    "location": {
      "lat": 25.3448842,
      "lng": 82.9733073
    },
    "totalScore": 5,
    "permanentlyClosed": false,
    "temporarilyClosed": false,
    "placeId": "ChIJeaVey5ctjjkRcCGI1CxPgJA",
    "categories": [
      "Car rental agency"
    ],
    "reviewsCount": 1,
    "imagesCount": 14,
    "openingHours": [
      {
        "day": "Monday",
        "hours": "Open 24 hours"
      },
      {
        "day": "Tuesday",
        "hours": "Open 24 hours"
      },
      {
        "day": "Wednesday",
        "hours": "Open 24 hours"
      },
      {
        "day": "Thursday",
        "hours": "Open 24 hours"
      },
      {
        "day": "Friday",
        "hours": "Open 24 hours"
      },
      {
        "day": "Saturday",
        "hours": "Open 24 hours"
      },
      {
        "day": "Sunday",
        "hours": "Open 24 hours"
      }
    ],
    "imageUrl": "https://media.indianluxurycars.com/google/2195974a4623d0402f2d7b4cf2a42f66d8f5a0e85504c1fbc37e64a8c40c472c.jpg",
    "url": "https://www.google.com/maps/search/?api=1&query=Luxury%20Car%20Rental&query_place_id=ChIJeaVey5ctjjkRcCGI1CxPgJA"
  },
  {
    "title": "Luxury Wheels by S.S",
    "subTitle": "लक्जरी व्हील्स बाय से.से",
    "categoryName": "Car leasing service",
    "address": "Maldhaiya crossing, Fatman Rd, Varanasi, Uttar Pradesh 221002, India",
    "neighborhood": "Maldahiya, Chetganj",
    "street": "Maldhaiya crossing, Fatman Rd",
    "city": "Varanasi",
    "postalCode": "221002",
    "state": "Uttar Pradesh",
    "countryCode": "IN",
    "phone": "+919554905625",
    "phoneUnformatted": "+919554905625",
    "location": {
      "lat": 25.3245466,
      "lng": 82.9924449
    },
    "totalScore": 5,
    "permanentlyClosed": false,
    "temporarilyClosed": false,
    "placeId": "ChIJcZ9FnhAtjjkRM30ppeTm15Q",
    "categories": [
      "Car leasing service"
    ],
    "reviewsCount": 11,
    "imagesCount": 1,
    "openingHours": [
      {
        "day": "Monday",
        "hours": "Open 24 hours"
      },
      {
        "day": "Tuesday",
        "hours": "Open 24 hours"
      },
      {
        "day": "Wednesday",
        "hours": "Open 24 hours"
      },
      {
        "day": "Thursday",
        "hours": "Open 24 hours"
      },
      {
        "day": "Friday",
        "hours": "Open 24 hours"
      },
      {
        "day": "Saturday",
        "hours": "Open 24 hours"
      },
      {
        "day": "Sunday",
        "hours": "Open 24 hours"
      }
    ],
    "imageUrl": "https://media.indianluxurycars.com/google/5510feacc840be4cd83faf34c2f4571859e641cba0783bd63a0c650cf1d4f2c2.jpg",
    "url": "https://www.google.com/maps/search/?api=1&query=Luxury%20Wheels%20by%20S.S&query_place_id=ChIJcZ9FnhAtjjkRM30ppeTm15Q"
  },
  {
    "title": "Mahadev Travels - Best Taxi Booking Service | Top Car Rental Service Agency | One Way Taxi Provider From Varanasi to Ayodhya",
    "subTitle": "महादेव ट्रैवल्स - बेस्ट टैक्सी बुकिंग सर्विस | टॉप कार रेंटल सर्विस एजेंसी | वन वे टैक्सी प्रोवाइडर फ्रॉम वाराणसी तो अयोध्या",
    "categoryName": "Car leasing service",
    "address": "B22/412, near Daha chauk, Kashmiri Ganj, Khojwan, Bhelupur, Varanasi, Uttar Pradesh 221005, India",
    "neighborhood": "Kashmiri Ganj, Khojwan, Bhelupur",
    "street": "B22/412, near Daha chauk",
    "city": "Varanasi",
    "postalCode": "221005",
    "state": "Uttar Pradesh",
    "countryCode": "IN",
    "website": "https://mahadev-travels.in/",
    "phone": "+919451271348",
    "phoneUnformatted": "+919451271348",
    "location": {
      "lat": 25.2948188,
      "lng": 82.9950862
    },
    "totalScore": 5,
    "permanentlyClosed": false,
    "temporarilyClosed": false,
    "placeId": "ChIJg7JzlqwxjjkRhohCx9eB36s",
    "categories": [
      "Car leasing service",
      "Travel agency",
      "Taxi service"
    ],
    "reviewsCount": 30,
    "imagesCount": 14,
    "openingHours": [
      {
        "day": "Monday",
        "hours": "Open 24 hours"
      },
      {
        "day": "Tuesday",
        "hours": "Open 24 hours"
      },
      {
        "day": "Wednesday",
        "hours": "Open 24 hours"
      },
      {
        "day": "Thursday",
        "hours": "Open 24 hours"
      },
      {
        "day": "Friday",
        "hours": "Open 24 hours"
      },
      {
        "day": "Saturday",
        "hours": "Open 24 hours"
      },
      {
        "day": "Sunday",
        "hours": "Open 24 hours"
      }
    ],
    "imageUrl": "https://media.indianluxurycars.com/google/2f48576895b90ca0cb42ccbbb9500e882cca04abe2a76f89fc4b9992b8ee4b04.jpg",
    "url": "https://www.google.com/maps/search/?api=1&query=Mahadev%20Travels%20-%20Best%20Taxi%20Booking%20Service%20%7C%20Top%20Car%20Rental%20Service%20Agency%20%7C%20One%20Way%20Taxi%20Provider%20From%20Varanasi%20to%20Ayodhya&query_place_id=ChIJg7JzlqwxjjkRhohCx9eB36s"
  },
  {
    "title": "Manik's Tour & Travel | Best Travel Agency in Varanasi | Car Rental | Tour Operator | Airport Taxi | Ayodhya Taxi",
    "subTitle": "माणिक'स टूर & ट्रैवल | बेस्ट ट्रैवल एजेंसी इन वाराणसी | कार रेंटल | टूर ऑपरेटर | एयरपोर्ट टैक्सी | अयोध्या टैक्सी",
    "categoryName": "Car rental agency",
    "address": "D 47/145, Ramapura Luxa, Varanasi, Uttar Pradesh 221010, India",
    "neighborhood": "Ramapura Luxa",
    "street": "D 47/145",
    "city": "Varanasi",
    "postalCode": "221010",
    "state": "Uttar Pradesh",
    "countryCode": "IN",
    "phone": "+919450939968",
    "phoneUnformatted": "+919450939968",
    "location": {
      "lat": 25.308694,
      "lng": 83.003201
    },
    "totalScore": 4.6,
    "permanentlyClosed": false,
    "temporarilyClosed": false,
    "placeId": "ChIJn0itHWEvjjkRQ-zLRLpIOEA",
    "categories": [
      "Car rental agency",
      "Airport shuttle service",
      "Car leasing service",
      "Travel agency",
      "Sightseeing tour agency",
      "Taxi service",
      "Tour agency",
      "Tour operator",
      "Tourist attraction"
    ],
    "reviewsCount": 249,
    "imagesCount": 10855,
    "openingHours": [
      {
        "day": "Monday",
        "hours": "Open 24 hours"
      },
      {
        "day": "Tuesday",
        "hours": "Open 24 hours"
      },
      {
        "day": "Wednesday",
        "hours": "Open 24 hours"
      },
      {
        "day": "Thursday",
        "hours": "Open 24 hours"
      },
      {
        "day": "Friday",
        "hours": "Open 24 hours"
      },
      {
        "day": "Saturday",
        "hours": "Open 24 hours"
      },
      {
        "day": "Sunday",
        "hours": "Open 24 hours"
      }
    ],
    "imageUrl": "https://media.indianluxurycars.com/google/74d7c6962700255d3f6d1d688718fb3f740b1c0e244789b7f83b819fc225351b.jpg",
    "url": "https://www.google.com/maps/search/?api=1&query=Manik's%20Tour%20%26%20Travel%20%7C%20Best%20Travel%20Agency%20in%20Varanasi%20%7C%20Car%20Rental%20%7C%20Tour%20Operator%20%7C%20Airport%20Taxi%20%7C%20Ayodhya%20Taxi&query_place_id=ChIJn0itHWEvjjkRQ-zLRLpIOEA"
  },
  {
    "title": "Muskan Travels : Best Travel Agency in Varanasi",
    "subTitle": "मुस्कान ट्रैवल्स : बेस्ट ट्रैवल एजेंसी इन वाराणसी",
    "categoryName": "Car rental agency",
    "address": "D 37/ 50,51, 52, Girja Ghar Chauraha, Badadev, Sidhgiribagh, Varanasi, Uttar Pradesh 221010, India",
    "neighborhood": "Badadev, Sidhgiribagh",
    "street": "D 37/ 50,51, 52, Girja Ghar Chauraha",
    "city": "Varanasi",
    "postalCode": "221010",
    "state": "Uttar Pradesh",
    "countryCode": "IN",
    "website": "https://muskantravels.online/",
    "phone": "+919235566904",
    "phoneUnformatted": "+919235566904",
    "location": {
      "lat": 25.309555,
      "lng": 83.0054886
    },
    "totalScore": 4.9,
    "permanentlyClosed": false,
    "temporarilyClosed": false,
    "placeId": "ChIJww4twz8vjjkRrVVtMBDWNew",
    "categories": [
      "Car rental agency",
      "Bus tour agency",
      "Car leasing service",
      "Travel agency",
      "Rental car return location",
      "Taxi service",
      "Tour agency",
      "Tour operator",
      "Tourist information center"
    ],
    "reviewsCount": 486,
    "imagesCount": 93,
    "openingHours": [
      {
        "day": "Monday",
        "hours": "Open 24 hours"
      },
      {
        "day": "Tuesday",
        "hours": "Open 24 hours"
      },
      {
        "day": "Wednesday",
        "hours": "Open 24 hours"
      },
      {
        "day": "Thursday",
        "hours": "Open 24 hours"
      },
      {
        "day": "Friday",
        "hours": "Open 24 hours"
      },
      {
        "day": "Saturday",
        "hours": "Open 24 hours"
      },
      {
        "day": "Sunday",
        "hours": "Open 24 hours"
      }
    ],
    "imageUrl": "https://media.indianluxurycars.com/google/a7dd80574116f77189bf90ef54f1f876e770f6dc3a89b70d11f04abf73b8c042.jpg",
    "url": "https://www.google.com/maps/search/?api=1&query=Muskan%20Travels%20%3A%20Best%20Travel%20Agency%20in%20Varanasi&query_place_id=ChIJww4twz8vjjkRrVVtMBDWNew"
  },
  {
    "title": "NAWEGOO - Best Self Drive Car Rental and Taxi Booking",
    "subTitle": "नवेगू - बेस्ट सेल्फ ड्राइव कार रेंटल एंड टैक्सी बुकिंग",
    "categoryName": "Car rental agency",
    "address": "Central Jail Rd, opposite Sunbeam Varuna, Sikraul, Varanasi, Uttar Pradesh 221002, India",
    "neighborhood": "Sikraul",
    "street": "Central Jail Rd, opposite Sunbeam Varuna",
    "city": "Varanasi",
    "postalCode": "221002",
    "state": "Uttar Pradesh",
    "countryCode": "IN",
    "website": "https://www.nawegoo.com/",
    "location": {
      "lat": 25.3470254,
      "lng": 82.9690282
    },
    "totalScore": 5,
    "permanentlyClosed": false,
    "temporarilyClosed": false,
    "placeId": "ChIJq2mLqXMtjjkRLwK7wFMIq9M",
    "categories": [
      "Car rental agency",
      "Taxi service",
      "Travel agency"
    ],
    "reviewsCount": 21,
    "openingHours": [
      {
        "day": "Monday",
        "hours": "Open 24 hours"
      },
      {
        "day": "Tuesday",
        "hours": "Open 24 hours"
      },
      {
        "day": "Wednesday",
        "hours": "Open 24 hours"
      },
      {
        "day": "Thursday",
        "hours": "Open 24 hours"
      },
      {
        "day": "Friday",
        "hours": "Open 24 hours"
      },
      {
        "day": "Saturday",
        "hours": "Open 24 hours"
      },
      {
        "day": "Sunday",
        "hours": "Open 24 hours"
      }
    ],
    "url": "https://www.google.com/maps/search/?api=1&query=NAWEGOO%20-%20Best%20Self%20Drive%20Car%20Rental%20and%20Taxi%20Booking&query_place_id=ChIJq2mLqXMtjjkRLwK7wFMIq9M"
  },
  {
    "title": "New Varanasi Motors Car Sales",
    "subTitle": "न्यू वाराणसी मोटर्स कार सेल्स",
    "categoryName": "Used car dealer",
    "address": "Shop No. S, 15/30, Nadesar Rd, near Petrol Pump, Near Bridge, Ghausabad, Nadesar, Chaukaghat, Varanasi, Uttar Pradesh 221002, India",
    "neighborhood": "Near Bridge, Ghausabad, Nadesar, Chaukaghat",
    "street": "Shop No. S, 15/30, Nadesar Rd, near Petrol Pump",
    "city": "Varanasi",
    "postalCode": "221002",
    "state": "Uttar Pradesh",
    "countryCode": "IN",
    "phone": "+919793524951",
    "phoneUnformatted": "+919793524951",
    "location": {
      "lat": 25.3332443,
      "lng": 82.9948659
    },
    "totalScore": 3.5,
    "permanentlyClosed": false,
    "temporarilyClosed": false,
    "placeId": "ChIJOdKUC3UujjkRagDTjS5usEs",
    "categories": [
      "Used car dealer"
    ],
    "reviewsCount": 66,
    "imagesCount": 15,
    "openingHours": [
      {
        "day": "Monday",
        "hours": "9 AM to 5 PM"
      },
      {
        "day": "Tuesday",
        "hours": "9 AM to 5 PM"
      },
      {
        "day": "Wednesday",
        "hours": "9 AM to 5 PM"
      },
      {
        "day": "Thursday",
        "hours": "9 AM to 5 PM"
      },
      {
        "day": "Friday",
        "hours": "9 AM to 5 PM"
      },
      {
        "day": "Saturday",
        "hours": "9 AM to 5 PM"
      },
      {
        "day": "Sunday",
        "hours": "9 AM to 5 PM"
      }
    ],
    "imageUrl": "https://media.indianluxurycars.com/google/bfcfecd17173f7996ca8310dc13223d27cee51ab8df7c46d2f80cac2b636f776.jpg",
    "url": "https://www.google.com/maps/search/?api=1&query=New%20Varanasi%20Motors%20Car%20Sales&query_place_id=ChIJOdKUC3UujjkRagDTjS5usEs"
  },
  {
    "title": "Nine One Travels : Best Travel Agency in Varanasi-Prayagraj",
    "subTitle": "नाइन वन ट्रैवल्स : बेस्ट ट्रैवल एजेंसी इन वाराणसी-प्रयागराज",
    "categoryName": "Car rental agency",
    "address": "Pwd campus, near varuna pul, Pared Kothi, Vijay Nagar Colony, Chetganj, Varanasi, Uttar Pradesh 221002, India",
    "neighborhood": "Pared Kothi, Vijay Nagar Colony, Chetganj",
    "street": "Pwd campus, near varuna pul",
    "city": "Varanasi",
    "postalCode": "221002",
    "state": "Uttar Pradesh",
    "countryCode": "IN",
    "website": "https://nineonetravels.com/",
    "phone": "+919935985346",
    "phoneUnformatted": "+919935985346",
    "location": {
      "lat": 25.3255845,
      "lng": 82.992501
    },
    "totalScore": 5,
    "permanentlyClosed": false,
    "temporarilyClosed": false,
    "placeId": "ChIJAwEDp5QtjjkR-9x_17rildI",
    "categories": [
      "Car rental agency",
      "Bus tour agency",
      "Car leasing service",
      "Travel agency",
      "Rental car return location",
      "Taxi service",
      "Tour agency",
      "Tour operator"
    ],
    "reviewsCount": 273,
    "imagesCount": 83,
    "openingHours": [
      {
        "day": "Monday",
        "hours": "Open 24 hours"
      },
      {
        "day": "Tuesday",
        "hours": "Open 24 hours"
      },
      {
        "day": "Wednesday",
        "hours": "Open 24 hours"
      },
      {
        "day": "Thursday",
        "hours": "Open 24 hours"
      },
      {
        "day": "Friday",
        "hours": "Open 24 hours"
      },
      {
        "day": "Saturday",
        "hours": "Open 24 hours"
      },
      {
        "day": "Sunday",
        "hours": "Open 24 hours"
      }
    ],
    "imageUrl": "https://media.indianluxurycars.com/google/3387e2c1c2850cf0f7c30eae3ade0f437f9b919f34011659fd0b8b3080d76026.jpg",
    "url": "https://www.google.com/maps/search/?api=1&query=Nine%20One%20Travels%20%3A%20Best%20Travel%20Agency%20in%20Varanasi-Prayagraj&query_place_id=ChIJAwEDp5QtjjkR-9x_17rildI"
  },
  {
    "title": "Open Vintage Car Hire Varanasi",
    "subTitle": "ओपन विंटेज कार हीरे वाराणसी",
    "categoryName": "Car rental agency",
    "address": "Vinayak plaza, Maldahiya Crossing, Fatman Rd, Varanasi, Uttar Pradesh 221002, India",
    "neighborhood": "Maldahiya, Chetganj",
    "street": "Vinayak plaza, Maldahiya Crossing, Fatman Rd",
    "city": "Varanasi",
    "postalCode": "221002",
    "state": "Uttar Pradesh",
    "countryCode": "IN",
    "website": "http://vintagecarvaranasi.com/?utm_source=gmb&utm_medium=referral",
    "phone": "+919599123173",
    "phoneUnformatted": "+919599123173",
    "location": {
      "lat": 25.3243344,
      "lng": 82.9924975
    },
    "totalScore": 5,
    "permanentlyClosed": false,
    "temporarilyClosed": false,
    "placeId": "ChIJ15cBoigtjjkRF1sjPhs2fEs",
    "categories": [
      "Car rental agency"
    ],
    "reviewsCount": 4,
    "imagesCount": 8,
    "openingHours": [
      {
        "day": "Monday",
        "hours": "Open 24 hours"
      },
      {
        "day": "Tuesday",
        "hours": "Open 24 hours"
      },
      {
        "day": "Wednesday",
        "hours": "Open 24 hours"
      },
      {
        "day": "Thursday",
        "hours": "Open 24 hours"
      },
      {
        "day": "Friday",
        "hours": "Open 24 hours"
      },
      {
        "day": "Saturday",
        "hours": "Open 24 hours"
      },
      {
        "day": "Sunday",
        "hours": "Open 24 hours"
      }
    ],
    "imageUrl": "https://media.indianluxurycars.com/google/1521183e99ff0622201345c2b7bf85d573791438247fca31370866ec08d34fbc.jpg",
    "url": "https://www.google.com/maps/search/?api=1&query=Open%20Vintage%20Car%20Hire%20Varanasi&query_place_id=ChIJ15cBoigtjjkRF1sjPhs2fEs"
  },
  {
    "title": "Public Travels Varanasi",
    "subTitle": "पब्लिक ट्रैवल्स वाराणसी",
    "categoryName": "Car rental agency",
    "address": "belwa baba, Om Nagar Colony, phase 2, Danganj, Varanasi, Uttar Pradesh 221007, India",
    "neighborhood": "Om Nagar Colony, phase 2, Danganj",
    "street": "belwa baba",
    "city": "Varanasi",
    "postalCode": "221007",
    "state": "Uttar Pradesh",
    "countryCode": "IN",
    "website": "https://varanasiallcab.com/",
    "phone": "+918577071999",
    "phoneUnformatted": "+918577071999",
    "location": {
      "lat": 25.3756627,
      "lng": 82.9986869
    },
    "totalScore": 4.9,
    "permanentlyClosed": false,
    "temporarilyClosed": false,
    "placeId": "ChIJc33iLrMvjjkRZCFQGXRhJzU",
    "categories": [
      "Car rental agency",
      "Boat rental service",
      "Car leasing service",
      "Hotel",
      "Rental car return location",
      "Taxi service"
    ],
    "reviewsCount": 86,
    "imagesCount": 36,
    "openingHours": [],
    "imageUrl": "https://media.indianluxurycars.com/google/518c1b1f1b9251b5423e1d971399a7a80b16451441e3dd7c887534f34f0d057e.jpg",
    "url": "https://www.google.com/maps/search/?api=1&query=Public%20Travels%20Varanasi&query_place_id=ChIJc33iLrMvjjkRZCFQGXRhJzU"
  },
  {
    "title": "R V Travels - car rental service in varanasi",
    "subTitle": "आर वि ट्रैवल्स - कार रेंटल सर्विस इन वाराणसी",
    "categoryName": "Car leasing service",
    "address": "Phase-1, Paharia Mandi Rd, Ashok Vihar Colony Phase - 2, Pandeypur, Sarnath, Varanasi, Uttar Pradesh 221007, India",
    "neighborhood": "Ashok Vihar Colony Phase - 2, Pandeypur, Sarnath",
    "street": "Phase-1, Paharia Mandi Rd",
    "city": "Varanasi",
    "postalCode": "221007",
    "state": "Uttar Pradesh",
    "countryCode": "IN",
    "website": "https://rvtravelsvaranasi.com/",
    "phone": "+918081221509",
    "phoneUnformatted": "+918081221509",
    "location": {
      "lat": 25.3502039,
      "lng": 83.0048467
    },
    "totalScore": 4.9,
    "permanentlyClosed": false,
    "temporarilyClosed": false,
    "placeId": "ChIJj9kRbQYtjjkRAM_hksWmONg",
    "categories": [
      "Car leasing service",
      "Airport shuttle service",
      "Bus tour agency",
      "Rental car return location",
      "Sightseeing tour agency",
      "Taxi service",
      "Tour operator",
      "Tourist information center",
      "Travel agency"
    ],
    "reviewsCount": 179,
    "imagesCount": 47,
    "openingHours": [
      {
        "day": "Monday",
        "hours": "Open 24 hours"
      },
      {
        "day": "Tuesday",
        "hours": "Open 24 hours"
      },
      {
        "day": "Wednesday",
        "hours": "Open 24 hours"
      },
      {
        "day": "Thursday",
        "hours": "Open 24 hours"
      },
      {
        "day": "Friday",
        "hours": "Open 24 hours"
      },
      {
        "day": "Saturday",
        "hours": "Open 24 hours"
      },
      {
        "day": "Sunday",
        "hours": "Closed"
      }
    ],
    "imageUrl": "https://media.indianluxurycars.com/google/8247386407ff2f2875746e127ffab7596a2c1c00153f73838383b46b6d8d2497.jpg",
    "url": "https://www.google.com/maps/search/?api=1&query=R%20V%20Travels%20-%20car%20rental%20service%20in%20varanasi&query_place_id=ChIJj9kRbQYtjjkRAM_hksWmONg"
  },
  {
    "title": "Royal Car Care (Hydro Dipping, Seat Cover, Xenon Lights, Guards, 7d Mats, etc.)",
    "subTitle": "रॉयल कार की देखभाल",
    "categoryName": "Car accessories store",
    "address": "S 17/79-A, Ghausabad Road, beside Om Sai Mandir, Nadesar, Varanasi, Uttar Pradesh 221002, India",
    "neighborhood": "Nadesar, Chaukaghat",
    "street": "S 17/79-A, Ghausabad Road, beside Om Sai Mandir",
    "city": "Varanasi",
    "postalCode": "221002",
    "state": "Uttar Pradesh",
    "countryCode": "IN",
    "phone": "+919795312345",
    "phoneUnformatted": "+919795312345",
    "location": {
      "lat": 25.3331473,
      "lng": 82.990848
    },
    "totalScore": 4.9,
    "permanentlyClosed": false,
    "temporarilyClosed": false,
    "placeId": "ChIJJ1inCt4tjjkRqWy3xvqwzgI",
    "categories": [
      "Car accessories store",
      "Auto accessories wholesaler",
      "Auto air conditioning service",
      "Auto glass repair service",
      "Auto parts store",
      "Auto restoration service",
      "Car stereo store",
      "Car wash"
    ],
    "reviewsCount": 1182,
    "imagesCount": 649,
    "openingHours": [
      {
        "day": "Monday",
        "hours": "10:30 AM to 8 PM"
      },
      {
        "day": "Tuesday",
        "hours": "10:30 AM to 8 PM"
      },
      {
        "day": "Wednesday",
        "hours": "10:30 AM to 8 PM"
      },
      {
        "day": "Thursday",
        "hours": "10:30 AM to 8 PM"
      },
      {
        "day": "Friday",
        "hours": "10:30 AM to 8 PM"
      },
      {
        "day": "Saturday",
        "hours": "10:30 AM to 8 PM"
      },
      {
        "day": "Sunday",
        "hours": "10:30 AM to 3 PM"
      }
    ],
    "imageUrl": "https://media.indianluxurycars.com/google/3fce17cfb3d668aef4ee076342df5f951be4ce20d10c5dfb3c0b8200053e6b3a.jpg",
    "url": "https://www.google.com/maps/search/?api=1&query=Royal%20Car%20Care%20(Hydro%20Dipping%2C%20Seat%20Cover%2C%20Xenon%20Lights%2C%20Guards%2C%207d%20Mats%2C%20etc.)&query_place_id=ChIJJ1inCt4tjjkRqWy3xvqwzgI"
  },
  {
    "title": "S. R Car Accessories",
    "subTitle": "स. आर कार एसेसरिज",
    "categoryName": "Car stereo store",
    "address": "S18/31, Raja Bazar Rd, in front of nadesar, Nadesar, police chowki, Varanasi, Uttar Pradesh 221002, India",
    "neighborhood": "Nadesar, police chowki",
    "street": "S18/31, Raja Bazar Rd, in front of nadesar",
    "city": "Varanasi",
    "postalCode": "221002",
    "state": "Uttar Pradesh",
    "countryCode": "IN",
    "website": "https://sr-car-accessories.com/",
    "phone": "+918840055478",
    "phoneUnformatted": "+918840055478",
    "location": {
      "lat": 25.3321892,
      "lng": 82.9882168
    },
    "totalScore": 4.7,
    "permanentlyClosed": false,
    "temporarilyClosed": false,
    "placeId": "ChIJ9Sd-MwYtjjkRcy4mGXckd7s",
    "categories": [
      "Car stereo store",
      "Auto auction",
      "Car security system installer"
    ],
    "reviewsCount": 12,
    "imagesCount": 27,
    "openingHours": [
      {
        "day": "Monday",
        "hours": "10:30 AM to 8:30 PM"
      },
      {
        "day": "Tuesday",
        "hours": "10:30 AM to 8:30 PM"
      },
      {
        "day": "Wednesday",
        "hours": "10:30 AM to 8:30 PM"
      },
      {
        "day": "Thursday",
        "hours": "10:30 AM to 8:30 PM"
      },
      {
        "day": "Friday",
        "hours": "10:30 AM to 8:30 PM"
      },
      {
        "day": "Saturday",
        "hours": "10:30 AM to 8:30 PM"
      },
      {
        "day": "Sunday",
        "hours": "10:30 AM to 5 PM"
      }
    ],
    "imageUrl": "https://media.indianluxurycars.com/google/0680853595d454d94bc6eafe136c8ef262dc04f9f4c90d0359e2471a2d1deb38.jpg",
    "url": "https://www.google.com/maps/search/?api=1&query=S.%20R%20Car%20Accessories&query_place_id=ChIJ9Sd-MwYtjjkRcy4mGXckd7s"
  },
  {
    "title": "S.V Old Car Choice - old car dealer in varanasi",
    "subTitle": "स.व ओल्ड कार चॉइस - ओल्ड कार डीलर इन वाराणसी",
    "categoryName": "Used car dealer",
    "address": "DLW Rd, Opposite Krishna Hundai, Lehertara, Shivdaspur, Manduwadih, Varanasi, Uttar Pradesh 221103, India",
    "neighborhood": "Lehertara, Shivdaspur, Manduwadih",
    "street": "DLW Rd, Opposite Krishna Hundai",
    "city": "Varanasi",
    "postalCode": "221103",
    "state": "Uttar Pradesh",
    "countryCode": "IN",
    "website": "https://sites.google.com/view/svoldcarvaranasi/home",
    "phone": "+919415842893",
    "phoneUnformatted": "+919415842893",
    "location": {
      "lat": 25.3101418,
      "lng": 82.9678053
    },
    "totalScore": 4.2,
    "permanentlyClosed": false,
    "temporarilyClosed": false,
    "placeId": "ChIJ78u1v4stjjkRMQevdOClwD8",
    "categories": [
      "Used car dealer"
    ],
    "reviewsCount": 10,
    "imagesCount": 17,
    "openingHours": [
      {
        "day": "Monday",
        "hours": "10 AM to 8 PM"
      },
      {
        "day": "Tuesday",
        "hours": "10 AM to 8 PM"
      },
      {
        "day": "Wednesday",
        "hours": "10 AM to 8 PM"
      },
      {
        "day": "Thursday",
        "hours": "10 AM to 8 PM"
      },
      {
        "day": "Friday",
        "hours": "10 AM to 8 PM"
      },
      {
        "day": "Saturday",
        "hours": "10 AM to 8 PM"
      },
      {
        "day": "Sunday",
        "hours": "Closed"
      }
    ],
    "imageUrl": "https://media.indianluxurycars.com/google/a38451902f1945e777c344ec8e737e3aa7d75dd5aac9774786677c943f340c04.jpg",
    "url": "https://www.google.com/maps/search/?api=1&query=S.V%20Old%20Car%20Choice%20-%20old%20car%20dealer%20in%20varanasi&query_place_id=ChIJ78u1v4stjjkRMQevdOClwD8"
  },
  {
    "title": "Sarv Sharad Vahana Car Bazar",
    "subTitle": "सर्व शारद वाहना कार बाजार",
    "categoryName": "Used car dealer",
    "address": "S14/56, G.T. Road, Andhrapull, Chaukaghat, Varanasi, Uttar Pradesh 221002, India",
    "neighborhood": "Andhrapull, Chaukaghat",
    "street": "S14/56, G.T. Road",
    "city": "Varanasi",
    "postalCode": "221002",
    "state": "Uttar Pradesh",
    "countryCode": "IN",
    "phone": "+919336576395",
    "phoneUnformatted": "+919336576395",
    "location": {
      "lat": 25.3307442,
      "lng": 82.993133
    },
    "totalScore": 4.9,
    "permanentlyClosed": false,
    "temporarilyClosed": false,
    "placeId": "ChIJN3d7VnUujjkREyWv3mJLR-w",
    "categories": [
      "Used car dealer"
    ],
    "reviewsCount": 480,
    "imagesCount": 737,
    "openingHours": [
      {
        "day": "Monday",
        "hours": "10 AM to 8:30 PM"
      },
      {
        "day": "Tuesday",
        "hours": "10 AM to 8:30 PM"
      },
      {
        "day": "Wednesday",
        "hours": "10 AM to 8:30 PM"
      },
      {
        "day": "Thursday",
        "hours": "10 AM to 8:30 PM"
      },
      {
        "day": "Friday",
        "hours": "10:30 AM to 8:30 PM"
      },
      {
        "day": "Saturday",
        "hours": "10 AM to 8:30 PM"
      },
      {
        "day": "Sunday",
        "hours": "9 AM to 8:30 PM"
      }
    ],
    "imageUrl": "https://media.indianluxurycars.com/google/bc75cc01e1363f466401e37684df7e0970d96d9bd69e93860ff1d8b0126ffecf.jpg",
    "url": "https://www.google.com/maps/search/?api=1&query=Sarv%20Sharad%20Vahana%20Car%20Bazar&query_place_id=ChIJN3d7VnUujjkREyWv3mJLR-w"
  },
  {
    "title": "Sharma Car Sales",
    "subTitle": "शर्मा कार सेल्स",
    "categoryName": "Used car dealer",
    "address": "in front of Prakash Petrol Pump Ghaushabad, Near Bridge, Nadesar, Chaukaghat, Varanasi, Uttar Pradesh 221002, India",
    "neighborhood": "Near Bridge, Nadesar, Chaukaghat",
    "street": "in front of Prakash Petrol Pump Ghaushabad",
    "city": "Varanasi",
    "postalCode": "221002",
    "state": "Uttar Pradesh",
    "countryCode": "IN",
    "phone": "+919120119411",
    "phoneUnformatted": "+919120119411",
    "location": {
      "lat": 25.3335479,
      "lng": 82.9950593
    },
    "totalScore": 5,
    "permanentlyClosed": false,
    "temporarilyClosed": false,
    "placeId": "ChIJ9yeJ3kItjjkRvBK796AfUdY",
    "categories": [
      "Used car dealer"
    ],
    "reviewsCount": 15,
    "imagesCount": 44,
    "openingHours": [
      {
        "day": "Monday",
        "hours": "11 AM to 8 PM"
      },
      {
        "day": "Tuesday",
        "hours": "11 AM to 8 PM"
      },
      {
        "day": "Wednesday",
        "hours": "11 AM to 8 PM"
      },
      {
        "day": "Thursday",
        "hours": "11 AM to 8 PM"
      },
      {
        "day": "Friday",
        "hours": "11 AM to 8 PM"
      },
      {
        "day": "Saturday",
        "hours": "10 AM to 7 PM"
      },
      {
        "day": "Sunday",
        "hours": "11 AM to 8 PM"
      }
    ],
    "imageUrl": "https://media.indianluxurycars.com/google/243a011f4e59ccd0dfeabcbaf9bb74d5957e56034252d8e8fb5e014ecbc264de.jpg",
    "url": "https://www.google.com/maps/search/?api=1&query=Sharma%20Car%20Sales&query_place_id=ChIJ9yeJ3kItjjkRvBK796AfUdY"
  },
  {
    "title": "Shree Sacche Sai Taxi Services",
    "subTitle": "श्री सच्चे साई टैक्सी सर्विसेस",
    "categoryName": "Car rental agency",
    "address": "S9/458 Nai Basti Panchkosi Road, Pandeypur, Varanasi, Uttar Pradesh 221002, India",
    "neighborhood": "Near Navodaya Institute, Pandeypur, Paharia",
    "street": "S9/458 Nai Basti Panchkosi Road",
    "city": "Varanasi",
    "postalCode": "221002",
    "state": "Uttar Pradesh",
    "countryCode": "IN",
    "phone": "+919695947556",
    "phoneUnformatted": "+919695947556",
    "location": {
      "lat": 25.3497396,
      "lng": 82.9988433
    },
    "totalScore": 5,
    "permanentlyClosed": false,
    "temporarilyClosed": false,
    "placeId": "ChIJK5WQ5m8vjjkRxLewgHAuHyY",
    "categories": [
      "Car rental agency",
      "Taxi service"
    ],
    "reviewsCount": 268,
    "imagesCount": 7,
    "openingHours": [],
    "imageUrl": "https://media.indianluxurycars.com/google/8522e1873f4bcc9f7f00fe33d7deba03d38f7224965bd3046ec3b4a519416f78.jpg",
    "url": "https://www.google.com/maps/search/?api=1&query=Shree%20Sacche%20Sai%20Taxi%20Services&query_place_id=ChIJK5WQ5m8vjjkRxLewgHAuHyY"
  },
  {
    "title": "Shri Om Sai Tour & Travels",
    "subTitle": "श्री ओम साई टूर & ट्रैवल्स",
    "categoryName": "Car leasing service",
    "address": "B27/96A8A, Lane No 1, Gurudham Colony, Durgakund, Jawahar Nagar Colony, Bhelupur, Varanasi, Uttar Pradesh 221005, India",
    "neighborhood": "Gurudham Colony, Durgakund, Jawahar Nagar Colony, Bhelupur",
    "street": "B27/96A8A, Lane No 1",
    "city": "Varanasi",
    "postalCode": "221005",
    "state": "Uttar Pradesh",
    "countryCode": "IN",
    "phone": "+918957538080",
    "phoneUnformatted": "+918957538080",
    "location": {
      "lat": 25.2920655,
      "lng": 82.9982769
    },
    "totalScore": 5,
    "permanentlyClosed": false,
    "temporarilyClosed": false,
    "placeId": "ChIJm78ZEDQvjjkRO4fz4YXk0zE",
    "categories": [
      "Car leasing service",
      "Car rental agency",
      "Motor vehicle dealer",
      "Taxi service",
      "Travel agency",
      "Van rental agency"
    ],
    "reviewsCount": 163,
    "imagesCount": 28,
    "openingHours": [
      {
        "day": "Monday",
        "hours": "Open 24 hours"
      },
      {
        "day": "Tuesday",
        "hours": "Open 24 hours"
      },
      {
        "day": "Wednesday",
        "hours": "Open 24 hours"
      },
      {
        "day": "Thursday",
        "hours": "Open 24 hours"
      },
      {
        "day": "Friday",
        "hours": "Open 24 hours"
      },
      {
        "day": "Saturday",
        "hours": "Open 24 hours"
      },
      {
        "day": "Sunday",
        "hours": "Open 24 hours"
      }
    ],
    "imageUrl": "https://media.indianluxurycars.com/google/73fb4be1ee77a72a297ed8918d0bc5e967886d44cec6d26988ce540853f075d0.png",
    "url": "https://www.google.com/maps/search/?api=1&query=Shri%20Om%20Sai%20Tour%20%26%20Travels&query_place_id=ChIJm78ZEDQvjjkRO4fz4YXk0zE"
  },
  {
    "title": "Skyline India Travels Pvt. Ltd.",
    "subTitle": "स्काइलाइन इंडिया ट्रैवल्स पीवीटी. एलटीडी.",
    "categoryName": "Car rental agency",
    "address": "1st Floor, Mint House, B2-12, Colony, near by shree Bhandar sweets, Patel Nagar, Nadesar, Chaukaghat, Varanasi, Uttar Pradesh 221002, India",
    "neighborhood": "Patel Nagar, Nadesar, Chaukaghat",
    "street": "1st Floor, Mint House, B2-12, Colony, near by shree Bhandar sweets",
    "city": "Varanasi",
    "postalCode": "221002",
    "state": "Uttar Pradesh",
    "countryCode": "IN",
    "website": "https://skylines.co.in/",
    "phone": "+916307576816",
    "phoneUnformatted": "+916307576816",
    "location": {
      "lat": 25.3348186,
      "lng": 82.986422
    },
    "totalScore": 4.7,
    "permanentlyClosed": false,
    "temporarilyClosed": false,
    "placeId": "ChIJFYS0btwtjjkRs5PNfWJA4kM",
    "categories": [
      "Car rental agency",
      "Airline ticket agency",
      "Boat tour agency",
      "Travel agency",
      "Tour agency",
      "Tour operator",
      "Transportation service",
      "Visa consulting service"
    ],
    "reviewsCount": 351,
    "imagesCount": 233,
    "openingHours": [
      {
        "day": "Monday",
        "hours": "10 AM to 8 PM"
      },
      {
        "day": "Tuesday",
        "hours": "10 AM to 8 PM"
      },
      {
        "day": "Wednesday",
        "hours": "10 AM to 8 PM"
      },
      {
        "day": "Thursday",
        "hours": "10 AM to 8 PM"
      },
      {
        "day": "Friday",
        "hours": "10 AM to 8 PM"
      },
      {
        "day": "Saturday",
        "hours": "10 AM to 8 PM"
      },
      {
        "day": "Sunday",
        "hours": "Closed"
      }
    ],
    "imageUrl": "https://media.indianluxurycars.com/google/ad524eb28ae5cd717373687065b92c704bd1e462fe106d018c8cf1974ece49aa.jpg",
    "url": "https://www.google.com/maps/search/?api=1&query=Skyline%20India%20Travels%20Pvt.%20Ltd.&query_place_id=ChIJFYS0btwtjjkRs5PNfWJA4kM"
  },
  {
    "title": "Sweet Trip Tour and Travel",
    "subTitle": "स्वीट ट्रिप टूर एंड ट्रैवल",
    "categoryName": "Car rental agency",
    "address": "C 21/30, Loha Mandi Rd, Maldahiya, Chetganj, Varanasi, Uttar Pradesh 221001, India",
    "neighborhood": "Maldahiya, Chetganj",
    "street": "C 21/30, Loha Mandi Rd",
    "city": "Varanasi",
    "postalCode": "221001",
    "state": "Uttar Pradesh",
    "countryCode": "IN",
    "website": "https://sweettrip.in/",
    "phone": "+917488736844",
    "phoneUnformatted": "+917488736844",
    "location": {
      "lat": 25.3284949,
      "lng": 82.9943495
    },
    "totalScore": 4.8,
    "permanentlyClosed": false,
    "temporarilyClosed": false,
    "placeId": "ChIJLzHlVPnS5wIRtmrGPG_M-Fk",
    "categories": [
      "Car rental agency",
      "Boat rental service",
      "Boat tour agency",
      "Bus tour agency",
      "Car leasing service",
      "Tour operator",
      "Extended stay hotel",
      "Resort hotel",
      "Taxi service",
      "Van rental agency"
    ],
    "reviewsCount": 122,
    "imagesCount": 34,
    "openingHours": [],
    "imageUrl": "https://media.indianluxurycars.com/google/e423392fe010c6d51a1adf326f309b22f26bd9e13a595d91cf15a0d6181a83cf.jpg",
    "url": "https://www.google.com/maps/search/?api=1&query=Sweet%20Trip%20Tour%20and%20Travel&query_place_id=ChIJLzHlVPnS5wIRtmrGPG_M-Fk"
  },
  {
    "title": "Taxi Services Varanasi",
    "subTitle": "टैक्सी सर्विसेस वाराणसी",
    "categoryName": "Car rental agency",
    "address": "S17/222-A, Patel Nagar, Nadesar, Chaukaghat, Varanasi, Uttar Pradesh 221002, India",
    "neighborhood": "Patel Nagar, Nadesar, Chaukaghat",
    "street": "S17/222-A",
    "city": "Varanasi",
    "postalCode": "221002",
    "state": "Uttar Pradesh",
    "countryCode": "IN",
    "website": "https://taxiservicesvaranasi.com/",
    "location": {
      "lat": 25.3331806,
      "lng": 82.9865817
    },
    "totalScore": 5,
    "permanentlyClosed": false,
    "temporarilyClosed": false,
    "placeId": "ChIJ99NEK3wtjjkR6_BR3lZlqck",
    "categories": [
      "Car rental agency",
      "Car leasing service",
      "Taxi service",
      "Hotel",
      "Tour operator",
      "Travel agency"
    ],
    "reviewsCount": 122,
    "imagesCount": 33,
    "openingHours": [],
    "imageUrl": "https://media.indianluxurycars.com/google/423dae219675f776f1a219e3b58edddf4cfc5e147fa4d332b302fda2a6b16196.jpg",
    "url": "https://www.google.com/maps/search/?api=1&query=Taxi%20Services%20Varanasi&query_place_id=ChIJ99NEK3wtjjkR6_BR3lZlqck"
  },
  {
    "title": "Travel Assistance - Best Travel Agency in Varanasi",
    "subTitle": "ट्रैवल असिस्टेंस - बेस्ट ट्रैवल एजेंसी इन वाराणसी",
    "categoryName": "Car leasing service",
    "address": "73/5, Victory Bridge, opp. UP motors Cantt, Varuna Bridge, Nadesar, Varanasi cantonment, Varanasi, Uttar Pradesh 221002, India",
    "neighborhood": "Varuna Bridge, Nadesar, Varanasi cantonment",
    "street": "73/5, Victory Bridge, opp. UP motors Cantt",
    "city": "Varanasi",
    "postalCode": "221002",
    "state": "Uttar Pradesh",
    "countryCode": "IN",
    "website": "http://indiatravelassistance.com/",
    "phone": "+918004924031",
    "phoneUnformatted": "+918004924031",
    "location": {
      "lat": 25.338479,
      "lng": 82.9822232
    },
    "totalScore": 5,
    "permanentlyClosed": false,
    "temporarilyClosed": false,
    "placeId": "ChIJLYFh08QtjjkRskrno7cDp5Y",
    "categories": [
      "Car leasing service",
      "Boat tour agency",
      "Bus tour agency",
      "Travel agency",
      "Tour agency",
      "Tour operator"
    ],
    "reviewsCount": 29,
    "imagesCount": 32,
    "openingHours": [
      {
        "day": "Monday",
        "hours": "9 AM to 7 PM"
      },
      {
        "day": "Tuesday",
        "hours": "9 AM to 7 PM"
      },
      {
        "day": "Wednesday",
        "hours": "9 AM to 7 PM"
      },
      {
        "day": "Thursday",
        "hours": "9 AM to 7 PM"
      },
      {
        "day": "Friday",
        "hours": "9 AM to 7 PM"
      },
      {
        "day": "Saturday",
        "hours": "9 AM to 7 PM"
      },
      {
        "day": "Sunday",
        "hours": "9 AM to 7 PM"
      }
    ],
    "imageUrl": "https://media.indianluxurycars.com/google/82657155c6ed8c36ac973cde7c5a6da714f7e2107bc14a239a89d9c7f97122e3.jpg",
    "url": "https://www.google.com/maps/search/?api=1&query=Travel%20Assistance%20-%20Best%20Travel%20Agency%20in%20Varanasi&query_place_id=ChIJLYFh08QtjjkRskrno7cDp5Y"
  },
  {
    "title": "Trimurti Tours & Travels | Best Travel Agency in Varanasi | Best Taxi Service in Varanasi | Car Rental | Tour Operator |",
    "subTitle": "त्रिमूर्ति टूर्स & ट्रैवल्स | बेस्ट ट्रैवल एजेंसी इन वाराणसी | बेस्ट टैक्सी सर्विस इन वाराणसी | कार रेंटल | टूर ऑपरेटर |",
    "categoryName": "Car leasing service",
    "address": "S 20/51 -3 Nepali Kothi, Near, Varuna Bridge, Nadesar,, Varanasi, Uttar Pradesh 221002, India",
    "neighborhood": "Varanasi cantonment",
    "street": "S 20/51 -3 Nepali Kothi, Near, Varuna Bridge, Nadesar,",
    "city": "Varanasi",
    "postalCode": "221002",
    "state": "Uttar Pradesh",
    "countryCode": "IN",
    "website": "https://trimurtitoursandtaxi.com/",
    "phone": "+916390665511",
    "phoneUnformatted": "+916390665511",
    "location": {
      "lat": 25.339089,
      "lng": 82.980355
    },
    "totalScore": 4.6,
    "permanentlyClosed": false,
    "temporarilyClosed": false,
    "placeId": "ChIJ2094kt4tjjkRSXCyIQqJbJc",
    "categories": [
      "Car leasing service",
      "Taxi service",
      "Tour agency",
      "Travel agency"
    ],
    "reviewsCount": 66,
    "imagesCount": 102,
    "openingHours": [],
    "imageUrl": "https://media.indianluxurycars.com/google/f03ad56bac954b25714eae0db7fd74c0e92765e63bae6564c2e4bddd59f9e41f.jpg",
    "url": "https://www.google.com/maps/search/?api=1&query=Trimurti%20Tours%20%26%20Travels%20%7C%20Best%20Travel%20Agency%20in%20Varanasi%20%7C%20Best%20Taxi%20Service%20in%20Varanasi%20%7C%20Car%20Rental%20%7C%20Tour%20Operator%20%7C&query_place_id=ChIJ2094kt4tjjkRSXCyIQqJbJc"
  },
  {
    "title": "TripCosmos.co",
    "subTitle": "ट्रिप कॉसमॉस",
    "categoryName": "Car leasing service",
    "address": "Building No 542/2, Garhwa Ghat Rd, near new Madhu Bahar, Ghats of Varanasi, Shivala, Varanasi, Uttar Pradesh 221001, India",
    "neighborhood": "Ghats of Varanasi, Shivala",
    "street": "Building No 542/2, Garhwa Ghat Rd, near new Madhu Bahar",
    "city": "Varanasi",
    "postalCode": "221001",
    "state": "Uttar Pradesh",
    "countryCode": "IN",
    "website": "https://tripcosmos.co/",
    "phone": "+919336116210",
    "phoneUnformatted": "+919336116210",
    "location": {
      "lat": 25.2959474,
      "lng": 83.0071313
    },
    "totalScore": 4.6,
    "permanentlyClosed": false,
    "temporarilyClosed": false,
    "placeId": "ChIJxz8mIe0xjjkR6X1UNomlGc4",
    "categories": [
      "Car leasing service",
      "Boat tour agency",
      "Travel agency",
      "Sightseeing tour agency",
      "Taxi service",
      "Tour agency",
      "Tour operator"
    ],
    "reviewsCount": 48,
    "imagesCount": 282,
    "openingHours": [
      {
        "day": "Monday",
        "hours": "Open 24 hours"
      },
      {
        "day": "Tuesday",
        "hours": "Open 24 hours"
      },
      {
        "day": "Wednesday",
        "hours": "Open 24 hours"
      },
      {
        "day": "Thursday",
        "hours": "Open 24 hours"
      },
      {
        "day": "Friday",
        "hours": "Open 24 hours"
      },
      {
        "day": "Saturday",
        "hours": "Open 24 hours"
      },
      {
        "day": "Sunday",
        "hours": "Open 24 hours"
      }
    ],
    "imageUrl": "https://media.indianluxurycars.com/google/9f94f739efdda3c9171991a9b42b2cb76930ea58b46692995e140d792e1e39e8.png",
    "url": "https://www.google.com/maps/search/?api=1&query=TripCosmos.co&query_place_id=ChIJxz8mIe0xjjkR6X1UNomlGc4"
  },
  {
    "title": "Varanasi Auto Sales LTD",
    "subTitle": "वाराणसी ऑटो सेल्स लिमिटेड",
    "categoryName": "Used car dealer",
    "address": "82P5+HCW, Jaitpura, Varanasi, Uttar Pradesh 221002, India",
    "neighborhood": "Jaitpura",
    "street": "82P5+HCW",
    "city": "Varanasi",
    "postalCode": "221002",
    "state": "Uttar Pradesh",
    "countryCode": "IN",
    "location": {
      "lat": 25.336479,
      "lng": 83.0085765
    },
    "totalScore": 3.7,
    "permanentlyClosed": false,
    "temporarilyClosed": false,
    "placeId": "ChIJzaKsGmwujjkRO45I0xmb2B0",
    "categories": [
      "Used car dealer"
    ],
    "reviewsCount": 15,
    "imagesCount": 5,
    "openingHours": [
      {
        "day": "Monday",
        "hours": "10 AM to 6 PM"
      },
      {
        "day": "Tuesday",
        "hours": "10 AM to 6 PM"
      },
      {
        "day": "Wednesday",
        "hours": "10 AM to 6 PM"
      },
      {
        "day": "Thursday",
        "hours": "10 AM to 6 PM"
      },
      {
        "day": "Friday",
        "hours": "10 AM to 6 PM"
      },
      {
        "day": "Saturday",
        "hours": "10 AM to 6 PM"
      },
      {
        "day": "Sunday",
        "hours": "10 AM to 6 PM"
      }
    ],
    "imageUrl": "https://media.indianluxurycars.com/google/f807ae86d8d4fbb84237e535e5427dbf734194f13a47b4e718dd61129c4e062d.jpg",
    "url": "https://www.google.com/maps/search/?api=1&query=Varanasi%20Auto%20Sales%20LTD&query_place_id=ChIJzaKsGmwujjkRO45I0xmb2B0"
  },
  {
    "title": "Varanasi Ayodhya Travels - Taxi Car Bus Tempo Traveller Tour Operator",
    "subTitle": "वाराणसी अयोध्या ट्रैवल्स - टैक्सी कार बस टेम्पो ट्रैवलर टूर ऑपरेटर",
    "categoryName": "Car leasing service",
    "address": "B4, Mint House Rd, Opp. Taj, Nadesar, Varanasi cantonment, Varanasi, Uttar Pradesh 221002, India",
    "neighborhood": "Opp. Taj, Nadesar, Varanasi cantonment",
    "street": "B4, Mint House Rd",
    "city": "Varanasi",
    "postalCode": "221002",
    "state": "Uttar Pradesh",
    "countryCode": "IN",
    "website": "https://www.travelsvaranasi.com/",
    "phone": "+918188818897",
    "phoneUnformatted": "+918188818897",
    "location": {
      "lat": 25.3356371,
      "lng": 82.9841243
    },
    "totalScore": 5,
    "permanentlyClosed": false,
    "temporarilyClosed": false,
    "placeId": "ChIJ7RGPA08tjjkRfKCOBLE2bXQ",
    "categories": [
      "Car leasing service",
      "Bus company",
      "Bus tour agency",
      "Travel agency",
      "Minibus taxi service",
      "Taxi service",
      "Tour operator",
      "Transportation service",
      "Van rental agency"
    ],
    "reviewsCount": 47,
    "imagesCount": 44,
    "openingHours": [
      {
        "day": "Monday",
        "hours": "Open 24 hours"
      },
      {
        "day": "Tuesday",
        "hours": "Open 24 hours"
      },
      {
        "day": "Wednesday",
        "hours": "Open 24 hours"
      },
      {
        "day": "Thursday",
        "hours": "Open 24 hours"
      },
      {
        "day": "Friday",
        "hours": "Open 24 hours"
      },
      {
        "day": "Saturday",
        "hours": "Open 24 hours"
      },
      {
        "day": "Sunday",
        "hours": "Open 24 hours"
      }
    ],
    "imageUrl": "https://media.indianluxurycars.com/google/63f000e451d3312c8e0b30802075da44e6e66a7ddad38eb47ff67de71f048092.jpg",
    "url": "https://www.google.com/maps/search/?api=1&query=Varanasi%20Ayodhya%20Travels%20-%20Taxi%20Car%20Bus%20Tempo%20Traveller%20Tour%20Operator&query_place_id=ChIJ7RGPA08tjjkRfKCOBLE2bXQ"
  },
  {
    "title": "Varanasi CAB",
    "subTitle": "वाराणसी कैब",
    "categoryName": "Car rental agency",
    "address": "N 13/209 Near Munshi Premchand Park, Brij Enclave Colony, Varanasi, Uttar Pradesh 221001, India",
    "neighborhood": "Yadav Katra, Brij Enclave Colony, Bangali Tola",
    "street": "N 13/209 Near Munshi Premchand Park",
    "city": "Varanasi",
    "postalCode": "221001",
    "state": "Uttar Pradesh",
    "countryCode": "IN",
    "website": "https://www.varanasicab.com/",
    "phone": "+919453788158",
    "phoneUnformatted": "+919453788158",
    "location": {
      "lat": 25.3089824,
      "lng": 83.0070436
    },
    "totalScore": 4.6,
    "permanentlyClosed": false,
    "temporarilyClosed": false,
    "placeId": "ChIJB2iPVhYyjjkRpwNkQlsrJvw",
    "categories": [
      "Car rental agency",
      "Car leasing service",
      "Taxi service"
    ],
    "reviewsCount": 679,
    "imagesCount": 8,
    "openingHours": [],
    "imageUrl": "https://media.indianluxurycars.com/google/b6d2cea584d37a7c6416c3ebe26ddc54d2e9cd32338e87e8cedb91dd6580c109.jpg",
    "url": "https://www.google.com/maps/search/?api=1&query=Varanasi%20CAB&query_place_id=ChIJB2iPVhYyjjkRpwNkQlsrJvw"
  },
  {
    "title": "Varanasi Cars",
    "subTitle": "वाराणसी कार्स",
    "categoryName": "Used car dealer",
    "address": "8X4P+CGX, Rathyatra - Mahmoorganj Rd, Mahmoorganj, Varanasi, Uttar Pradesh 221010, India",
    "neighborhood": "Mahmoorganj",
    "street": "8X4P+CGX, Rathyatra - Mahmoorganj Rd",
    "city": "Varanasi",
    "postalCode": "221010",
    "state": "Uttar Pradesh",
    "countryCode": "IN",
    "location": {
      "lat": 25.3061133,
      "lng": 82.9863581
    },
    "permanentlyClosed": false,
    "temporarilyClosed": false,
    "placeId": "ChIJR_aXZwcyjjkRHJc1U89PgTw",
    "categories": [
      "Used car dealer"
    ],
    "imagesCount": 1,
    "openingHours": [],
    "imageUrl": "https://media.indianluxurycars.com/google/2185a6f8e0d563d256a83b3cc1796ae3285306b7f3683e097d1ee6a026712032.jpg",
    "url": "https://www.google.com/maps/search/?api=1&query=Varanasi%20Cars&query_place_id=ChIJR_aXZwcyjjkRHJc1U89PgTw"
  },
  {
    "title": "Varanasi Taxi Services",
    "subTitle": "वाराणसी टैक्सी सर्विसेस",
    "categoryName": "Car rental agency",
    "address": "SA 5/137 K-R Sanjay Nagar Colony, Ramrepur, Paharia, Varanasi, Uttar Pradesh 221002, India",
    "neighborhood": "Ramrepur, Akatha, Paharia",
    "street": "SA 5/137 K-R Sanjay Nagar Colony",
    "city": "Varanasi",
    "postalCode": "221002",
    "state": "Uttar Pradesh",
    "countryCode": "IN",
    "website": "https://www.varanasitaxiservices.com/",
    "phone": "+918887999562",
    "phoneUnformatted": "+918887999562",
    "location": {
      "lat": 25.3637856,
      "lng": 83.0014057
    },
    "totalScore": 4.8,
    "permanentlyClosed": false,
    "temporarilyClosed": false,
    "placeId": "ChIJJVdkRZovjjkRC_7oDtf7ujQ",
    "categories": [
      "Car rental agency",
      "Airport",
      "Airport shuttle service",
      "Car leasing service",
      "Taxi service",
      "Chauffeur service",
      "Minibus taxi service",
      "Travel agency"
    ],
    "reviewsCount": 744,
    "imagesCount": 634,
    "openingHours": [],
    "imageUrl": "https://media.indianluxurycars.com/google/f1c0d5fb4c50ca6cdc747c320b8d4c28bfcc7d6b4f322de04907d1e7a7218ce8.jpg",
    "url": "https://www.google.com/maps/search/?api=1&query=Varanasi%20Taxi%20Services&query_place_id=ChIJJVdkRZovjjkRC_7oDtf7ujQ"
  },
  {
    "title": "Varanasi Taxis – Book Local & Outstation Cabs",
    "subTitle": "वाराणसी टैक्सी",
    "categoryName": "Car leasing service",
    "address": "Plot No - 40, Sanjay Nagar Colony, Ramrepur, Paharia, Varanasi, Uttar Pradesh 221007, India",
    "neighborhood": "Sanjay Nagar Colony, Ramrepur, Paharia",
    "street": "Plot No - 40",
    "city": "Varanasi",
    "postalCode": "221007",
    "state": "Uttar Pradesh",
    "countryCode": "IN",
    "website": "https://varanasitaxis.in/",
    "phone": "+919140138103",
    "phoneUnformatted": "+919140138103",
    "location": {
      "lat": 25.3629525,
      "lng": 83.0002603
    },
    "totalScore": 4.9,
    "permanentlyClosed": false,
    "temporarilyClosed": false,
    "placeId": "ChIJWaJGegwvjjkRvbDqFCAqnzY",
    "categories": [
      "Car leasing service",
      "Taxi service"
    ],
    "reviewsCount": 77,
    "imagesCount": 78,
    "openingHours": [
      {
        "day": "Monday",
        "hours": "Open 24 hours"
      },
      {
        "day": "Tuesday",
        "hours": "Open 24 hours"
      },
      {
        "day": "Wednesday",
        "hours": "Open 24 hours"
      },
      {
        "day": "Thursday",
        "hours": "Open 24 hours"
      },
      {
        "day": "Friday",
        "hours": "Open 24 hours"
      },
      {
        "day": "Saturday",
        "hours": "Open 24 hours"
      },
      {
        "day": "Sunday",
        "hours": "Open 24 hours"
      }
    ],
    "imageUrl": "https://media.indianluxurycars.com/google/54c914e23fc34f30811a7a09a1cf07372fad62c4f67254af1a5f1827baeb6ca6.jpg",
    "url": "https://www.google.com/maps/search/?api=1&query=Varanasi%20Taxis%20%E2%80%93%20Book%20Local%20%26%20Outstation%20Cabs&query_place_id=ChIJWaJGegwvjjkRvbDqFCAqnzY"
  },
  {
    "title": "Varanasi Tours, Travels & Car Rental Services (IHS Travel)",
    "subTitle": "आईएचएस यात्रा",
    "categoryName": "Car leasing service",
    "address": "SHOP NO 8 C BASEMENT, Opp. Taj, Nadesar, CANTT, Varanasi, Uttar Pradesh 221002, India",
    "neighborhood": "Opp. Taj, Nadesar, CANTT",
    "street": "SHOP NO 8 C BASEMENT",
    "city": "Varanasi",
    "postalCode": "221002",
    "state": "Uttar Pradesh",
    "countryCode": "IN",
    "website": "http://ihsdreamtravels.com/",
    "phone": "+916393111198",
    "phoneUnformatted": "+916393111198",
    "location": {
      "lat": 25.3356261,
      "lng": 82.9838906
    },
    "totalScore": 4.7,
    "permanentlyClosed": false,
    "temporarilyClosed": false,
    "placeId": "ChIJ6Yu9aIAujjkR_U2JEFdUyTs",
    "categories": [
      "Car leasing service",
      "Travel agency"
    ],
    "reviewsCount": 12,
    "imagesCount": 8,
    "openingHours": [
      {
        "day": "Monday",
        "hours": "8 AM to 11 PM"
      },
      {
        "day": "Tuesday",
        "hours": "8 AM to 11 PM"
      },
      {
        "day": "Wednesday",
        "hours": "8 AM to 11 PM"
      },
      {
        "day": "Thursday",
        "hours": "8 AM to 11 PM"
      },
      {
        "day": "Friday",
        "hours": "8 AM to 11 PM"
      },
      {
        "day": "Saturday",
        "hours": "8 AM to 11 PM"
      },
      {
        "day": "Sunday",
        "hours": "8 AM to 11 PM"
      }
    ],
    "imageUrl": "https://media.indianluxurycars.com/google/a383b4c1d77354b9f7f31f61199df1108cb290d8a5cc4a548d6886ef5e771984.png",
    "url": "https://www.google.com/maps/search/?api=1&query=Varanasi%20Tours%2C%20Travels%20%26%20Car%20Rental%20Services%20(IHS%20Travel)&query_place_id=ChIJ6Yu9aIAujjkR_U2JEFdUyTs"
  },
  {
    "title": "Varanasi Yatra Travels, Taxi Service In Varanasi, Tempo Traveler On Hire, Book Taxi For Outstation",
    "subTitle": "वाराणसी यात्रा ट्रैवल्स, टैक्सी सर्विस इन वाराणसी, टेम्पो ट्रैवलर ऑन हीरे, बुक टैक्सी फॉर आउटस्टेशन",
    "categoryName": "Car rental agency",
    "address": "SA 6/165, S V 1 Akatha Pahdiya, Sarnath, Varanasi, Uttar Pradesh 221007, India",
    "neighborhood": "Paharia Chowk, Ganpathi Nagar, Sarnath",
    "street": "SA 6/165, S V 1 Akatha Pahdiya",
    "city": "Varanasi",
    "postalCode": "221007",
    "state": "Uttar Pradesh",
    "countryCode": "IN",
    "website": "http://varanasiyatratravels.com/",
    "phone": "+918853367666",
    "phoneUnformatted": "+918853367666",
    "location": {
      "lat": 25.3561328,
      "lng": 83.0062108
    },
    "totalScore": 4.8,
    "permanentlyClosed": false,
    "temporarilyClosed": false,
    "placeId": "ChIJAWooq-2VICIRYfV5LkniS5s",
    "categories": [
      "Car rental agency"
    ],
    "reviewsCount": 84,
    "imagesCount": 203,
    "openingHours": [
      {
        "day": "Monday",
        "hours": "Open 24 hours"
      },
      {
        "day": "Tuesday",
        "hours": "Open 24 hours"
      },
      {
        "day": "Wednesday",
        "hours": "Open 24 hours"
      },
      {
        "day": "Thursday",
        "hours": "Open 24 hours"
      },
      {
        "day": "Friday",
        "hours": "Open 24 hours"
      },
      {
        "day": "Saturday",
        "hours": "Open 24 hours"
      },
      {
        "day": "Sunday",
        "hours": "Open 24 hours"
      }
    ],
    "imageUrl": "https://media.indianluxurycars.com/google/6ec3362270eaadde36c143a8e1093fad97c262cec87cd60c150fca82afac00dd.jpg",
    "url": "https://www.google.com/maps/search/?api=1&query=Varanasi%20Yatra%20Travels%2C%20Taxi%20Service%20In%20Varanasi%2C%20Tempo%20Traveler%20On%20Hire%2C%20Book%20Taxi%20For%20Outstation&query_place_id=ChIJAWooq-2VICIRYfV5LkniS5s"
  },
  {
    "title": "Viamytrip - Travel Agency Varanasi",
    "subTitle": "विएमाइट्रिप - ट्रैवल एजेंसी वाराणसी",
    "categoryName": "Car leasing service",
    "address": "D57/48, Aurangabad Siddhgiri bagh Road, Uttar Pradesh 221010, India",
    "neighborhood": "Giri Nagar Colony",
    "street": "D57/48, Aurangabad Siddhgiri bagh Road",
    "city": "Varanasi",
    "postalCode": "221010",
    "state": "Uttar Pradesh",
    "countryCode": "IN",
    "website": "http://www.viamytrip.com/",
    "phone": "+919582917617",
    "phoneUnformatted": "+919582917617",
    "location": {
      "lat": 25.3036473,
      "lng": 82.9850994
    },
    "totalScore": 4.8,
    "permanentlyClosed": false,
    "temporarilyClosed": false,
    "placeId": "ChIJ_____wYyjjkRyARQf7dDsBQ",
    "categories": [
      "Car leasing service",
      "Airport shuttle service",
      "Travel agency",
      "Sightseeing tour agency",
      "Taxi service",
      "Tour operator",
      "Train ticket agency"
    ],
    "reviewsCount": 24,
    "imagesCount": 278,
    "openingHours": [],
    "imageUrl": "https://media.indianluxurycars.com/google/b333d4d7b08a56fc5eae4c32b4d4daa9eb669ddde7c90818febfdef6d58c4ff4.jpg",
    "url": "https://www.google.com/maps/search/?api=1&query=Viamytrip%20-%20Travel%20Agency%20Varanasi&query_place_id=ChIJ_____wYyjjkRyARQf7dDsBQ"
  },
  {
    "title": "Vidhan Travels - Car Rental & Tempo Traveller in Varanasi",
    "subTitle": "विधान ट्रैवल्स",
    "categoryName": "Car rental agency",
    "address": "D65/460, opposite Police Booth, near Ksheer Sagar Sweet Shop, Lahartara Boulia, Bazardiha, Chauraha, Varanasi, Uttar Pradesh 221002, India",
    "neighborhood": "Lahartara Boulia, Bazardiha, Chauraha",
    "street": "D65/460, opposite Police Booth, near Ksheer Sagar Sweet Shop",
    "city": "Varanasi",
    "postalCode": "221002",
    "state": "Uttar Pradesh",
    "countryCode": "IN",
    "website": "https://www.vidhantravels.com/",
    "phone": "+919650867077",
    "phoneUnformatted": "+919650867077",
    "location": {
      "lat": 25.3161723,
      "lng": 82.9676456
    },
    "totalScore": 4.4,
    "permanentlyClosed": false,
    "temporarilyClosed": false,
    "placeId": "ChIJq6qq6vItjjkRV_hSgwPqjDI",
    "categories": [
      "Car rental agency",
      "Airport shuttle service",
      "Bus company",
      "Bus tour agency",
      "Car leasing service",
      "Minibus taxi service",
      "Sightseeing tour agency",
      "Taxi service",
      "Travel agency",
      "Van rental agency"
    ],
    "reviewsCount": 1027,
    "imagesCount": 417,
    "openingHours": [
      {
        "day": "Monday",
        "hours": "Open 24 hours"
      },
      {
        "day": "Tuesday",
        "hours": "Open 24 hours"
      },
      {
        "day": "Wednesday",
        "hours": "Open 24 hours"
      },
      {
        "day": "Thursday",
        "hours": "Open 24 hours"
      },
      {
        "day": "Friday",
        "hours": "Open 24 hours"
      },
      {
        "day": "Saturday",
        "hours": "Open 24 hours"
      },
      {
        "day": "Sunday",
        "hours": "Open 24 hours"
      }
    ],
    "imageUrl": "https://media.indianluxurycars.com/google/0601c2f518094868940aef98a259d837222e9aa7cf124c0bec9a1def1b80bd6c.jpg",
    "url": "https://www.google.com/maps/search/?api=1&query=Vidhan%20Travels%20-%20Car%20Rental%20%26%20Tempo%20Traveller%20in%20Varanasi&query_place_id=ChIJq6qq6vItjjkRV_hSgwPqjDI"
  },
  {
    "title": "Vikas Travels",
    "subTitle": "विकास ट्रैवल्स",
    "categoryName": "Car rental agency",
    "address": "Sa6/148 B, behind Survi Hotel, Near Surabhi Hotel, Sri Nagar Colony, Paharia, Varanasi, Uttar Pradesh 221007, India",
    "neighborhood": "Near Surabhi Hotel, Sri Nagar Colony, Paharia",
    "street": "Sa6/148 B, behind Survi Hotel",
    "city": "Varanasi",
    "postalCode": "221007",
    "state": "Uttar Pradesh",
    "countryCode": "IN",
    "website": "https://vikastravels.in/",
    "phone": "+918601434445",
    "phoneUnformatted": "+918601434445",
    "location": {
      "lat": 25.3569864,
      "lng": 83.008263
    },
    "totalScore": 4.6,
    "permanentlyClosed": false,
    "temporarilyClosed": false,
    "placeId": "ChIJdytwqzgvjjkRPDujMEQZbLs",
    "categories": [
      "Car rental agency",
      "Airport",
      "Cabin rental agency",
      "Car leasing service",
      "Taxi service",
      "Sightseeing tour agency",
      "Tour operator",
      "Travel agency"
    ],
    "reviewsCount": 57,
    "imagesCount": 85,
    "openingHours": [],
    "imageUrl": "https://media.indianluxurycars.com/google/fc51d607421431367e26efc7d93ef3bbeaa72f7f959577280cee2de1592e5316.jpg",
    "url": "https://www.google.com/maps/search/?api=1&query=Vikas%20Travels&query_place_id=ChIJdytwqzgvjjkRPDujMEQZbLs"
  }
]
