[
  {
    "title": "Aman Self Drive Car Rentals",
    "categoryName": "Car rental agency",
    "address": "23-13-16, Tadanki Vari Street, G.S.Raju Rd, Satyaranayana Puram, Vijayawada, Andhra Pradesh 520011, India",
    "neighborhood": "Satyaranayana Puram",
    "street": "23-13-16, Tadanki Vari Street, G.S.Raju Rd",
    "city": "Vijayawada",
    "postalCode": "520011",
    "state": "Andhra Pradesh",
    "countryCode": "IN",
    "website": "http://www.amanselfdrivecars.com/",
    "phone": "+919581378999",
    "phoneUnformatted": "+919581378999",
    "location": {
      "lat": 16.5215002,
      "lng": 80.6305272
    },
    "totalScore": 5,
    "permanentlyClosed": false,
    "temporarilyClosed": false,
    "placeId": "ChIJ92s8wYXvNToR6GZIJ02HLtk",
    "categories": [
      "Car rental agency"
    ],
    "reviewsCount": 24,
    "imagesCount": 14,
    "openingHours": [
      {
        "day": "Monday",
        "hours": "6 AM to 9 PM"
      },
      {
        "day": "Tuesday",
        "hours": "6 AM to 9 PM"
      },
      {
        "day": "Wednesday",
        "hours": "6 AM to 9 PM"
      },
      {
        "day": "Thursday",
        "hours": "6 AM to 9 PM"
      },
      {
        "day": "Friday",
        "hours": "6 AM to 9 PM"
      },
      {
        "day": "Saturday",
        "hours": "6 AM to 9 PM"
      },
      {
        "day": "Sunday",
        "hours": "6 AM to 9 PM"
      }
    ],
    "imageUrl": "https://media.indianluxurycars.com/google/180c76ad2c0235803d6e5130507a4a0c9b40ff5d1af2b810e184bf964d78bc93.jpg",
    "url": "https://www.google.com/maps/search/?api=1&query=Aman%20Self%20Drive%20Car%20Rentals&query_place_id=ChIJ92s8wYXvNToR6GZIJ02HLtk"
  },
  {
    "title": "Amaravati taxi service -Vijayawada to Hyderabad cab",
    "categoryName": "Car leasing service",
    "address": "Jyothi convention, beside benz Circle, Patamatalanka, Benz Circle, Vijayawada, Andhra Pradesh 520010, India",
    "neighborhood": "Patamatalanka, Benz Circle",
    "street": "Jyothi convention, beside benz Circle",
    "city": "Vijayawada",
    "postalCode": "520010",
    "state": "Andhra Pradesh",
    "countryCode": "IN",
    "website": "https://amaravatitaxiservice.com/",
    "phone": "+919063733386",
    "phoneUnformatted": "+919063733386",
    "location": {
      "lat": 16.495662,
      "lng": 80.654202
    },
    "totalScore": 4.9,
    "permanentlyClosed": false,
    "temporarilyClosed": false,
    "placeId": "ChIJ1yEzf3flNToRIGu21UYfdtU",
    "categories": [
      "Car leasing service",
      "Airport",
      "Airport shuttle service",
      "Bus tour agency",
      "International airport",
      "Minibus taxi service",
      "Taxi service",
      "Tour agency",
      "Tour operator",
      "Travel agency"
    ],
    "reviewsCount": 30,
    "imagesCount": 68,
    "openingHours": [
      {
        "day": "Monday",
        "hours": "Open 24 hours"
      },
      {
        "day": "Tuesday",
        "hours": "Open 24 hours"
      },
      {
        "day": "Wednesday",
        "hours": "Open 24 hours"
      },
      {
        "day": "Thursday",
        "hours": "Open 24 hours"
      },
      {
        "day": "Friday",
        "hours": "Open 24 hours"
      },
      {
        "day": "Saturday",
        "hours": "Open 24 hours"
      },
      {
        "day": "Sunday",
        "hours": "Open 24 hours"
      }
    ],
    "imageUrl": "https://media.indianluxurycars.com/google/d7ed5422b4d832ff607ea1fba251d69e5cab850ebc0a8c0febb28787fedb62a2.jpg",
    "url": "https://www.google.com/maps/search/?api=1&query=Amaravati%20taxi%20service%20-Vijayawada%20to%20Hyderabad%20cab&query_place_id=ChIJ1yEzf3flNToRIGu21UYfdtU"
  },
  {
    "title": "ANU car wash || ANU cars vijayawada || ANU cars || bike wash || ANU car detailing || water servicing point",
    "categoryName": "Car wash",
    "address": "Seetannapeta gate, 23-11/1-21,B.R.T.S road, G.S.Raju Rd, opp. to Palagani prabhakar statue, beside vijayawada self drive cars, Vijayawada, Andhra Pradesh 520003, India",
    "neighborhood": "Gandhi Nagar",
    "street": "Seetannapeta gate, 23-11/1-21,B.R.T.S road, G.S.Raju Rd, opp. to Palagani prabhakar statue, beside vijayawada self drive cars",
    "city": "Vijayawada",
    "postalCode": "520003",
    "state": "Andhra Pradesh",
    "countryCode": "IN",
    "website": "http://www.anucarwash.co.in/",
    "phone": "+919127430043",
    "phoneUnformatted": "+919127430043",
    "location": {
      "lat": 16.5205506,
      "lng": 80.6294783
    },
    "totalScore": 4.8,
    "permanentlyClosed": false,
    "temporarilyClosed": false,
    "placeId": "ChIJrTy7cD_vNToRWlmr1tMFbK8",
    "categories": [
      "Car wash",
      "Bike wash",
      "Chauffeur service",
      "Cleaners",
      "Pressure washing service",
      "Self service car wash"
    ],
    "reviewsCount": 419,
    "imagesCount": 665,
    "openingHours": [
      {
        "day": "Monday",
        "hours": "5:30 AM to 10 PM"
      },
      {
        "day": "Tuesday",
        "hours": "5:30 AM to 10 PM"
      },
      {
        "day": "Wednesday",
        "hours": "5:30 AM to 10 PM"
      },
      {
        "day": "Thursday",
        "hours": "5:30 AM to 10 PM"
      },
      {
        "day": "Friday",
        "hours": "5:30 AM to 10 PM"
      },
      {
        "day": "Saturday",
        "hours": "5:30 AM to 10 PM"
      },
      {
        "day": "Sunday",
        "hours": "8 AM to 4 PM"
      }
    ],
    "imageUrl": "https://media.indianluxurycars.com/google/9091e6df73a93ee5c8629240d3cf4a9088fbc4f224777aeeae6ccdf04a94c13d.jpg",
    "url": "https://www.google.com/maps/search/?api=1&query=ANU%20car%20wash%20%7C%7C%20ANU%20cars%20vijayawada%20%7C%7C%20ANU%20cars%20%7C%7C%20bike%20wash%20%7C%7C%20ANU%20car%20detailing%20%7C%7C%20water%20servicing%20point&query_place_id=ChIJrTy7cD_vNToRWlmr1tMFbK8"
  },
  {
    "title": "APEX TRAVEL SERVICES",
    "categoryName": "Car rental agency",
    "address": "D.No: 58-3-19/A, Achemma Street, Old P&T Colony, Patamata, Vijayawada, Andhra Pradesh 520010, India",
    "neighborhood": "Old P&T Colony, Patamata",
    "street": "D.No: 58-3-19/A, Achemma Street",
    "city": "Vijayawada",
    "postalCode": "520010",
    "state": "Andhra Pradesh",
    "countryCode": "IN",
    "website": "https://www.apextravelservices.com/",
    "phone": "+919494125029",
    "phoneUnformatted": "+919494125029",
    "location": {
      "lat": 16.4986029,
      "lng": 80.6601443
    },
    "totalScore": 4.9,
    "permanentlyClosed": false,
    "temporarilyClosed": false,
    "placeId": "ChIJCTW6K7P7NToR-rBEaf7NSQQ",
    "categories": [
      "Car rental agency",
      "Insurance agency",
      "Train ticket agency"
    ],
    "reviewsCount": 17,
    "imagesCount": 17,
    "openingHours": [
      {
        "day": "Monday",
        "hours": "Open 24 hours"
      },
      {
        "day": "Tuesday",
        "hours": "Open 24 hours"
      },
      {
        "day": "Wednesday",
        "hours": "Open 24 hours"
      },
      {
        "day": "Thursday",
        "hours": "Open 24 hours"
      },
      {
        "day": "Friday",
        "hours": "Open 24 hours"
      },
      {
        "day": "Saturday",
        "hours": "Open 24 hours"
      },
      {
        "day": "Sunday",
        "hours": "8 AM to 1 PM"
      }
    ],
    "imageUrl": "https://media.indianluxurycars.com/google/473cc92c358fdd92c9c8909a5bd7e958178bdf600fb10813c39fdbbdaa00b5b2.jpg",
    "url": "https://www.google.com/maps/search/?api=1&query=APEX%20TRAVEL%20SERVICES&query_place_id=ChIJCTW6K7P7NToR-rBEaf7NSQQ"
  },
  {
    "title": "Bajaj Motorcycles (Varun Motors, Bhavanipuram, Vijayawada)",
    "categoryName": "Motorcycle dealer",
    "address": "GHFV+WXV Bank Center, 76-9-1, beside KTM Showroom, Bhavanipuram, V D Puram, Vijayawada, Andhra Pradesh 520012, India",
    "neighborhood": "Bhavanipuram, V D Puram",
    "street": "GHFV+WXV Bank Center, 76-9-1, beside KTM Showroom",
    "city": "Vijayawada",
    "postalCode": "520012",
    "state": "Andhra Pradesh",
    "countryCode": "IN",
    "website": "https://www.varunbajaj.com/",
    "phone": "+919885180307",
    "phoneUnformatted": "+919885180307",
    "location": {
      "lat": 16.5248863,
      "lng": 80.5949255
    },
    "totalScore": 4.8,
    "permanentlyClosed": false,
    "temporarilyClosed": false,
    "placeId": "ChIJn2RkGw7vNToRpnDi_e_MIU0",
    "categories": [
      "Motorcycle dealer",
      "Motor scooter dealer",
      "Motor scooter repair shop",
      "Motor vehicle dealer",
      "Motorcycle insurance agency",
      "Motorcycle parts store",
      "Motorcycle shop"
    ],
    "reviewsCount": 1272,
    "imagesCount": 46,
    "openingHours": [
      {
        "day": "Monday",
        "hours": "9 AM to 7:30 PM"
      },
      {
        "day": "Tuesday",
        "hours": "9 AM to 7:30 PM"
      },
      {
        "day": "Wednesday",
        "hours": "9 AM to 7:30 PM"
      },
      {
        "day": "Thursday",
        "hours": "9 AM to 7:30 PM"
      },
      {
        "day": "Friday",
        "hours": "9 AM to 7:30 PM"
      },
      {
        "day": "Saturday",
        "hours": "9 AM to 7:30 PM"
      },
      {
        "day": "Sunday",
        "hours": "Closed"
      }
    ],
    "imageUrl": "https://media.indianluxurycars.com/google/d63fd9c8779bbf96689a14e552ec46c85c9d3904e8d2dd11b5926c300f7ba390.jpg",
    "url": "https://www.google.com/maps/search/?api=1&query=Bajaj%20Motorcycles%20(Varun%20Motors%2C%20Bhavanipuram%2C%20Vijayawada)&query_place_id=ChIJn2RkGw7vNToRpnDi_e_MIU0"
  },
  {
    "title": "Bezawada Cars",
    "categoryName": "Used car dealer",
    "address": "Vellanki Ram Mohanrao St, SBI Colony 1, Siddhartha Nagar, 4th Main Rd, Vijayawada, Andhra Pradesh 520010, India",
    "neighborhood": "SBI Colony 1, Siddhartha Nagar, 4th Main Road",
    "street": "Vellanki Ram Mohanrao St",
    "city": "Vijayawada",
    "postalCode": "520010",
    "state": "Andhra Pradesh",
    "countryCode": "IN",
    "phone": "+919118911919",
    "phoneUnformatted": "+919118911919",
    "location": {
      "lat": 16.5057964,
      "lng": 80.6516654
    },
    "totalScore": 4.2,
    "permanentlyClosed": false,
    "temporarilyClosed": false,
    "placeId": "ChIJ90POpzz7NToRO3HpAppf3E4",
    "categories": [
      "Used car dealer"
    ],
    "reviewsCount": 10,
    "imagesCount": 17,
    "openingHours": [
      {
        "day": "Monday",
        "hours": "10 AM to 8 PM"
      },
      {
        "day": "Tuesday",
        "hours": "10 AM to 8 PM"
      },
      {
        "day": "Wednesday",
        "hours": "10 AM to 8 PM"
      },
      {
        "day": "Thursday",
        "hours": "10 AM to 8 PM"
      },
      {
        "day": "Friday",
        "hours": "10 AM to 8 PM"
      },
      {
        "day": "Saturday",
        "hours": "10 AM to 8 PM"
      },
      {
        "day": "Sunday",
        "hours": "10 AM to 8 PM"
      }
    ],
    "imageUrl": "https://media.indianluxurycars.com/google/81bd3b4490b34085c46e2864890d0ad53ba98ed50ea75eb590cc490e04f63500.jpg",
    "url": "https://www.google.com/maps/search/?api=1&query=Bezawada%20Cars&query_place_id=ChIJ90POpzz7NToRO3HpAppf3E4"
  },
  {
    "title": "Bezawada Self Drive Cars | Car Travels | Self Drive Cars in Vijayawada",
    "categoryName": "Car rental agency",
    "address": "Sundaraiyah nagar Vijayawada Urban, Andhra Pradesh 520010, India",
    "neighborhood": "Acharya Ranga Nagar",
    "street": "Sundaraiyah nagar Vijayawada Urban",
    "city": "Vijayawada",
    "postalCode": "520010",
    "state": "Andhra Pradesh",
    "countryCode": "IN",
    "phone": "+918919747879",
    "phoneUnformatted": "+918919747879",
    "location": {
      "lat": 16.5013812,
      "lng": 80.6495298
    },
    "totalScore": 4.8,
    "permanentlyClosed": false,
    "temporarilyClosed": false,
    "placeId": "ChIJybxgzhr7NToRWabiTJ_g5JE",
    "categories": [
      "Car rental agency",
      "Car leasing service"
    ],
    "reviewsCount": 53,
    "imagesCount": 25,
    "openingHours": [
      {
        "day": "Monday",
        "hours": "Open 24 hours"
      },
      {
        "day": "Tuesday",
        "hours": "Open 24 hours"
      },
      {
        "day": "Wednesday",
        "hours": "Open 24 hours"
      },
      {
        "day": "Thursday",
        "hours": "Open 24 hours"
      },
      {
        "day": "Friday",
        "hours": "Open 24 hours"
      },
      {
        "day": "Saturday",
        "hours": "Open 24 hours"
      },
      {
        "day": "Sunday",
        "hours": "Open 24 hours"
      }
    ],
    "imageUrl": "https://media.indianluxurycars.com/google/717c64849ed8eaaf366416db1a610ffdc5d7909cb0a72b48d5e90db96e0a8cbf.jpg",
    "url": "https://www.google.com/maps/search/?api=1&query=Bezawada%20Self%20Drive%20Cars%20%7C%20Car%20Travels%20%7C%20Self%20Drive%20Cars%20in%20Vijayawada&query_place_id=ChIJybxgzhr7NToRWabiTJ_g5JE"
  },
  {
    "title": "Capital Car Travels",
    "subTitle": "కాపిటల్ కార్ ట్రావెల్స్",
    "categoryName": "Car rental agency",
    "address": "VKS RESIDENCY, Rajith Bhargav St, Ramalingeswara Nagar, Vijayawada, Andhra Pradesh 520013, India",
    "neighborhood": "Ramalingeswara Nagar",
    "street": "VKS RESIDENCY, Rajith Bhargav St",
    "city": "Vijayawada",
    "postalCode": "520013",
    "state": "Andhra Pradesh",
    "countryCode": "IN",
    "phone": "+919246666446",
    "phoneUnformatted": "+919246666446",
    "location": {
      "lat": 16.4882833,
      "lng": 80.653687
    },
    "totalScore": 4.9,
    "permanentlyClosed": false,
    "temporarilyClosed": false,
    "placeId": "ChIJozkGSrz6NToRTOat9Ev1a1g",
    "categories": [
      "Car rental agency"
    ],
    "reviewsCount": 28,
    "imagesCount": 3,
    "openingHours": [
      {
        "day": "Monday",
        "hours": "Open 24 hours"
      },
      {
        "day": "Tuesday",
        "hours": "Open 24 hours"
      },
      {
        "day": "Wednesday",
        "hours": "Open 24 hours"
      },
      {
        "day": "Thursday",
        "hours": "Open 24 hours"
      },
      {
        "day": "Friday",
        "hours": "Open 24 hours"
      },
      {
        "day": "Saturday",
        "hours": "Open 24 hours"
      },
      {
        "day": "Sunday",
        "hours": "Open 24 hours"
      }
    ],
    "imageUrl": "https://media.indianluxurycars.com/google/3d691fffe58d30982f31e27d53861da50a89824a6896c5969feebbed00742d6f.jpg",
    "url": "https://www.google.com/maps/search/?api=1&query=Capital%20Car%20Travels&query_place_id=ChIJozkGSrz6NToRTOat9Ev1a1g"
  },
  {
    "title": "Car Kingdom (Car Accessories)",
    "subTitle": "కారు కింగ్డమ్ (కారు యాక్సెసరీస్)",
    "categoryName": "Car accessories store",
    "address": "Polyclinic Rd, Kedareswarapeta, Siddhartha Nagar, Benz Circle, Vijayawada, Andhra Pradesh 520010, India",
    "neighborhood": "Kedareswarapeta, Siddhartha Nagar, Benz Circle",
    "street": "Polyclinic Rd",
    "city": "Vijayawada",
    "postalCode": "520010",
    "state": "Andhra Pradesh",
    "countryCode": "IN",
    "phone": "+919000474444",
    "phoneUnformatted": "+919000474444",
    "location": {
      "lat": 16.5038389,
      "lng": 80.6499431
    },
    "totalScore": 4.6,
    "permanentlyClosed": false,
    "temporarilyClosed": false,
    "placeId": "ChIJoYaCseX7NToRFNmUOF2utN8",
    "categories": [
      "Car accessories store"
    ],
    "reviewsCount": 1074,
    "imagesCount": 419,
    "openingHours": [
      {
        "day": "Monday",
        "hours": "10:30 AM to 8:30 PM"
      },
      {
        "day": "Tuesday",
        "hours": "10 AM to 8:30 PM"
      },
      {
        "day": "Wednesday",
        "hours": "10 AM to 8:30 PM"
      },
      {
        "day": "Thursday",
        "hours": "10 AM to 8:30 PM"
      },
      {
        "day": "Friday",
        "hours": "10 AM to 8:30 PM"
      },
      {
        "day": "Saturday",
        "hours": "10 AM to 8:30 PM"
      },
      {
        "day": "Sunday",
        "hours": "10:30 AM to 4:30 PM"
      }
    ],
    "imageUrl": "https://media.indianluxurycars.com/google/a2424a45b0f1dbc5180c32bbea2949345da3f61ff9aa7bf63a0fb47fcca80494.jpg",
    "url": "https://www.google.com/maps/search/?api=1&query=Car%20Kingdom%20(Car%20Accessories)&query_place_id=ChIJoYaCseX7NToRFNmUOF2utN8"
  },
  {
    "title": "Chanti Cars",
    "subTitle": "చంటి కార్స్",
    "categoryName": "Used car dealer",
    "address": "Ratnamamba St, opp. SBI Bank, beside k.k hospital, Mogalrajapuram, Mogalrajpuram, Christurajupuram, Vijayawada, Andhra Pradesh 520010, India",
    "neighborhood": "Mogalrajapuram, Mogalrajpuram, Christurajupuram",
    "street": "Ratnamamba St, opp. SBI Bank, beside k.k hospital",
    "city": "Vijayawada",
    "postalCode": "520010",
    "state": "Andhra Pradesh",
    "countryCode": "IN",
    "website": "https://chanticars.com/",
    "phone": "+919866447090",
    "phoneUnformatted": "+919866447090",
    "location": {
      "lat": 16.509342,
      "lng": 80.6421384
    },
    "totalScore": 3.7,
    "permanentlyClosed": false,
    "temporarilyClosed": false,
    "placeId": "ChIJ06Lsva36NToRnYhM-DfRVcI",
    "categories": [
      "Used car dealer",
      "Car dealer"
    ],
    "reviewsCount": 290,
    "imagesCount": 88,
    "openingHours": [
      {
        "day": "Monday",
        "hours": "10 AM to 8 PM"
      },
      {
        "day": "Tuesday",
        "hours": "10 AM to 8 PM"
      },
      {
        "day": "Wednesday",
        "hours": "10 AM to 8 PM"
      },
      {
        "day": "Thursday",
        "hours": "10 AM to 8 PM"
      },
      {
        "day": "Friday",
        "hours": "10 AM to 8 PM"
      },
      {
        "day": "Saturday",
        "hours": "10 AM to 8 PM"
      },
      {
        "day": "Sunday",
        "hours": "10 AM to 1 PM"
      }
    ],
    "imageUrl": "https://media.indianluxurycars.com/google/14fa6442b4439f756d136a84942857ebfeae15462ff1c0f50eda4bb6f3ca5355.jpg",
    "url": "https://www.google.com/maps/search/?api=1&query=Chanti%20Cars&query_place_id=ChIJ06Lsva36NToRnYhM-DfRVcI"
  },
  {
    "title": "Deepshika Car Travels vijayawada",
    "categoryName": "Car rental agency",
    "address": "Door No: 40-2-28 RAGHURAMAYA STREET, BHAGYA APARTMENT MOGALRAJPURAM , VIJAYAWADA EAST, Vijayawada, Andhra Pradesh 520010, India",
    "neighborhood": "Mogalrajapuram, Sidhartha Nagar, Labbipet",
    "street": "Door No: 40-2-28 RAGHURAMAYA STREET, BHAGYA APARTMENT MOGALRAJPURAM , VIJAYAWADA EAST",
    "city": "Vijayawada",
    "postalCode": "520010",
    "state": "Andhra Pradesh",
    "countryCode": "IN",
    "website": "http://deepshikatravels.com/",
    "phone": "+918317569175",
    "phoneUnformatted": "+918317569175",
    "location": {
      "lat": 16.5028592,
      "lng": 80.6453364
    },
    "totalScore": 4.9,
    "permanentlyClosed": false,
    "temporarilyClosed": false,
    "placeId": "ChIJ0cMDIa7lNToRqYkFg0eydos",
    "categories": [
      "Car rental agency",
      "Car leasing service",
      "Taxi service"
    ],
    "reviewsCount": 763,
    "imagesCount": 160,
    "openingHours": [],
    "imageUrl": "https://media.indianluxurycars.com/google/ff98984e32d2209e8af197f656ed9fc5daa6945e696e0ca6beeee9ae5342eaac.jpg",
    "url": "https://www.google.com/maps/search/?api=1&query=Deepshika%20Car%20Travels%20vijayawada&query_place_id=ChIJ0cMDIa7lNToRqYkFg0eydos"
  },
  {
    "title": "Eicher Trucks and Buses - Ramcor, Vijayawada, Seetharampuram",
    "categoryName": "Truck dealer",
    "address": "Eluru Rd, Seetharampuram, Machavaram, Vijayawada, Andhra Pradesh 520002, India",
    "neighborhood": "Seetharampuram, Machavaram",
    "street": "Eluru Rd",
    "city": "Vijayawada",
    "postalCode": "520002",
    "state": "Andhra Pradesh",
    "countryCode": "IN",
    "website": "https://www.eichertrucksandbuses.com/?utm_source=gmb&utm_medium=google&utm_campaign=seo-local",
    "phone": "+919701000590",
    "phoneUnformatted": "+919701000590",
    "location": {
      "lat": 16.5192868,
      "lng": 80.6517445
    },
    "totalScore": 3.4,
    "permanentlyClosed": false,
    "temporarilyClosed": false,
    "placeId": "ChIJ__E0z-nlNToRpe5VB9bPDtU",
    "categories": [
      "Truck dealer",
      "Motor vehicle dealer",
      "Truck parts supplier",
      "Truck repair shop"
    ],
    "reviewsCount": 10,
    "imagesCount": 4,
    "openingHours": [
      {
        "day": "Monday",
        "hours": "9 AM to 6:30 PM"
      },
      {
        "day": "Tuesday",
        "hours": "9 AM to 6:30 PM"
      },
      {
        "day": "Wednesday",
        "hours": "9 AM to 6:30 PM"
      },
      {
        "day": "Thursday",
        "hours": "9 AM to 6:30 PM"
      },
      {
        "day": "Friday",
        "hours": "9 AM to 6:30 PM"
      },
      {
        "day": "Saturday",
        "hours": "9 AM to 6:30 PM"
      },
      {
        "day": "Sunday",
        "hours": "9 AM to 6:30 PM"
      }
    ],
    "imageUrl": "https://media.indianluxurycars.com/google/f1cc2f3acffbc5c6123b6ce03fb95485e2d6ca23218fbbeb7ec82ea0fc954749.jpg",
    "url": "https://www.google.com/maps/search/?api=1&query=Eicher%20Trucks%20and%20Buses%20-%20Ramcor%2C%20Vijayawada%2C%20Seetharampuram&query_place_id=ChIJ__E0z-nlNToRpe5VB9bPDtU"
  },
  {
    "title": "GoGo Taxi Service Vijayawada | Best Cabs in Vijayawada | Car hire in Vijayawada | Car Rental in Vijayawada | On Time Service",
    "categoryName": "Car rental agency",
    "address": "Shop No.52, Station Rd, Kothapet, Vinchipeta, Vijayawada, Andhra Pradesh 520003, India",
    "neighborhood": "Kothapet, Vinchipeta",
    "street": "Shop No.52, Station Rd",
    "city": "Vijayawada",
    "postalCode": "520003",
    "state": "Andhra Pradesh",
    "countryCode": "IN",
    "website": "https://gogotaxivijayawada.blogspot.com/",
    "phone": "+918008444541",
    "phoneUnformatted": "+918008444541",
    "location": {
      "lat": 16.5146278,
      "lng": 80.6228095
    },
    "totalScore": 4.6,
    "permanentlyClosed": false,
    "temporarilyClosed": false,
    "placeId": "ChIJ5WjafI3vNToRanUcfSOQMgI",
    "categories": [
      "Car rental agency",
      "Car leasing service",
      "Taxi service",
      "Minibus taxi service",
      "Tour agency",
      "Tour operator",
      "Travel agency"
    ],
    "reviewsCount": 10,
    "imagesCount": 34,
    "openingHours": [],
    "imageUrl": "https://media.indianluxurycars.com/google/3767804e4eb69c60400a77439281f04b89dbdfd612d03f758112ac27b3bda6f9.jpg",
    "url": "https://www.google.com/maps/search/?api=1&query=GoGo%20Taxi%20Service%20Vijayawada%20%7C%20Best%20Cabs%20in%20Vijayawada%20%7C%20Car%20hire%20in%20Vijayawada%20%7C%20Car%20Rental%20in%20Vijayawada%20%7C%20On%20Time%20Service&query_place_id=ChIJ5WjafI3vNToRanUcfSOQMgI"
  },
  {
    "title": "Good Morning Car Travels",
    "subTitle": "గుడ్ మార్నింగ్ కారు ట్రావెల్స్",
    "categoryName": "Car rental agency",
    "address": "GJ9F+JWC, Gandhi Nagar, Vijayawada, Andhra Pradesh 520003, India",
    "neighborhood": "Gandhi Nagar",
    "street": "GJ9F+JWC",
    "city": "Vijayawada",
    "postalCode": "520003",
    "state": "Andhra Pradesh",
    "countryCode": "IN",
    "location": {
      "lat": 16.519069,
      "lng": 80.6247543
    },
    "totalScore": 5,
    "permanentlyClosed": false,
    "temporarilyClosed": false,
    "placeId": "ChIJxbCCm_vvNToRLU-DIBfTNUQ",
    "categories": [
      "Car rental agency"
    ],
    "reviewsCount": 2,
    "imagesCount": 3,
    "openingHours": [],
    "imageUrl": "https://media.indianluxurycars.com/google/c9cead3a21b6309435d0e71e7568958254d6775848b306ce4df375fe6c0902c3.jpg",
    "url": "https://www.google.com/maps/search/?api=1&query=Good%20Morning%20Car%20Travels&query_place_id=ChIJxbCCm_vvNToRLU-DIBfTNUQ"
  },
  {
    "title": "Janu Car Travels - Car Rentals in Vijayawada",
    "categoryName": "Car rental agency",
    "address": "Patamatalanka, Benz Circle, Vijayawada, Andhra Pradesh 520010, India",
    "neighborhood": "Patamatalanka, Benz Circle",
    "city": "Vijayawada",
    "postalCode": "520010",
    "state": "Andhra Pradesh",
    "countryCode": "IN",
    "website": "http://www.janucartravelsvijayawada.com/",
    "phone": "+918500444556",
    "phoneUnformatted": "+918500444556",
    "location": {
      "lat": 16.4956621,
      "lng": 80.6542015
    },
    "totalScore": 5,
    "permanentlyClosed": false,
    "temporarilyClosed": false,
    "placeId": "ChIJAR7Ofy77NToRXGcF3sbBd9w",
    "categories": [
      "Car rental agency",
      "Car leasing service",
      "Taxi service",
      "Travel agency"
    ],
    "reviewsCount": 107,
    "imagesCount": 5,
    "openingHours": [
      {
        "day": "Monday",
        "hours": "Open 24 hours"
      },
      {
        "day": "Tuesday",
        "hours": "Open 24 hours"
      },
      {
        "day": "Wednesday",
        "hours": "Open 24 hours"
      },
      {
        "day": "Thursday",
        "hours": "Open 24 hours"
      },
      {
        "day": "Friday",
        "hours": "Open 24 hours"
      },
      {
        "day": "Saturday",
        "hours": "Open 24 hours"
      },
      {
        "day": "Sunday",
        "hours": "Open 24 hours"
      }
    ],
    "imageUrl": "https://media.indianluxurycars.com/google/e7c33e34c259226d8b35d9fab8d54a5f3a717fccb36e3604c96e5f743ac2945f.jpg",
    "url": "https://www.google.com/maps/search/?api=1&query=Janu%20Car%20Travels%20-%20Car%20Rentals%20in%20Vijayawada&query_place_id=ChIJAR7Ofy77NToRXGcF3sbBd9w"
  },
  {
    "title": "Jk Car Travels Vijayawada",
    "categoryName": "Car rental agency",
    "address": "59-8-6, PV Rao Rd, Gayatri Nagar, Krishna Nagar, Gayathri nagar, Vijayawada, Andhra Pradesh 520008, India",
    "neighborhood": "Gayatri Nagar, Krishna Nagar, Gayathri nagar",
    "street": "59-8-6, PV Rao Rd",
    "city": "Vijayawada",
    "postalCode": "520008",
    "state": "Andhra Pradesh",
    "countryCode": "IN",
    "phone": "+919966819385",
    "phoneUnformatted": "+919966819385",
    "location": {
      "lat": 16.5028555,
      "lng": 80.6555422
    },
    "totalScore": 5,
    "permanentlyClosed": false,
    "temporarilyClosed": false,
    "placeId": "ChIJw1HnoTP7NToRlsiq6K3XMJw",
    "categories": [
      "Car rental agency"
    ],
    "reviewsCount": 267,
    "imagesCount": 366,
    "openingHours": [
      {
        "day": "Monday",
        "hours": "Open 24 hours"
      },
      {
        "day": "Tuesday",
        "hours": "Open 24 hours"
      },
      {
        "day": "Wednesday",
        "hours": "Open 24 hours"
      },
      {
        "day": "Thursday",
        "hours": "Open 24 hours"
      },
      {
        "day": "Friday",
        "hours": "Open 24 hours"
      },
      {
        "day": "Saturday",
        "hours": "Open 24 hours"
      },
      {
        "day": "Sunday",
        "hours": "Open 24 hours"
      }
    ],
    "imageUrl": "https://media.indianluxurycars.com/google/347c67d7e23149b5577d039c6e37c68cd4a202fb8773419de037140ebbc70191.jpg",
    "url": "https://www.google.com/maps/search/?api=1&query=Jk%20Car%20Travels%20Vijayawada&query_place_id=ChIJw1HnoTP7NToRlsiq6K3XMJw"
  },
  {
    "title": "Lemon Tree Car Travels",
    "categoryName": "Car leasing service",
    "address": "Police Station, near Bus Stand, beside Krishnalanka, Krishnalanka, Vijayawada, Andhra Pradesh 520013, India",
    "neighborhood": "Krishnalanka",
    "street": "Police Station, near Bus Stand, beside Krishnalanka",
    "city": "Vijayawada",
    "postalCode": "520013",
    "state": "Andhra Pradesh",
    "countryCode": "IN",
    "website": "https://lemontreecartravels.com/gallery/",
    "phone": "+916301849338",
    "phoneUnformatted": "+916301849338",
    "location": {
      "lat": 16.5092167,
      "lng": 80.6185375
    },
    "totalScore": 5,
    "permanentlyClosed": false,
    "temporarilyClosed": false,
    "placeId": "ChIJB5WIol5IjyEReV9CUcTqoL0",
    "categories": [
      "Car leasing service"
    ],
    "reviewsCount": 20,
    "imagesCount": 9,
    "openingHours": [
      {
        "day": "Monday",
        "hours": "Open 24 hours"
      },
      {
        "day": "Tuesday",
        "hours": "Open 24 hours"
      },
      {
        "day": "Wednesday",
        "hours": "Open 24 hours"
      },
      {
        "day": "Thursday",
        "hours": "Open 24 hours"
      },
      {
        "day": "Friday",
        "hours": "Open 24 hours"
      },
      {
        "day": "Saturday",
        "hours": "Open 24 hours"
      },
      {
        "day": "Sunday",
        "hours": "Open 24 hours"
      }
    ],
    "imageUrl": "https://media.indianluxurycars.com/google/aa35981e4e129bcb18a48e22d65839af06bff578e1124877238cd3a6adec39a5.jpg",
    "url": "https://www.google.com/maps/search/?api=1&query=Lemon%20Tree%20Car%20Travels&query_place_id=ChIJB5WIol5IjyEReV9CUcTqoL0"
  },
  {
    "title": "Lokesh Car Travels (Ankem Cabs)",
    "categoryName": "Car rental agency",
    "address": "3rd Cross Rd, Municipal Employees Colony, Acharya Ranga Nagar, Vijayawada, Andhra Pradesh 520010, India",
    "neighborhood": "Municipal Employees Colony, Acharya Ranga Nagar",
    "street": "3rd Cross Rd",
    "city": "Vijayawada",
    "postalCode": "520010",
    "state": "Andhra Pradesh",
    "countryCode": "IN",
    "phone": "+919440532722",
    "phoneUnformatted": "+919440532722",
    "location": {
      "lat": 16.5016256,
      "lng": 80.651946
    },
    "totalScore": 4.9,
    "permanentlyClosed": false,
    "temporarilyClosed": false,
    "placeId": "ChIJAeVThbv7NToRBpfgn5K2Mts",
    "categories": [
      "Car rental agency",
      "Car leasing service",
      "Taxi service"
    ],
    "reviewsCount": 31,
    "imagesCount": 17,
    "openingHours": [],
    "imageUrl": "https://media.indianluxurycars.com/google/8638471f9609d21c1b21ee9358b45ec416f1fd93690c8deba1fd5f600c173f50.jpg",
    "url": "https://www.google.com/maps/search/?api=1&query=Lokesh%20Car%20Travels%20(Ankem%20Cabs)&query_place_id=ChIJAeVThbv7NToRBpfgn5K2Mts"
  },
  {
    "title": "Lucky Cars",
    "subTitle": "Lucky cars",
    "categoryName": "Used car dealer",
    "address": "Mogalrajapuram, Sidhartha Nagar, Labbipet, Vijayawada, Andhra Pradesh 520010, India",
    "neighborhood": "Mogalrajapuram, Sidhartha Nagar, Labbipet",
    "city": "Vijayawada",
    "postalCode": "520010",
    "state": "Andhra Pradesh",
    "countryCode": "IN",
    "phone": "+919949972786",
    "phoneUnformatted": "+919949972786",
    "location": {
      "lat": 16.5059108,
      "lng": 80.6459452
    },
    "totalScore": 4.9,
    "permanentlyClosed": false,
    "temporarilyClosed": false,
    "placeId": "ChIJhQOGNi7lNToRUcHG6ck-7sk",
    "categories": [
      "Used car dealer"
    ],
    "reviewsCount": 400,
    "imagesCount": 52,
    "openingHours": [
      {
        "day": "Monday",
        "hours": "9 AM to 9 PM"
      },
      {
        "day": "Tuesday",
        "hours": "9 AM to 9 PM"
      },
      {
        "day": "Wednesday",
        "hours": "9 AM to 9:30 PM"
      },
      {
        "day": "Thursday",
        "hours": "9 AM to 9:30 PM"
      },
      {
        "day": "Friday",
        "hours": "9 AM to 9 PM"
      },
      {
        "day": "Saturday",
        "hours": "9 AM to 9 PM"
      },
      {
        "day": "Sunday",
        "hours": "9 AM to 5 PM"
      }
    ],
    "imageUrl": "https://media.indianluxurycars.com/google/2717e54306e9bf7bf03e9907fc364ada155ad2d277e0c1f0a692918a3ab4db16.jpg",
    "url": "https://www.google.com/maps/search/?api=1&query=Lucky%20Cars&query_place_id=ChIJhQOGNi7lNToRUcHG6ck-7sk"
  },
  {
    "title": "Mesha tours and rentals",
    "categoryName": "Car leasing service",
    "address": "40-1/1-4, Laxmi Nagar Rd, Mogalrajapuram, Labbipet, Vijayawada, Andhra Pradesh 520010, India",
    "neighborhood": "Mogalrajapuram, Labbipet",
    "street": "40-1/1-4, Laxmi Nagar Rd",
    "city": "Vijayawada",
    "postalCode": "520010",
    "state": "Andhra Pradesh",
    "countryCode": "IN",
    "website": "https://business.google.com/site/l/01161801102669147213?hl=en-GB",
    "location": {
      "lat": 16.5034739,
      "lng": 80.6431603
    },
    "totalScore": 5,
    "permanentlyClosed": false,
    "temporarilyClosed": false,
    "placeId": "ChIJrzssVY37NToRBxfdgGSezJs",
    "categories": [
      "Car leasing service"
    ],
    "reviewsCount": 27,
    "imagesCount": 26,
    "openingHours": [
      {
        "day": "Monday",
        "hours": "Open 24 hours"
      },
      {
        "day": "Tuesday",
        "hours": "Open 24 hours"
      },
      {
        "day": "Wednesday",
        "hours": "Open 24 hours"
      },
      {
        "day": "Thursday",
        "hours": "Open 24 hours"
      },
      {
        "day": "Friday",
        "hours": "Open 24 hours"
      },
      {
        "day": "Saturday",
        "hours": "Open 24 hours"
      },
      {
        "day": "Sunday",
        "hours": "Open 24 hours"
      }
    ],
    "imageUrl": "https://media.indianluxurycars.com/google/1e7ca775be7144306b8ea7e7c4798cbf2545475474a71046764a6c9dd2cd0809.jpg",
    "url": "https://www.google.com/maps/search/?api=1&query=Mesha%20tours%20and%20rentals&query_place_id=ChIJrzssVY37NToRBxfdgGSezJs"
  },
  {
    "title": "PALLAVI CAR TRAVELS",
    "categoryName": "Car rental agency",
    "address": "41-23/1-38, Krishnalanka, Vijayawada, Andhra Pradesh 520013, India",
    "neighborhood": "Krishnalanka",
    "street": "41-23/1-38",
    "city": "Vijayawada",
    "postalCode": "520013",
    "state": "Andhra Pradesh",
    "countryCode": "IN",
    "phone": "+919959555789",
    "phoneUnformatted": "+919959555789",
    "location": {
      "lat": 16.5089905,
      "lng": 80.6194286
    },
    "totalScore": 5,
    "permanentlyClosed": false,
    "temporarilyClosed": false,
    "placeId": "ChIJiXTijCvxNToRoTwwOs0LlNc",
    "categories": [
      "Car rental agency"
    ],
    "reviewsCount": 12,
    "imagesCount": 7,
    "openingHours": [
      {
        "day": "Monday",
        "hours": "Open 24 hours"
      },
      {
        "day": "Tuesday",
        "hours": "Open 24 hours"
      },
      {
        "day": "Wednesday",
        "hours": "Open 24 hours"
      },
      {
        "day": "Thursday",
        "hours": "Open 24 hours"
      },
      {
        "day": "Friday",
        "hours": "Open 24 hours"
      },
      {
        "day": "Saturday",
        "hours": "Open 24 hours"
      },
      {
        "day": "Sunday",
        "hours": "Open 24 hours"
      }
    ],
    "imageUrl": "https://media.indianluxurycars.com/google/685c23be27ef17e200b43bbf4d99ac766ca42cccc4d35b55d542eddcb545b002.jpg",
    "url": "https://www.google.com/maps/search/?api=1&query=PALLAVI%20CAR%20TRAVELS&query_place_id=ChIJiXTijCvxNToRoTwwOs0LlNc"
  },
  {
    "title": "Red Sea Car Travels Vijayawada",
    "categoryName": "Car rental agency",
    "address": "D.no. 61-9/2-7, near स्क्रेव ब्रिज, Kala Nagar, Satya Narayana Nagar, Krishna Lanka, Vijayawada, Andhra Pradesh 520013, India",
    "neighborhood": "Kala Nagar, Satya Narayana Nagar, Krishna Lanka",
    "street": "D.no. 61-9/2-7, near स्क्रेव ब्रिज",
    "city": "Vijayawada",
    "postalCode": "520013",
    "state": "Andhra Pradesh",
    "countryCode": "IN",
    "website": "https://redseacartravels.com/",
    "phone": "+919052364163",
    "phoneUnformatted": "+919052364163",
    "location": {
      "lat": 16.4932407,
      "lng": 80.6462056
    },
    "totalScore": 5,
    "permanentlyClosed": false,
    "temporarilyClosed": false,
    "placeId": "ChIJkX1RY3n7NToRBgc13EaMC3A",
    "categories": [
      "Car rental agency",
      "Car leasing service",
      "Taxi service",
      "Travel agency"
    ],
    "reviewsCount": 543,
    "imagesCount": 97,
    "openingHours": [
      {
        "day": "Monday",
        "hours": "5 AM to 11 PM"
      },
      {
        "day": "Tuesday",
        "hours": "5 AM to 11 PM"
      },
      {
        "day": "Wednesday",
        "hours": "5 AM to 11 PM"
      },
      {
        "day": "Thursday",
        "hours": "5 AM to 11 PM"
      },
      {
        "day": "Friday",
        "hours": "5 AM to 11 PM"
      },
      {
        "day": "Saturday",
        "hours": "5 AM to 11 PM"
      },
      {
        "day": "Sunday",
        "hours": "5 AM to 11 PM"
      }
    ],
    "imageUrl": "https://media.indianluxurycars.com/google/8d62e7e93963a921469a876617315796d069671b078d36d09757288a0cab6ced.jpg",
    "url": "https://www.google.com/maps/search/?api=1&query=Red%20Sea%20Car%20Travels%20Vijayawada&query_place_id=ChIJkX1RY3n7NToRBgc13EaMC3A"
  },
  {
    "title": "S V MARRIAGE CARS ( OPEN CARS IN VIJAYAWADA)",
    "categoryName": "Car dealer",
    "address": "Bus Stop, near Varadhi, Nehru Nagar, Vijayawada, Andhra Pradesh 520013, India",
    "neighborhood": "Nehru Nagar",
    "street": "Bus Stop, near Varadhi",
    "city": "Vijayawada",
    "postalCode": "520013",
    "state": "Andhra Pradesh",
    "countryCode": "IN",
    "phone": "+918919460285",
    "phoneUnformatted": "+918919460285",
    "location": {
      "lat": 16.5015206,
      "lng": 80.6327266
    },
    "totalScore": 5,
    "permanentlyClosed": false,
    "temporarilyClosed": false,
    "placeId": "ChIJexw8JKr7NToR9OodX5M7B88",
    "categories": [
      "Car dealer"
    ],
    "reviewsCount": 10,
    "imagesCount": 42,
    "openingHours": [
      {
        "day": "Monday",
        "hours": "Open 24 hours"
      },
      {
        "day": "Tuesday",
        "hours": "Open 24 hours"
      },
      {
        "day": "Wednesday",
        "hours": "Open 24 hours"
      },
      {
        "day": "Thursday",
        "hours": "Open 24 hours"
      },
      {
        "day": "Friday",
        "hours": "Open 24 hours"
      },
      {
        "day": "Saturday",
        "hours": "Open 24 hours"
      },
      {
        "day": "Sunday",
        "hours": "Open 24 hours"
      }
    ],
    "imageUrl": "https://media.indianluxurycars.com/google/1277881cc0739f71a6d594e5052ce77b5d5b07a89dccead1dbd5f9c3623b7afd.jpg",
    "url": "https://www.google.com/maps/search/?api=1&query=S%20V%20MARRIAGE%20CARS%20(%20OPEN%20CARS%20IN%20VIJAYAWADA)&query_place_id=ChIJexw8JKr7NToR9OodX5M7B88"
  },
  {
    "title": "SAICHARAN CAR TRAVELS",
    "subTitle": "సాయిచరణ్ కారు ట్రావెల్స్",
    "categoryName": "Car leasing service",
    "address": "Urmila Nagar Park, 76-16-40A, Bhavanipuram, Vijayawada, Andhra Pradesh 520012, India",
    "neighborhood": "Bhavanipuram, Jojinagar",
    "street": "Urmila Nagar Park, 76-16-40A",
    "city": "Vijayawada",
    "postalCode": "520012",
    "state": "Andhra Pradesh",
    "countryCode": "IN",
    "phone": "+919393578899",
    "phoneUnformatted": "+919393578899",
    "location": {
      "lat": 16.5441671,
      "lng": 80.6026982
    },
    "totalScore": 4.2,
    "permanentlyClosed": false,
    "temporarilyClosed": false,
    "placeId": "ChIJOZai9PTvNToRL7a6iMRq5z0",
    "categories": [
      "Car leasing service",
      "Travel agency"
    ],
    "reviewsCount": 14,
    "imagesCount": 11,
    "openingHours": [
      {
        "day": "Monday",
        "hours": "Open 24 hours"
      },
      {
        "day": "Tuesday",
        "hours": "Open 24 hours"
      },
      {
        "day": "Wednesday",
        "hours": "Open 24 hours"
      },
      {
        "day": "Thursday",
        "hours": "Open 24 hours"
      },
      {
        "day": "Friday",
        "hours": "Open 24 hours"
      },
      {
        "day": "Saturday",
        "hours": "Open 24 hours"
      },
      {
        "day": "Sunday",
        "hours": "Open 24 hours"
      }
    ],
    "imageUrl": "https://media.indianluxurycars.com/google/0215221bc5760e0e20e19aacf33f2bf7dd8c4b6203d35acfe33f8bb081541c5e.jpg",
    "url": "https://www.google.com/maps/search/?api=1&query=SAICHARAN%20CAR%20TRAVELS&query_place_id=ChIJOZai9PTvNToRL7a6iMRq5z0"
  },
  {
    "title": "Sanghvi Car Shoppe - Car Accessories | SeatCovers | AlloyWheels | Tyres",
    "categoryName": "Car accessories store",
    "address": "40-1-129A, MG Rd, beside HDFC Bank, opp. KFC, Chandra Mouli Puram, Sriram Nagar, Vijayawada, Andhra Pradesh 520010, India",
    "neighborhood": "Chandra Mouli Puram, Sriram Nagar",
    "street": "40-1-129A, MG Rd, beside HDFC Bank, opp. KFC",
    "city": "Vijayawada",
    "postalCode": "520010",
    "state": "Andhra Pradesh",
    "countryCode": "IN",
    "website": "https://www.michelin.in/auto/dealer-locator/vijayawada/ynxrlkd-michelin-tyres-services-sanghvi-car-shopee",
    "phone": "+919666999693",
    "phoneUnformatted": "+919666999693",
    "location": {
      "lat": 16.4985556,
      "lng": 80.6514242
    },
    "totalScore": 4.6,
    "permanentlyClosed": false,
    "temporarilyClosed": false,
    "placeId": "ChIJz4wXPwLwNToRgXFY8tsrr7A",
    "categories": [
      "Car accessories store",
      "Auto body shop",
      "Auto restoration service",
      "Car stereo store",
      "Tire shop"
    ],
    "reviewsCount": 1349,
    "imagesCount": 1159,
    "openingHours": [
      {
        "day": "Monday",
        "hours": "10 AM to 9 PM"
      },
      {
        "day": "Tuesday",
        "hours": "10 AM to 9 PM"
      },
      {
        "day": "Wednesday",
        "hours": "10 AM to 9 PM"
      },
      {
        "day": "Thursday",
        "hours": "10 AM to 9 PM"
      },
      {
        "day": "Friday",
        "hours": "10 AM to 9 PM"
      },
      {
        "day": "Saturday",
        "hours": "10 AM to 9 PM"
      },
      {
        "day": "Sunday",
        "hours": "Closed"
      }
    ],
    "imageUrl": "https://media.indianluxurycars.com/google/e37c4ecddd406b4aea7857ee3553bb13d6da0736d6b6b6e87095dee036a5cbc5.jpg",
    "url": "https://www.google.com/maps/search/?api=1&query=Sanghvi%20Car%20Shoppe%20-%20Car%20Accessories%20%7C%20SeatCovers%20%7C%20AlloyWheels%20%7C%20Tyres&query_place_id=ChIJz4wXPwLwNToRgXFY8tsrr7A"
  },
  {
    "title": "Santosh car travels",
    "categoryName": "Car leasing service",
    "address": "Arul Nagar, Vijayawada, Andhra Pradesh 520008, India",
    "neighborhood": "Arul Nagar",
    "city": "Vijayawada",
    "postalCode": "520008",
    "state": "Andhra Pradesh",
    "countryCode": "IN",
    "website": "http://www.santoshcartravels.in/",
    "phone": "+919701533686",
    "phoneUnformatted": "+919701533686",
    "location": {
      "lat": 16.5128892,
      "lng": 80.6605365
    },
    "totalScore": 4.7,
    "permanentlyClosed": false,
    "temporarilyClosed": false,
    "placeId": "ChIJmYSnojr7NToRI5tnDqwahDg",
    "categories": [
      "Car leasing service"
    ],
    "reviewsCount": 57,
    "imagesCount": 4,
    "openingHours": [
      {
        "day": "Monday",
        "hours": "Open 24 hours"
      },
      {
        "day": "Tuesday",
        "hours": "Open 24 hours"
      },
      {
        "day": "Wednesday",
        "hours": "Open 24 hours"
      },
      {
        "day": "Thursday",
        "hours": "Open 24 hours"
      },
      {
        "day": "Friday",
        "hours": "Open 24 hours"
      },
      {
        "day": "Saturday",
        "hours": "Open 24 hours"
      },
      {
        "day": "Sunday",
        "hours": "Open 24 hours"
      }
    ],
    "imageUrl": "https://media.indianluxurycars.com/google/b1a0442cbbd67f9aafaac37e6df2ae35d51aca77d9cc73e8cca66f93c69e0bb3.jpg",
    "url": "https://www.google.com/maps/search/?api=1&query=Santosh%20car%20travels&query_place_id=ChIJmYSnojr7NToRI5tnDqwahDg"
  },
  {
    "title": "Self Drive Cars in Vijayawada - Aim Car Travels",
    "categoryName": "Car rental agency",
    "address": "Shop No.3, near Dr. Varun Cardiac Hospital, beside Trendset Mall, Sai Nagar, Kala Nagar, Acharya Ranga Nagar, Benz Circle, Vijayawada, Andhra Pradesh 520008, India",
    "neighborhood": "Sai Nagar, Kala Nagar, Acharya Ranga Nagar, Benz Circle",
    "street": "Shop No.3, near Dr. Varun Cardiac Hospital, beside Trendset Mall",
    "city": "Vijayawada",
    "postalCode": "520008",
    "state": "Andhra Pradesh",
    "countryCode": "IN",
    "phone": "+917658982869",
    "phoneUnformatted": "+917658982869",
    "location": {
      "lat": 16.4999852,
      "lng": 80.654886
    },
    "totalScore": 4.9,
    "permanentlyClosed": false,
    "temporarilyClosed": false,
    "placeId": "ChIJ6fM-IxHlNToRNnsnj2jJX0w",
    "categories": [
      "Car rental agency",
      "Car leasing service",
      "Taxi service"
    ],
    "reviewsCount": 229,
    "imagesCount": 144,
    "openingHours": [
      {
        "day": "Monday",
        "hours": "Open 24 hours"
      },
      {
        "day": "Tuesday",
        "hours": "Open 24 hours"
      },
      {
        "day": "Wednesday",
        "hours": "Open 24 hours"
      },
      {
        "day": "Thursday",
        "hours": "Open 24 hours"
      },
      {
        "day": "Friday",
        "hours": "Open 24 hours"
      },
      {
        "day": "Saturday",
        "hours": "Open 24 hours"
      },
      {
        "day": "Sunday",
        "hours": "Open 24 hours"
      }
    ],
    "imageUrl": "https://media.indianluxurycars.com/google/689579a00a6a8f9e80ac9667ad6102c15fced1cb9fc5be2b02c434d8003b46d7.jpg",
    "url": "https://www.google.com/maps/search/?api=1&query=Self%20Drive%20Cars%20in%20Vijayawada%20-%20Aim%20Car%20Travels&query_place_id=ChIJ6fM-IxHlNToRNnsnj2jJX0w"
  },
  {
    "title": "Shannu Car Travels",
    "categoryName": "Car leasing service",
    "address": "Old Post Office Rd, Near Baba Temple, Krishnalanka, Vijayawada, Andhra Pradesh 520013, India",
    "neighborhood": "Near Baba Temple, Krishnalanka",
    "street": "Old Post Office Rd",
    "city": "Vijayawada",
    "postalCode": "520013",
    "state": "Andhra Pradesh",
    "countryCode": "IN",
    "website": "https://shannucabs.com/",
    "phone": "+916301849338",
    "phoneUnformatted": "+916301849338",
    "location": {
      "lat": 16.5076972,
      "lng": 80.6225241
    },
    "totalScore": 4.9,
    "permanentlyClosed": false,
    "temporarilyClosed": false,
    "placeId": "ChIJaRpsG57xNToR3nqp8Z5_FvU",
    "categories": [
      "Car leasing service",
      "Airport shuttle service",
      "Bus tour agency",
      "Minibus taxi service",
      "Taxi service",
      "Tour agency"
    ],
    "reviewsCount": 74,
    "imagesCount": 19,
    "openingHours": [
      {
        "day": "Monday",
        "hours": "Open 24 hours"
      },
      {
        "day": "Tuesday",
        "hours": "Open 24 hours"
      },
      {
        "day": "Wednesday",
        "hours": "Open 24 hours"
      },
      {
        "day": "Thursday",
        "hours": "Open 24 hours"
      },
      {
        "day": "Friday",
        "hours": "Open 24 hours"
      },
      {
        "day": "Saturday",
        "hours": "Open 24 hours"
      },
      {
        "day": "Sunday",
        "hours": "Open 24 hours"
      }
    ],
    "imageUrl": "https://media.indianluxurycars.com/google/6c942374f61d78ee434a3b51fc57a9c4439af86717f585a9ab5eb126b6c34900.jpg",
    "url": "https://www.google.com/maps/search/?api=1&query=Shannu%20Car%20Travels&query_place_id=ChIJaRpsG57xNToR3nqp8Z5_FvU"
  },
  {
    "title": "Siva Tours and Travels",
    "categoryName": "Car leasing service",
    "address": "61-23-13, Samasanam Road, Ramalingeswara Nagar, Vijayawada, Andhra Pradesh 520013, India",
    "neighborhood": "Ramalingeswara Nagar",
    "street": "61-23-13, Samasanam Road",
    "city": "Vijayawada",
    "postalCode": "520013",
    "state": "Andhra Pradesh",
    "countryCode": "IN",
    "phone": "+919347444466",
    "phoneUnformatted": "+919347444466",
    "location": {
      "lat": 16.4884584,
      "lng": 80.653889
    },
    "totalScore": 5,
    "permanentlyClosed": false,
    "temporarilyClosed": false,
    "placeId": "ChIJ1RdspBD7NToRn8ylmSYqtOM",
    "categories": [
      "Car leasing service"
    ],
    "reviewsCount": 15,
    "imagesCount": 36,
    "openingHours": [
      {
        "day": "Monday",
        "hours": "Open 24 hours"
      },
      {
        "day": "Tuesday",
        "hours": "Open 24 hours"
      },
      {
        "day": "Wednesday",
        "hours": "Open 24 hours"
      },
      {
        "day": "Thursday",
        "hours": "Open 24 hours"
      },
      {
        "day": "Friday",
        "hours": "Open 24 hours"
      },
      {
        "day": "Saturday",
        "hours": "Open 24 hours"
      },
      {
        "day": "Sunday",
        "hours": "Open 24 hours"
      }
    ],
    "imageUrl": "https://media.indianluxurycars.com/google/a226196bb9717a2a16d2f52477de3fdb72c845af19e7f238f309cc0ee0c09f3c.jpg",
    "url": "https://www.google.com/maps/search/?api=1&query=Siva%20Tours%20and%20Travels&query_place_id=ChIJ1RdspBD7NToRn8ylmSYqtOM"
  },
  {
    "title": "SK Travels ( Local, outstation & Airport, Hyderabad one way)",
    "categoryName": "Car rental agency",
    "address": "NH 16 Service Rd, Balaji Nagar, Krishna Lanka, Vijayawada, Andhra Pradesh 520013, India",
    "neighborhood": "Balaji Nagar, Krishna Lanka",
    "street": "NH 16 Service Rd",
    "city": "Vijayawada",
    "postalCode": "520013",
    "state": "Andhra Pradesh",
    "countryCode": "IN",
    "phone": "+917799977199",
    "phoneUnformatted": "+917799977199",
    "location": {
      "lat": 16.4965072,
      "lng": 80.6422465
    },
    "totalScore": 4.8,
    "permanentlyClosed": false,
    "temporarilyClosed": false,
    "placeId": "ChIJ1Z7d1bH6NToRfMYK2TU1yDM",
    "categories": [
      "Car rental agency",
      "Car leasing service",
      "Travel agency"
    ],
    "reviewsCount": 139,
    "imagesCount": 21,
    "openingHours": [
      {
        "day": "Monday",
        "hours": "Open 24 hours"
      },
      {
        "day": "Tuesday",
        "hours": "Open 24 hours"
      },
      {
        "day": "Wednesday",
        "hours": "Open 24 hours"
      },
      {
        "day": "Thursday",
        "hours": "Open 24 hours"
      },
      {
        "day": "Friday",
        "hours": "Open 24 hours"
      },
      {
        "day": "Saturday",
        "hours": "Open 24 hours"
      },
      {
        "day": "Sunday",
        "hours": "Open 24 hours"
      }
    ],
    "imageUrl": "https://media.indianluxurycars.com/google/f4fdef6d7c4c021b4f161f0de992a238318bf1a5531de97620423879a804b389.jpg",
    "url": "https://www.google.com/maps/search/?api=1&query=SK%20Travels%20(%20Local%2C%20outstation%20%26%20Airport%2C%20Hyderabad%20one%20way)&query_place_id=ChIJ1Z7d1bH6NToRfMYK2TU1yDM"
  },
  {
    "title": "Sneha Car Travels - Best Car Travels in Vijayawada",
    "categoryName": "Car rental agency",
    "address": "Bhavanipuram, Governor Peta, Vijayawada, Andhra Pradesh 520012, India",
    "neighborhood": "Bhavanipuram, Governor Peta",
    "city": "Vijayawada",
    "postalCode": "520012",
    "state": "Andhra Pradesh",
    "countryCode": "IN",
    "phone": "+918143844844",
    "phoneUnformatted": "+918143844844",
    "location": {
      "lat": 16.5260026,
      "lng": 80.5936871
    },
    "totalScore": 5,
    "permanentlyClosed": false,
    "temporarilyClosed": false,
    "placeId": "ChIJ-ZfARITxNToRItfwuKpbm58",
    "categories": [
      "Car rental agency",
      "Car leasing service",
      "Travel agency"
    ],
    "reviewsCount": 105,
    "imagesCount": 21,
    "openingHours": [
      {
        "day": "Monday",
        "hours": "Open 24 hours"
      },
      {
        "day": "Tuesday",
        "hours": "Open 24 hours"
      },
      {
        "day": "Wednesday",
        "hours": "Open 24 hours"
      },
      {
        "day": "Thursday",
        "hours": "Open 24 hours"
      },
      {
        "day": "Friday",
        "hours": "Open 24 hours"
      },
      {
        "day": "Saturday",
        "hours": "Open 24 hours"
      },
      {
        "day": "Sunday",
        "hours": "Open 24 hours"
      }
    ],
    "imageUrl": "https://media.indianluxurycars.com/google/dc57433afa9441105b262e44935fd3649828a7d052b6ee1b29b7e9077b1b57bb.jpg",
    "url": "https://www.google.com/maps/search/?api=1&query=Sneha%20Car%20Travels%20-%20Best%20Car%20Travels%20in%20Vijayawada&query_place_id=ChIJ-ZfARITxNToRItfwuKpbm58"
  },
  {
    "title": "Sree Car Travels: Car Rentals & Cabs in Vijayawada",
    "categoryName": "Car rental agency",
    "address": "Main Road, Ramalineswar Nagar, Ramalingeswara Nagar, Vijayawada, Andhra Pradesh 520013, India",
    "neighborhood": "Ramalingeswara Nagar",
    "street": "Main Road, Ramalineswar Nagar",
    "city": "Vijayawada",
    "postalCode": "520013",
    "state": "Andhra Pradesh",
    "countryCode": "IN",
    "website": "https://sites.google.com/view/sreecartravels",
    "phone": "+918185086950",
    "phoneUnformatted": "+918185086950",
    "location": {
      "lat": 16.4899309,
      "lng": 80.6518886
    },
    "totalScore": 4.9,
    "permanentlyClosed": false,
    "temporarilyClosed": false,
    "placeId": "ChIJb812HOL7NToRpyALwNteMWs",
    "categories": [
      "Car rental agency",
      "Car leasing service",
      "Taxi service",
      "Travel agency"
    ],
    "reviewsCount": 245,
    "imagesCount": 224,
    "openingHours": [],
    "imageUrl": "https://media.indianluxurycars.com/google/5cf5d4bd59e15e28da1644b2c311616651977439d8c13bc384e2f383231bd316.jpg",
    "url": "https://www.google.com/maps/search/?api=1&query=Sree%20Car%20Travels%3A%20Car%20Rentals%20%26%20Cabs%20in%20Vijayawada&query_place_id=ChIJb812HOL7NToRpyALwNteMWs"
  },
  {
    "title": "Sri Parameswari Car Travels Vijayawada",
    "categoryName": "Car rental agency",
    "address": "Door no. 32-2-4, opp. Navodaya Public School, Kasturibaipet, Labbipet, Vijayawada, Andhra Pradesh 520010, India",
    "neighborhood": "Mogalrajapuram, Kasturibaipet, Labbipet",
    "street": "Door no. 32-2-4, opp. Navodaya Public School",
    "city": "Vijayawada",
    "postalCode": "520010",
    "state": "Andhra Pradesh",
    "countryCode": "IN",
    "website": "http://www.sriparameswaricartravels.com/",
    "phone": "+919866649389",
    "phoneUnformatted": "+919866649389",
    "location": {
      "lat": 16.5094011,
      "lng": 80.6402754
    },
    "totalScore": 5,
    "permanentlyClosed": false,
    "temporarilyClosed": false,
    "placeId": "ChIJ8dteIE37NToRsRYNiA9srBc",
    "categories": [
      "Car rental agency",
      "Car leasing service",
      "Taxi service",
      "Travel agency"
    ],
    "reviewsCount": 479,
    "imagesCount": 188,
    "openingHours": [
      {
        "day": "Monday",
        "hours": "Open 24 hours"
      },
      {
        "day": "Tuesday",
        "hours": "Open 24 hours"
      },
      {
        "day": "Wednesday",
        "hours": "Open 24 hours"
      },
      {
        "day": "Thursday",
        "hours": "Open 24 hours"
      },
      {
        "day": "Friday",
        "hours": "Open 24 hours"
      },
      {
        "day": "Saturday",
        "hours": "Open 24 hours"
      },
      {
        "day": "Sunday",
        "hours": "Open 24 hours"
      }
    ],
    "imageUrl": "https://media.indianluxurycars.com/google/b22db8f7e1bef1a909e7e3113d16ddfae7ddcb169b8c40d5e099ea37dc180b0d.jpg",
    "url": "https://www.google.com/maps/search/?api=1&query=Sri%20Parameswari%20Car%20Travels%20Vijayawada&query_place_id=ChIJ8dteIE37NToRsRYNiA9srBc"
  },
  {
    "title": "sri ravi car travels",
    "subTitle": "శ్రీ రవి కార్ ట్రావెల్స్",
    "categoryName": "Car rental agency",
    "address": "Revenue Colony Park, Sidhartha Nagar, Labbipet, Vijayawada, Andhra Pradesh 520010, India",
    "neighborhood": "Revenue Colony Park, Sidhartha Nagar, Labbipet",
    "city": "Vijayawada",
    "postalCode": "520010",
    "state": "Andhra Pradesh",
    "countryCode": "IN",
    "website": "http://www.sriravicartravels.com/",
    "phone": "+918885438888",
    "phoneUnformatted": "+918885438888",
    "location": {
      "lat": 16.5009243,
      "lng": 80.6461462
    },
    "totalScore": 4.7,
    "permanentlyClosed": false,
    "temporarilyClosed": false,
    "placeId": "ChIJFVtOZrr6NToRPTRzhr8QxnY",
    "categories": [
      "Car rental agency"
    ],
    "reviewsCount": 181,
    "imagesCount": 12,
    "openingHours": [
      {
        "day": "Monday",
        "hours": "Open 24 hours"
      },
      {
        "day": "Tuesday",
        "hours": "Open 24 hours"
      },
      {
        "day": "Wednesday",
        "hours": "Open 24 hours"
      },
      {
        "day": "Thursday",
        "hours": "Open 24 hours"
      },
      {
        "day": "Friday",
        "hours": "Open 24 hours"
      },
      {
        "day": "Saturday",
        "hours": "Open 24 hours"
      },
      {
        "day": "Sunday",
        "hours": "Open 24 hours"
      }
    ],
    "imageUrl": "https://media.indianluxurycars.com/google/f74aa145097dd2763df2b802216c6b0eda2f24dab3aeb75bdcb7690e6f4655bb.jpg",
    "url": "https://www.google.com/maps/search/?api=1&query=sri%20ravi%20car%20travels&query_place_id=ChIJFVtOZrr6NToRPTRzhr8QxnY"
  },
  {
    "title": "SRIKANTH CARS",
    "categoryName": "Used car dealer",
    "address": "SIKHAMANI CENTER, Sikhamani Centre Rd, near GOSPEL HALL CHURCH, Praja Shakti Nagar, Giripuram, Labbipet, Vijayawada, Andhra Pradesh 520010, India",
    "neighborhood": "Praja Shakti Nagar, Giripuram, Labbipet",
    "street": "SIKHAMANI CENTER, Sikhamani Centre Rd, near GOSPEL HALL CHURCH",
    "city": "Vijayawada",
    "postalCode": "520010",
    "state": "Andhra Pradesh",
    "countryCode": "IN",
    "website": "http://srikanthcars.com/",
    "phone": "+919032004080",
    "phoneUnformatted": "+919032004080",
    "location": {
      "lat": 16.5068191,
      "lng": 80.6396088
    },
    "totalScore": 4.9,
    "permanentlyClosed": false,
    "temporarilyClosed": false,
    "placeId": "ChIJgewIGVf7NToRlu0LXtTfRoM",
    "categories": [
      "Used car dealer"
    ],
    "reviewsCount": 125,
    "imagesCount": 159,
    "openingHours": [
      {
        "day": "Monday",
        "hours": "9:30 AM to 8:30 PM"
      },
      {
        "day": "Tuesday",
        "hours": "10 AM to 9:30 PM"
      },
      {
        "day": "Wednesday",
        "hours": "9:30 AM to 10 PM"
      },
      {
        "day": "Thursday",
        "hours": "10 AM to 10 PM"
      },
      {
        "day": "Friday",
        "hours": "10 AM to 9:30 PM"
      },
      {
        "day": "Saturday",
        "hours": "10 AM to 9:30 PM"
      },
      {
        "day": "Sunday",
        "hours": "11:30 AM to 9 PM"
      }
    ],
    "imageUrl": "https://media.indianluxurycars.com/google/ed03a29f1f6bedde072b64dd91753a00aa7a8e77e6f680b56f7eec82770c6199.jpg",
    "url": "https://www.google.com/maps/search/?api=1&query=SRIKANTH%20CARS&query_place_id=ChIJgewIGVf7NToRlu0LXtTfRoM"
  },
  {
    "title": "SRS cars & Tempo travels",
    "categoryName": "Car rental agency",
    "address": "M.i.g 94/2, Old Housing Board Colony, Vijayawada, Andhra Pradesh 520012, India",
    "neighborhood": "Old Housing Board Colony",
    "street": "M.i.g 94/2",
    "city": "Vijayawada",
    "postalCode": "520012",
    "state": "Andhra Pradesh",
    "countryCode": "IN",
    "phone": "+919292157157",
    "phoneUnformatted": "+919292157157",
    "location": {
      "lat": 16.5357147,
      "lng": 80.5927398
    },
    "totalScore": 4.8,
    "permanentlyClosed": false,
    "temporarilyClosed": false,
    "placeId": "ChIJkTPEHaDvNToRCyXGeI0LFYc",
    "categories": [
      "Car rental agency",
      "Bus tour agency",
      "Car leasing service",
      "Tour operator",
      "Minibus taxi service",
      "Sightseeing tour agency",
      "Taxi service",
      "Tour agency",
      "Travel agency"
    ],
    "reviewsCount": 26,
    "imagesCount": 46,
    "openingHours": [
      {
        "day": "Monday",
        "hours": "Open 24 hours"
      },
      {
        "day": "Tuesday",
        "hours": "Open 24 hours"
      },
      {
        "day": "Wednesday",
        "hours": "Open 24 hours"
      },
      {
        "day": "Thursday",
        "hours": "Open 24 hours"
      },
      {
        "day": "Friday",
        "hours": "Open 24 hours"
      },
      {
        "day": "Saturday",
        "hours": "Open 24 hours"
      },
      {
        "day": "Sunday",
        "hours": "Open 24 hours"
      }
    ],
    "imageUrl": "https://media.indianluxurycars.com/google/d4bbf799deba17b0587ff4a34e6dbe0ff585c16fe9d92ac2313520c7578e413b.jpg",
    "url": "https://www.google.com/maps/search/?api=1&query=SRS%20cars%20%26%20Tempo%20travels&query_place_id=ChIJkTPEHaDvNToRCyXGeI0LFYc"
  },
  {
    "title": "SS Cars",
    "categoryName": "Car leasing service",
    "address": "Krishna hotel centre, Tilak Rd, Ajit Singh Nagar, PNT Colony, Vijayawada, Andhra Pradesh 520015, India",
    "neighborhood": "Ajit Singh Nagar, PNT Colony",
    "street": "Krishna hotel centre, Tilak Rd",
    "city": "Vijayawada",
    "postalCode": "520015",
    "state": "Andhra Pradesh",
    "countryCode": "IN",
    "location": {
      "lat": 16.5422765,
      "lng": 80.6416229
    },
    "totalScore": 4.9,
    "permanentlyClosed": false,
    "temporarilyClosed": false,
    "placeId": "ChIJl5nytAflNToRY2T5ShVOqBw",
    "categories": [
      "Car leasing service"
    ],
    "reviewsCount": 66,
    "imagesCount": 44,
    "openingHours": [
      {
        "day": "Monday",
        "hours": "Open 24 hours"
      },
      {
        "day": "Tuesday",
        "hours": "Open 24 hours"
      },
      {
        "day": "Wednesday",
        "hours": "Open 24 hours"
      },
      {
        "day": "Thursday",
        "hours": "Open 24 hours"
      },
      {
        "day": "Friday",
        "hours": "Open 24 hours"
      },
      {
        "day": "Saturday",
        "hours": "Open 24 hours"
      },
      {
        "day": "Sunday",
        "hours": "Open 24 hours"
      }
    ],
    "imageUrl": "https://media.indianluxurycars.com/google/860f73d4713c7653cf9896bd52604f8d529f8ad08bbf286c42a5530f6b322ded.jpg",
    "url": "https://www.google.com/maps/search/?api=1&query=SS%20Cars&query_place_id=ChIJl5nytAflNToRY2T5ShVOqBw"
  },
  {
    "title": "Travel Home Holidays Pvt Ltd",
    "subTitle": "ట్రావెల్ హోం హాలీడేస్ పివట్ ఎల్టీడీ",
    "categoryName": "Car rental agency",
    "address": "Dr. No : 40-13-2, 3rd Floor Besides Lorry Owners Function Hall, Benz Circle, Vijayawada, Andhra Pradesh 520010, India",
    "neighborhood": "Chandra Mouli Puram, Sriram Nagar, Benz Circle",
    "street": "Dr. No : 40-13-2, 3rd Floor Besides Lorry Owners Function Hall",
    "city": "Vijayawada",
    "postalCode": "520010",
    "state": "Andhra Pradesh",
    "countryCode": "IN",
    "website": "http://www.travelhome.co.in/",
    "phone": "+918666673999",
    "phoneUnformatted": "+918666673999",
    "location": {
      "lat": 16.4971845,
      "lng": 80.6525833
    },
    "totalScore": 4.6,
    "permanentlyClosed": false,
    "temporarilyClosed": false,
    "placeId": "ChIJ35Xzwbj6NToRkD6m2VcIl9E",
    "categories": [
      "Car rental agency",
      "Airline ticket agency",
      "Car leasing service",
      "Travel agency",
      "Currency exchange service",
      "Passport agent",
      "Tour agency",
      "Tour operator",
      "Train ticket agency",
      "Visa consulting service"
    ],
    "reviewsCount": 84,
    "imagesCount": 3,
    "openingHours": [
      {
        "day": "Monday",
        "hours": "9:30 AM to 9 PM"
      },
      {
        "day": "Tuesday",
        "hours": "9:30 AM to 8:30 PM"
      },
      {
        "day": "Wednesday",
        "hours": "9:30 AM to 8:30 PM"
      },
      {
        "day": "Thursday",
        "hours": "9:30 AM to 8 PM"
      },
      {
        "day": "Friday",
        "hours": "9:30 AM to 8:30 PM"
      },
      {
        "day": "Saturday",
        "hours": "9:30 AM to 8 PM"
      },
      {
        "day": "Sunday",
        "hours": "Closed"
      }
    ],
    "imageUrl": "https://media.indianluxurycars.com/google/421b47db10fb5444178ae5f93fb4a36bf7785bfcff386a4db96abbe0b6f7a794.jpg",
    "url": "https://www.google.com/maps/search/?api=1&query=Travel%20Home%20Holidays%20Pvt%20Ltd&query_place_id=ChIJ35Xzwbj6NToRkD6m2VcIl9E"
  },
  {
    "title": "Used Cars",
    "categoryName": "Used car dealer",
    "address": "Sreeram St, Chandra Mouli Puram, Sriram Nagar, Benz Circle, Vijayawada, Andhra Pradesh 520010, India",
    "neighborhood": "Chandra Mouli Puram, Sriram Nagar, Benz Circle",
    "street": "Sreeram St",
    "city": "Vijayawada",
    "postalCode": "520010",
    "state": "Andhra Pradesh",
    "countryCode": "IN",
    "location": {
      "lat": 16.498211,
      "lng": 80.6489782
    },
    "totalScore": 4.5,
    "permanentlyClosed": false,
    "temporarilyClosed": false,
    "placeId": "ChIJt95Yyaz7NToR0uAJi8iPRyU",
    "categories": [
      "Used car dealer"
    ],
    "reviewsCount": 19,
    "imagesCount": 9,
    "openingHours": [
      {
        "day": "Monday",
        "hours": "10 AM to 7:30 PM"
      },
      {
        "day": "Tuesday",
        "hours": "10 AM to 7:30 PM"
      },
      {
        "day": "Wednesday",
        "hours": "10 AM to 7:30 PM"
      },
      {
        "day": "Thursday",
        "hours": "10 AM to 7:30 PM"
      },
      {
        "day": "Friday",
        "hours": "10 AM to 7:30 PM"
      },
      {
        "day": "Saturday",
        "hours": "10 AM to 7:30 PM"
      },
      {
        "day": "Sunday",
        "hours": "10 AM to 7:30 PM"
      }
    ],
    "imageUrl": "https://media.indianluxurycars.com/google/906ff8d9b5f212bbca17a960e7e74b3ee1235fe4ef9c62316eb74b076c61d2d9.jpg",
    "url": "https://www.google.com/maps/search/?api=1&query=Used%20Cars&query_place_id=ChIJt95Yyaz7NToR0uAJi8iPRyU"
  },
  {
    "title": "Used cars vijayawada",
    "categoryName": "Used car dealer",
    "address": "Rani Gari Thota, Balaji Nagar, Krishna Lanka, Vijayawada, Andhra Pradesh 520013, India",
    "neighborhood": "Rani Gari Thota, Balaji Nagar, Krishna Lanka",
    "city": "Vijayawada",
    "postalCode": "520013",
    "state": "Andhra Pradesh",
    "countryCode": "IN",
    "phone": "+918886403184",
    "phoneUnformatted": "+918886403184",
    "location": {
      "lat": 16.4955082,
      "lng": 80.6396169
    },
    "totalScore": 5,
    "permanentlyClosed": false,
    "temporarilyClosed": false,
    "placeId": "ChIJU7--wsH7NToRSQZLNklEhvw",
    "categories": [
      "Used car dealer"
    ],
    "reviewsCount": 5,
    "imagesCount": 50,
    "openingHours": [
      {
        "day": "Monday",
        "hours": "10 AM to 7 PM"
      },
      {
        "day": "Tuesday",
        "hours": "10 AM to 7 PM"
      },
      {
        "day": "Wednesday",
        "hours": "10 AM to 7 PM"
      },
      {
        "day": "Thursday",
        "hours": "10 AM to 7 PM"
      },
      {
        "day": "Friday",
        "hours": "10 AM to 7 PM"
      },
      {
        "day": "Saturday",
        "hours": "10 AM to 7 PM"
      },
      {
        "day": "Sunday",
        "hours": "Closed"
      }
    ],
    "imageUrl": "https://media.indianluxurycars.com/google/b0ce7f3ff9058fdcb87ac0325d7b8ffb064c14d0fd425fa2255aa81875cafffb.jpg",
    "url": "https://www.google.com/maps/search/?api=1&query=Used%20cars%20vijayawada&query_place_id=ChIJU7--wsH7NToRSQZLNklEhvw"
  },
  {
    "title": "Vihar Car Travels Vijayawada",
    "categoryName": "Car rental agency",
    "address": "Door No 61, 10/2-3, Gayatri Rd, Ramalingeswara Nagar, Vijayawada, Andhra Pradesh 520013, India",
    "neighborhood": "Ramalingeswara Nagar",
    "street": "Door No 61, 10/2-3, Gayatri Rd",
    "city": "Vijayawada",
    "postalCode": "520013",
    "state": "Andhra Pradesh",
    "countryCode": "IN",
    "website": "https://sites.google.com/view/viharcartravels/home",
    "phone": "+919398787343",
    "phoneUnformatted": "+919398787343",
    "location": {
      "lat": 16.4919372,
      "lng": 80.6494194
    },
    "totalScore": 5,
    "permanentlyClosed": false,
    "temporarilyClosed": false,
    "placeId": "ChIJs4uDE2f7NToRx3BKIp0BmL4",
    "categories": [
      "Car rental agency",
      "Car leasing service",
      "Taxi service",
      "Travel agency"
    ],
    "reviewsCount": 33,
    "imagesCount": 79,
    "openingHours": [
      {
        "day": "Monday",
        "hours": "Open 24 hours"
      },
      {
        "day": "Tuesday",
        "hours": "Open 24 hours"
      },
      {
        "day": "Wednesday",
        "hours": "Open 24 hours"
      },
      {
        "day": "Thursday",
        "hours": "Open 24 hours"
      },
      {
        "day": "Friday",
        "hours": "Open 24 hours"
      },
      {
        "day": "Saturday",
        "hours": "Open 24 hours"
      },
      {
        "day": "Sunday",
        "hours": "Open 24 hours"
      }
    ],
    "imageUrl": "https://media.indianluxurycars.com/google/a550650a1cece33ef1c3ab7b57af95fadd6d5f3aecb16ac98b6df2f96c984c57.jpg",
    "url": "https://www.google.com/maps/search/?api=1&query=Vihar%20Car%20Travels%20Vijayawada&query_place_id=ChIJs4uDE2f7NToRx3BKIp0BmL4"
  },
  {
    "title": "Vijayawada Car Travels",
    "categoryName": "Car rental agency",
    "address": "D No 39-4-11 , DURGA RICE MILL BAZAR MASZID STREET LABBIPET, Vijayawada East, Vijayawada, Andhra Pradesh 520010, India",
    "neighborhood": "Labbipet",
    "street": "D No 39-4-11 , DURGA RICE MILL BAZAR MASZID STREET LABBIPET, Vijayawada East",
    "city": "Vijayawada",
    "postalCode": "520010",
    "state": "Andhra Pradesh",
    "countryCode": "IN",
    "phone": "+919121875566",
    "phoneUnformatted": "+919121875566",
    "location": {
      "lat": 16.5000035,
      "lng": 80.6400405
    },
    "totalScore": 4.8,
    "permanentlyClosed": false,
    "temporarilyClosed": true,
    "placeId": "ChIJw3qt0o77NToRr9XBze_hwgU",
    "categories": [
      "Car rental agency"
    ],
    "reviewsCount": 72,
    "imagesCount": 42,
    "openingHours": [],
    "imageUrl": "https://media.indianluxurycars.com/google/a6546bb0ed7a46d31277d455df981536b786525627593f43359c2f3098266789.jpg",
    "url": "https://www.google.com/maps/search/?api=1&query=Vijayawada%20Car%20Travels&query_place_id=ChIJw3qt0o77NToRr9XBze_hwgU"
  },
  {
    "title": "Vishal Car travels",
    "subTitle": "విశాల్ కారు ట్రావెల్స్",
    "categoryName": "Car rental agency",
    "address": "1st Ln, Gowthami Nagar, Krishna Lanka, Vijayawada, Andhra Pradesh 520013, India",
    "neighborhood": "Gowthami Nagar, Krishna Lanka",
    "street": "1st Ln",
    "city": "Vijayawada",
    "postalCode": "520013",
    "state": "Andhra Pradesh",
    "countryCode": "IN",
    "phone": "+919912220103",
    "phoneUnformatted": "+919912220103",
    "location": {
      "lat": 16.5026057,
      "lng": 80.6321171
    },
    "totalScore": 4.9,
    "permanentlyClosed": false,
    "temporarilyClosed": false,
    "placeId": "ChIJu7fVSX3xNToRh3nnSXp4faE",
    "categories": [
      "Car rental agency",
      "Car leasing service"
    ],
    "reviewsCount": 47,
    "imagesCount": 2,
    "openingHours": [
      {
        "day": "Monday",
        "hours": "Open 24 hours"
      },
      {
        "day": "Tuesday",
        "hours": "Open 24 hours"
      },
      {
        "day": "Wednesday",
        "hours": "Open 24 hours"
      },
      {
        "day": "Thursday",
        "hours": "Open 24 hours"
      },
      {
        "day": "Friday",
        "hours": "Open 24 hours"
      },
      {
        "day": "Saturday",
        "hours": "Open 24 hours"
      },
      {
        "day": "Sunday",
        "hours": "Open 24 hours"
      }
    ],
    "imageUrl": "https://media.indianluxurycars.com/google/4bf128428b4c376a3ac063455964f59522ae8c2ac4e8a61421a7688531ab153d.jpg",
    "url": "https://www.google.com/maps/search/?api=1&query=Vishal%20Car%20travels&query_place_id=ChIJu7fVSX3xNToRh3nnSXp4faE"
  },
  {
    "title": "Vv Luxury Cars",
    "categoryName": "Car rental agency",
    "address": "GM25+P32, opposite to Sri Satya Sai Hotel, Mogalrajapuram, Krishna Nagar, Vijayawada, Andhra Pradesh 520008, India",
    "neighborhood": "Mogalrajapuram, Krishna Nagar",
    "street": "GM25+P32, opposite to Sri Satya Sai Hotel",
    "city": "Vijayawada",
    "postalCode": "520008",
    "state": "Andhra Pradesh",
    "countryCode": "IN",
    "location": {
      "lat": 16.5017676,
      "lng": 80.6576349
    },
    "permanentlyClosed": false,
    "temporarilyClosed": false,
    "placeId": "ChIJ0Z9U08f6NToRUOARssUZlU0",
    "categories": [
      "Car rental agency"
    ],
    "imagesCount": 1,
    "openingHours": [],
    "imageUrl": "https://media.indianluxurycars.com/google/4753b827a9a7af65c7e1ef7f8ba5526fab5e83aba3c14fc6865ac301a8b8a9d9.jpg",
    "url": "https://www.google.com/maps/search/?api=1&query=Vv%20Luxury%20Cars&query_place_id=ChIJ0Z9U08f6NToRUOARssUZlU0"
  }
]
