[
  {
    "title": "Audi Visakhapatnam",
    "subTitle": "ఆడి విశాఖపట్నం",
    "categoryName": "Audi dealer",
    "address": "Chalamala Commercial Cplx, Swarnabharati Indoor Stadium, D No 52/10/1, Besides, Resapuvani Palem, Resapuvanipalem, Dwaraka Nagar, Visakhapatnam, Andhra Pradesh 530013, India",
    "neighborhood": "Resapuvani Palem, Resapuvanipalem, Dwaraka Nagar",
    "street": "Chalamala Commercial Cplx, Swarnabharati Indoor Stadium, D No 52/10/1, Besides",
    "city": "Visakhapatnam",
    "postalCode": "530013",
    "state": "Andhra Pradesh",
    "countryCode": "IN",
    "website": "https://dealers.myaudi.in/audi-visakhapatnam-audi-dealer-resapuvanepalem-visakhapatnam-122972/Home",
    "phone": "+919618028893",
    "phoneUnformatted": "+919618028893",
    "location": {
      "lat": 17.7315383,
      "lng": 83.316105
    },
    "totalScore": 4.7,
    "permanentlyClosed": false,
    "temporarilyClosed": false,
    "placeId": "ChIJi78_S29ZOToRjriYoiLrO1c",
    "categories": [
      "Audi dealer",
      "Auto dent removal service",
      "Auto repair shop",
      "Car accessories store",
      "Car dealer"
    ],
    "reviewsCount": 782,
    "imagesCount": 226,
    "openingHours": [
      {
        "day": "Monday",
        "hours": "10 AM to 6:30 PM"
      },
      {
        "day": "Tuesday",
        "hours": "10 AM to 6:30 PM"
      },
      {
        "day": "Wednesday",
        "hours": "10 AM to 6:30 PM"
      },
      {
        "day": "Thursday",
        "hours": "10 AM to 6:30 PM"
      },
      {
        "day": "Friday",
        "hours": "10 AM to 6:30 PM"
      },
      {
        "day": "Saturday",
        "hours": "10 AM to 6:30 PM"
      },
      {
        "day": "Sunday",
        "hours": "10 AM to 5 PM"
      }
    ],
    "imageUrl": "https://media.indianluxurycars.com/google/c0b066466299a7e3694b18d5281b0bedfbd33ce37b33e8bc5cd8d0887d934812.jpg",
    "url": "https://www.google.com/maps/search/?api=1&query=Audi%20Visakhapatnam&query_place_id=ChIJi78_S29ZOToRjriYoiLrO1c"
  },
  {
    "title": "Bike Land - Bike Rentals in Vizag",
    "categoryName": "Car rental agency",
    "address": "Arch or SSV Food Hub, 43-9-230, opp. Railway New Colony, beside Indian Oil Petrol Bunk, Sri Siddi Enclave, Railway New Colony, Visakhapatnam, Andhra Pradesh 530016, India",
    "neighborhood": "Sri Siddi Enclave, Railway New Colony",
    "street": "Arch or SSV Food Hub, 43-9-230, opp. Railway New Colony, beside Indian Oil Petrol Bunk",
    "city": "Visakhapatnam",
    "postalCode": "530016",
    "state": "Andhra Pradesh",
    "countryCode": "IN",
    "website": "https://bikerentalsinvizag.in/",
    "phone": "+919603888055",
    "phoneUnformatted": "+919603888055",
    "location": {
      "lat": 17.7277883,
      "lng": 83.2922341
    },
    "totalScore": 4.9,
    "permanentlyClosed": false,
    "temporarilyClosed": false,
    "placeId": "ChIJ0ywCuS9DOToRZQwJ3-qEG6Q",
    "categories": [
      "Car rental agency",
      "Car leasing service",
      "Motorcycle rental agency",
      "Scooter rental service",
      "Tourist information center"
    ],
    "reviewsCount": 9,
    "imagesCount": 27,
    "openingHours": [
      {
        "day": "Monday",
        "hours": "5 AM to 9 PM"
      },
      {
        "day": "Tuesday",
        "hours": "5 AM to 9 PM"
      },
      {
        "day": "Wednesday",
        "hours": "5 AM to 9 PM"
      },
      {
        "day": "Thursday",
        "hours": "5 AM to 9 PM"
      },
      {
        "day": "Friday",
        "hours": "5 AM to 9 PM"
      },
      {
        "day": "Saturday",
        "hours": "5 AM to 9 PM"
      },
      {
        "day": "Sunday",
        "hours": "5 AM to 9 PM"
      }
    ],
    "imageUrl": "https://media.indianluxurycars.com/google/874e0950fa4f6bfb7a323f5ae0e8a3512e89aa56a05324e96a8a27bada2ce311.jpg",
    "url": "https://www.google.com/maps/search/?api=1&query=Bike%20Land%20-%20Bike%20Rentals%20in%20Vizag&query_place_id=ChIJ0ywCuS9DOToRZQwJ3-qEG6Q"
  },
  {
    "title": "Cheloride,Vizag self Driving Cars, Self drive cars in vizag, car rentals, rental cars, taxi vizag, Visakhapatnam car rentals",
    "subTitle": "డ్రీం కార్స్",
    "categoryName": "Car rental agency",
    "address": "RK Beach Rd, Pandurangapuram, Visakhapatnam, Andhra Pradesh 530003, India",
    "neighborhood": "Pandurangapuram",
    "street": "RK Beach Rd",
    "city": "Visakhapatnam",
    "postalCode": "530003",
    "state": "Andhra Pradesh",
    "countryCode": "IN",
    "website": "https://cheloride.com/",
    "phone": "+918919617664",
    "phoneUnformatted": "+918919617664",
    "location": {
      "lat": 17.7127155,
      "lng": 83.3192347
    },
    "totalScore": 4.6,
    "permanentlyClosed": false,
    "temporarilyClosed": false,
    "placeId": "ChIJ05O-h1ZDOToR1cOR0UMyqoc",
    "categories": [
      "Car rental agency",
      "Car leasing service",
      "Taxi service"
    ],
    "reviewsCount": 220,
    "imagesCount": 269,
    "openingHours": [
      {
        "day": "Monday",
        "hours": "Open 24 hours"
      },
      {
        "day": "Tuesday",
        "hours": "Open 24 hours"
      },
      {
        "day": "Wednesday",
        "hours": "Open 24 hours"
      },
      {
        "day": "Thursday",
        "hours": "Open 24 hours"
      },
      {
        "day": "Friday",
        "hours": "Open 24 hours"
      },
      {
        "day": "Saturday",
        "hours": "Open 24 hours"
      },
      {
        "day": "Sunday",
        "hours": "Open 24 hours"
      }
    ],
    "imageUrl": "https://media.indianluxurycars.com/google/96eb4404c52bc62e05c7378e9994e62a6cb51d338f97948ba80a5e0c555ac3d5.jpg",
    "url": "https://www.google.com/maps/search/?api=1&query=Cheloride%2CVizag%20self%20Driving%20Cars%2C%20Self%20drive%20cars%20in%20vizag%2C%20car%20rentals%2C%20rental%20cars%2C%20taxi%20vizag%2C%20Visakhapatnam%20car%20rentals&query_place_id=ChIJ05O-h1ZDOToR1cOR0UMyqoc"
  },
  {
    "title": "Dwaraka Car Travels",
    "categoryName": "Car rental agency",
    "address": "P8J3+2H2, Dondaparthy, Akkayyapalem, Visakhapatnam, Andhra Pradesh 530016, India",
    "neighborhood": "Dondaparthy, Akkayyapalem",
    "street": "P8J3+2H2",
    "city": "Visakhapatnam",
    "postalCode": "530016",
    "state": "Andhra Pradesh",
    "countryCode": "IN",
    "phone": "+919642509307",
    "phoneUnformatted": "+919642509307",
    "location": {
      "lat": 17.7300137,
      "lng": 83.3039048
    },
    "totalScore": 4.4,
    "permanentlyClosed": false,
    "temporarilyClosed": false,
    "placeId": "ChIJn1h7YDtDOToRcqxbqeAQa3c",
    "categories": [
      "Car rental agency",
      "Taxi service"
    ],
    "reviewsCount": 41,
    "imagesCount": 6,
    "openingHours": [],
    "imageUrl": "https://media.indianluxurycars.com/google/0d63e8563974dbcbec1ad3c27fcd5ca45a2af96228ff7146e97009f813648f51.jpg",
    "url": "https://www.google.com/maps/search/?api=1&query=Dwaraka%20Car%20Travels&query_place_id=ChIJn1h7YDtDOToRcqxbqeAQa3c"
  },
  {
    "title": "La Maison Citroën,Vizag",
    "categoryName": "Car dealer",
    "address": "RK Beach Rd, Pandurangapuram, Kirlampudi Layout, Chinna, Jalari Peta, Visakhapatnam, Andhra Pradesh 530003, India",
    "neighborhood": "Pandurangapuram, Kirlampudi Layout, Chinna, Jalari Peta",
    "street": "RK Beach Rd",
    "city": "Visakhapatnam",
    "state": "Andhra Pradesh",
    "countryCode": "IN",
    "website": "https://bharath-visakhapatnam.citroen.in/",
    "phone": "+919989487000",
    "phoneUnformatted": "+919989487000",
    "location": {
      "lat": 17.7122047,
      "lng": 83.3184631
    },
    "totalScore": 4.7,
    "permanentlyClosed": false,
    "temporarilyClosed": false,
    "placeId": "ChIJ1XB4spJDOToRWzBqbOBXQqs",
    "categories": [
      "Car dealer",
      "Car accessories store",
      "Car manufacturer",
      "Citroen dealer"
    ],
    "reviewsCount": 237,
    "imagesCount": 49,
    "openingHours": [
      {
        "day": "Monday",
        "hours": "9 AM to 8 PM"
      },
      {
        "day": "Tuesday",
        "hours": "9 AM to 8 PM"
      },
      {
        "day": "Wednesday",
        "hours": "9 AM to 8 PM"
      },
      {
        "day": "Thursday",
        "hours": "9 AM to 8 PM"
      },
      {
        "day": "Friday",
        "hours": "9 AM to 8 PM"
      },
      {
        "day": "Saturday",
        "hours": "9 AM to 8 PM"
      },
      {
        "day": "Sunday",
        "hours": "10 AM to 2 PM"
      }
    ],
    "imageUrl": "https://media.indianluxurycars.com/google/980b10354535c0fb0edd3d3091afbcdd25b0baecd05e4a7445306210d7ffa07b.jpg",
    "url": "https://www.google.com/maps/search/?api=1&query=La%20Maison%20Citro%C3%ABn%2CVizag&query_place_id=ChIJ1XB4spJDOToRWzBqbOBXQqs"
  },
  {
    "title": "Lovely self driving cars and bikes rentals",
    "categoryName": "Car rental agency",
    "address": "Krishnagar, Krishna Nagar, Maharani Peta, Visakhapatnam, Andhra Pradesh 530002, India",
    "neighborhood": "Krishnagar, Krishna Nagar, Maharani Peta",
    "city": "Visakhapatnam",
    "postalCode": "530002",
    "state": "Andhra Pradesh",
    "countryCode": "IN",
    "website": "https://lovelyselfdrivingcars.com/",
    "phone": "+919182353206",
    "phoneUnformatted": "+919182353206",
    "location": {
      "lat": 17.7107497,
      "lng": 83.3131855
    },
    "totalScore": 4.9,
    "permanentlyClosed": false,
    "temporarilyClosed": false,
    "placeId": "ChIJvf3oY4JDOToRuuQP0Vo8I9w",
    "categories": [
      "Car rental agency",
      "Car leasing service"
    ],
    "reviewsCount": 440,
    "imagesCount": 97,
    "openingHours": [
      {
        "day": "Monday",
        "hours": "Open 24 hours"
      },
      {
        "day": "Tuesday",
        "hours": "Open 24 hours"
      },
      {
        "day": "Wednesday",
        "hours": "Open 24 hours"
      },
      {
        "day": "Thursday",
        "hours": "Open 24 hours"
      },
      {
        "day": "Friday",
        "hours": "Open 24 hours"
      },
      {
        "day": "Saturday",
        "hours": "Open 24 hours"
      },
      {
        "day": "Sunday",
        "hours": "Open 24 hours"
      }
    ],
    "imageUrl": "https://media.indianluxurycars.com/google/e9bd1b9a4a141e9a93bd049e2b0266c223e9dc16acf78f427e2e6d8692a11f58.jpg",
    "url": "https://www.google.com/maps/search/?api=1&query=Lovely%20self%20driving%20cars%20and%20bikes%20rentals&query_place_id=ChIJvf3oY4JDOToRuuQP0Vo8I9w"
  },
  {
    "title": "Maruthi Ertiga - Luxury Car Rental Visakhapatnam - Long Drive Cars App",
    "categoryName": "Car leasing service",
    "address": "10-28-2/1, Srinivasa Nagar, Ram Nagar, Visakhapatnam, Andhra Pradesh 530003, India",
    "neighborhood": "Srinivasa Nagar, Ram Nagar",
    "street": "10-28-2/1",
    "city": "Visakhapatnam",
    "postalCode": "530003",
    "state": "Andhra Pradesh",
    "countryCode": "IN",
    "website": "https://www.longdrivecars.com/",
    "phone": "+919000478478",
    "phoneUnformatted": "+919000478478",
    "location": {
      "lat": 17.720903,
      "lng": 83.312999
    },
    "permanentlyClosed": false,
    "temporarilyClosed": false,
    "placeId": "ChIJWx0gyENDOToRu8ouXQ6esfs",
    "categories": [
      "Car leasing service"
    ],
    "imagesCount": 1,
    "openingHours": [
      {
        "day": "Monday",
        "hours": "Open 24 hours"
      },
      {
        "day": "Tuesday",
        "hours": "Open 24 hours"
      },
      {
        "day": "Wednesday",
        "hours": "Open 24 hours"
      },
      {
        "day": "Thursday",
        "hours": "Open 24 hours"
      },
      {
        "day": "Friday",
        "hours": "Open 24 hours"
      },
      {
        "day": "Saturday",
        "hours": "Open 24 hours"
      },
      {
        "day": "Sunday",
        "hours": "Open 24 hours"
      }
    ],
    "imageUrl": "https://media.indianluxurycars.com/google/4bdc65273552ff75ed522126305745254d1099b763a92e7146e7eba713e80be9.jpg",
    "url": "https://www.google.com/maps/search/?api=1&query=Maruthi%20Ertiga%20-%20Luxury%20Car%20Rental%20Visakhapatnam%20-%20Long%20Drive%20Cars%20App&query_place_id=ChIJWx0gyENDOToRu8ouXQ6esfs"
  },
  {
    "title": "NamasCar Self Drive or Car rental",
    "categoryName": "Car rental agency",
    "address": "Cellar 30-15-12, Danburu Manstion, near Saraswati Park Road, Daba Gardens, Allipuram, Visakhapatnam, Andhra Pradesh 530020, India",
    "neighborhood": "Daba Gardens, Allipuram",
    "street": "Cellar 30-15-12, Danburu Manstion, near Saraswati Park Road",
    "city": "Visakhapatnam",
    "postalCode": "530020",
    "state": "Andhra Pradesh",
    "countryCode": "IN",
    "location": {
      "lat": 17.7137434,
      "lng": 83.2994657
    },
    "permanentlyClosed": false,
    "temporarilyClosed": false,
    "placeId": "ChIJv29X7otDOToRHPilVdvnHUY",
    "categories": [
      "Car rental agency",
      "Car leasing service"
    ],
    "imagesCount": 17,
    "openingHours": [],
    "imageUrl": "https://media.indianluxurycars.com/google/ae7c290c9c88914cc08958c9c2aa8c06946112bf9cda77cb9142e6d3d77bc736.jpg",
    "url": "https://www.google.com/maps/search/?api=1&query=NamasCar%20Self%20Drive%20or%20Car%20rental&query_place_id=ChIJv29X7otDOToRHPilVdvnHUY"
  },
  {
    "title": "Nitin Caars",
    "subTitle": "నితిన్ కార్స్",
    "categoryName": "Car leasing service",
    "address": "46-15-13/1, 16, Railway New Colony Rd, Dondaparthy, Visakhapatnam, Andhra Pradesh 530016, India",
    "neighborhood": "Dondaparthy, Railway New Colony",
    "street": "46-15-13/1, 16, Railway New Colony Rd",
    "city": "Visakhapatnam",
    "postalCode": "530016",
    "state": "Andhra Pradesh",
    "countryCode": "IN",
    "website": "http://www.nitincaars.com/",
    "phone": "+917337382299",
    "phoneUnformatted": "+917337382299",
    "location": {
      "lat": 17.7272479,
      "lng": 83.29878
    },
    "totalScore": 3.1,
    "permanentlyClosed": false,
    "temporarilyClosed": false,
    "placeId": "ChIJzdNqNSNDOToRs6mk8y1An9w",
    "categories": [
      "Car leasing service",
      "Taxi service"
    ],
    "reviewsCount": 12,
    "imagesCount": 168,
    "openingHours": [
      {
        "day": "Monday",
        "hours": "Open 24 hours"
      },
      {
        "day": "Tuesday",
        "hours": "Open 24 hours"
      },
      {
        "day": "Wednesday",
        "hours": "Open 24 hours"
      },
      {
        "day": "Thursday",
        "hours": "Open 24 hours"
      },
      {
        "day": "Friday",
        "hours": "Open 24 hours"
      },
      {
        "day": "Saturday",
        "hours": "Open 24 hours"
      },
      {
        "day": "Sunday",
        "hours": "Open 24 hours"
      }
    ],
    "imageUrl": "https://media.indianluxurycars.com/google/413998f656d805ba7efd2dc679a9dfac3066734115d4efc041894d16ea6b783c.jpg",
    "url": "https://www.google.com/maps/search/?api=1&query=Nitin%20Caars&query_place_id=ChIJzdNqNSNDOToRs6mk8y1An9w"
  },
  {
    "title": "Prayyan Group",
    "subTitle": "ప్రయ్యన్ గ్రూప్",
    "categoryName": "Car rental agency",
    "address": "First Floor, Jio Store building, opp. vijay sales, Dondaparthy, Junction, Visakhapatnam, Andhra Pradesh 530016, India",
    "neighborhood": "Opposite T.M.C., Dondaparthy, Junction",
    "street": "First Floor, Jio Store building, opp. vijay sales",
    "city": "Visakhapatnam",
    "postalCode": "530016",
    "state": "Andhra Pradesh",
    "countryCode": "IN",
    "website": "https://prayyan.com/",
    "phone": "+917277794449",
    "phoneUnformatted": "+917277794449",
    "location": {
      "lat": 17.7272152,
      "lng": 83.3002084
    },
    "totalScore": 5,
    "permanentlyClosed": false,
    "temporarilyClosed": false,
    "placeId": "ChIJWYkYqRZDOToRDhpJ04uObHo",
    "categories": [
      "Car rental agency",
      "Airport shuttle service",
      "Extended stay hotel",
      "Hotel",
      "Lodging",
      "Motorcycle rental agency",
      "Student dormitory",
      "Taxi service",
      "Tour operator",
      "Travel agency"
    ],
    "reviewsCount": 5,
    "imagesCount": 8,
    "openingHours": [],
    "imageUrl": "https://media.indianluxurycars.com/google/a2adbc302c992b91b8f3eb40be5d34cc0235c3570829f2a7f42ec1402436e385.jpg",
    "url": "https://www.google.com/maps/search/?api=1&query=Prayyan%20Group&query_place_id=ChIJWYkYqRZDOToRDhpJ04uObHo"
  },
  {
    "title": "RC SELF DRIVE CARS VISAKHAPATNAM - CAR RENTALS",
    "categoryName": "Car rental agency",
    "address": "27-4-37, opp. super bazaar, Opp. Super Bazar Main Road, Jagadamba Junction, Visakhapatnam, Andhra Pradesh 530002, India",
    "neighborhood": "Opp. Super Bazar Main Road, Jagadamba Junction",
    "street": "27-4-37, opp. super bazaar",
    "city": "Visakhapatnam",
    "postalCode": "530002",
    "state": "Andhra Pradesh",
    "countryCode": "IN",
    "phone": "+919052929409",
    "phoneUnformatted": "+919052929409",
    "location": {
      "lat": 17.7089062,
      "lng": 83.3002361
    },
    "totalScore": 5,
    "permanentlyClosed": false,
    "temporarilyClosed": false,
    "placeId": "ChIJJbpCVv9DOToR32mgklUYfWg",
    "categories": [
      "Car rental agency"
    ],
    "reviewsCount": 335,
    "imagesCount": 37,
    "openingHours": [
      {
        "day": "Monday",
        "hours": "Open 24 hours"
      },
      {
        "day": "Tuesday",
        "hours": "Open 24 hours"
      },
      {
        "day": "Wednesday",
        "hours": "Open 24 hours"
      },
      {
        "day": "Thursday",
        "hours": "Open 24 hours"
      },
      {
        "day": "Friday",
        "hours": "Open 24 hours"
      },
      {
        "day": "Saturday",
        "hours": "Open 24 hours"
      },
      {
        "day": "Sunday",
        "hours": "Open 24 hours"
      }
    ],
    "imageUrl": "https://media.indianluxurycars.com/google/08328a13583f2ae9a74059f21aac44b4d9c795e22fccefc39245f7b059cbd845.jpg",
    "url": "https://www.google.com/maps/search/?api=1&query=RC%20SELF%20DRIVE%20CARS%20VISAKHAPATNAM%20-%20CAR%20RENTALS&query_place_id=ChIJJbpCVv9DOToR32mgklUYfWg"
  },
  {
    "title": "Shiva Shakthi bus Travels | tempo travelers | mini bus rentals| luxury bus rentals",
    "subTitle": "శివ శక్తి కార్ ట్రావెల్స్",
    "categoryName": "Car rental agency",
    "address": "44-5-15/1, near Sakshi ganapathi Temple, Dondaparthy, Ward-42, Visakhapatnam, Andhra Pradesh 530016, India",
    "neighborhood": "Dondaparthy, Ward-42",
    "street": "44-5-15/1, near Sakshi ganapathi Temple",
    "city": "Visakhapatnam",
    "postalCode": "530016",
    "state": "Andhra Pradesh",
    "countryCode": "IN",
    "website": "https://shivashakticartravels.in/",
    "phone": "+919848256004",
    "phoneUnformatted": "+919848256004",
    "location": {
      "lat": 17.7292984,
      "lng": 83.3014749
    },
    "totalScore": 4.6,
    "permanentlyClosed": false,
    "temporarilyClosed": false,
    "placeId": "ChIJkx8DHNdCOToRMjW1UgS6Mjg",
    "categories": [
      "Car rental agency",
      "Bus company",
      "Bus ticket agency",
      "Bus tour agency",
      "Minibus taxi service",
      "Tour agency",
      "Travel agency"
    ],
    "reviewsCount": 263,
    "imagesCount": 29,
    "openingHours": [
      {
        "day": "Monday",
        "hours": "Open 24 hours"
      },
      {
        "day": "Tuesday",
        "hours": "Open 24 hours"
      },
      {
        "day": "Wednesday",
        "hours": "Open 24 hours"
      },
      {
        "day": "Thursday",
        "hours": "Open 24 hours"
      },
      {
        "day": "Friday",
        "hours": "Open 24 hours"
      },
      {
        "day": "Saturday",
        "hours": "Open 24 hours"
      },
      {
        "day": "Sunday",
        "hours": "Open 24 hours"
      }
    ],
    "imageUrl": "https://media.indianluxurycars.com/google/d3db5cb475f826348ab3800d0158b2a8e39c35489a5a596d0c03960040fcafc2.png",
    "url": "https://www.google.com/maps/search/?api=1&query=Shiva%20Shakthi%20bus%20Travels%20%7C%20tempo%20travelers%20%7C%20mini%20bus%20rentals%7C%20luxury%20bus%20rentals&query_place_id=ChIJkx8DHNdCOToRMjW1UgS6Mjg"
  },
  {
    "title": "Southern Travels Pvt. Ltd. Visakhapatnam, Andhra Pradesh",
    "categoryName": "Car rental agency",
    "address": "Dwaraka Plaza, First Floor, D-2 Block, Plot No: 179-B & 190-B, 2nd Ln, Visakhapatnam, Andhra Pradesh 530016, India",
    "neighborhood": "Enclave, Dwaraka Nagar",
    "street": "Dwaraka Plaza, First Floor, D-2 Block, Plot No: 179-B & 190-B, 2nd Ln",
    "city": "Visakhapatnam",
    "postalCode": "530016",
    "state": "Andhra Pradesh",
    "countryCode": "IN",
    "website": "http://www.southerntravels.com/",
    "phone": "+919912123236",
    "phoneUnformatted": "+919912123236",
    "location": {
      "lat": 17.7273128,
      "lng": 83.3062202
    },
    "totalScore": 4,
    "permanentlyClosed": false,
    "temporarilyClosed": false,
    "placeId": "ChIJVb3_37FpOToR09OJh3_v2Bs",
    "categories": [
      "Car rental agency",
      "Travel agency",
      "Tour operator"
    ],
    "reviewsCount": 131,
    "imagesCount": 185,
    "openingHours": [
      {
        "day": "Monday",
        "hours": "10 AM to 8 PM"
      },
      {
        "day": "Tuesday",
        "hours": "10 AM to 8 PM"
      },
      {
        "day": "Wednesday",
        "hours": "10 AM to 8 PM"
      },
      {
        "day": "Thursday",
        "hours": "10 AM to 8 PM"
      },
      {
        "day": "Friday",
        "hours": "10 AM to 8 PM"
      },
      {
        "day": "Saturday",
        "hours": "10 AM to 8 PM"
      },
      {
        "day": "Sunday",
        "hours": "Closed"
      }
    ],
    "imageUrl": "https://media.indianluxurycars.com/google/07a98282c52ef1d69b957516ede8fe6b8693b670fd7bcb1cd1a98d894ce033e7.jpg",
    "url": "https://www.google.com/maps/search/?api=1&query=Southern%20Travels%20Pvt.%20Ltd.%20Visakhapatnam%2C%20Andhra%20Pradesh&query_place_id=ChIJVb3_37FpOToR09OJh3_v2Bs"
  },
  {
    "title": "Spicy Tours And Travels",
    "subTitle": "స్పైసి టూర్స్ అండ్ ట్రావెల్స్",
    "categoryName": "Car rental agency",
    "address": "Main Rd, Near srisurya theatre, Dondaparthy, Railway New Colony, Visakhapatnam, Andhra Pradesh 530016, India",
    "neighborhood": "Dondaparthy, Railway New Colony",
    "street": "Main Rd, Near srisurya theatre",
    "city": "Visakhapatnam",
    "postalCode": "530016",
    "state": "Andhra Pradesh",
    "countryCode": "IN",
    "location": {
      "lat": 17.7267623,
      "lng": 83.2991218
    },
    "totalScore": 5,
    "permanentlyClosed": false,
    "temporarilyClosed": false,
    "placeId": "ChIJY12bBiRDOToRA_ausKcRdKQ",
    "categories": [
      "Car rental agency",
      "Car leasing service",
      "Taxi service"
    ],
    "reviewsCount": 3,
    "imagesCount": 1,
    "openingHours": [
      {
        "day": "Monday",
        "hours": "Open 24 hours"
      },
      {
        "day": "Tuesday",
        "hours": "Open 24 hours"
      },
      {
        "day": "Wednesday",
        "hours": "Open 24 hours"
      },
      {
        "day": "Thursday",
        "hours": "Open 24 hours"
      },
      {
        "day": "Friday",
        "hours": "Open 24 hours"
      },
      {
        "day": "Saturday",
        "hours": "Open 24 hours"
      },
      {
        "day": "Sunday",
        "hours": "Open 24 hours"
      }
    ],
    "imageUrl": "https://media.indianluxurycars.com/google/133feeba4c9c1233084bf5d7fe61200cdc7f959a826d28bd972a21a07abd83a8.jpg",
    "url": "https://www.google.com/maps/search/?api=1&query=Spicy%20Tours%20And%20Travels&query_place_id=ChIJY12bBiRDOToRA_ausKcRdKQ"
  },
  {
    "title": "Sri Surya Cars",
    "subTitle": "శ్రీ సూర్య కార్లు",
    "categoryName": "Used car dealer",
    "address": "near Prism Degree College, Rajendra Nagar, Seetamma Peta, Seethammapeta, Visakhapatnam, Andhra Pradesh 530016, India",
    "neighborhood": "Rajendra Nagar, Seetamma Peta, Seethammapeta",
    "street": "near Prism Degree College",
    "city": "Visakhapatnam",
    "postalCode": "530016",
    "state": "Andhra Pradesh",
    "countryCode": "IN",
    "phone": "+919849213344",
    "phoneUnformatted": "+919849213344",
    "location": {
      "lat": 17.7312664,
      "lng": 83.3081422
    },
    "totalScore": 4.9,
    "permanentlyClosed": false,
    "temporarilyClosed": false,
    "placeId": "ChIJM4EkeSNDOToRoc1ft6WS-c0",
    "categories": [
      "Used car dealer",
      "Car finance and loan company",
      "Loan agency"
    ],
    "reviewsCount": 130,
    "imagesCount": 16,
    "openingHours": [
      {
        "day": "Monday",
        "hours": "9 AM to 8 PM"
      },
      {
        "day": "Tuesday",
        "hours": "9 AM to 8 PM"
      },
      {
        "day": "Wednesday",
        "hours": "9 AM to 8 PM"
      },
      {
        "day": "Thursday",
        "hours": "9 AM to 8 PM"
      },
      {
        "day": "Friday",
        "hours": "9 AM to 8 PM"
      },
      {
        "day": "Saturday",
        "hours": "9 AM to 8 PM"
      },
      {
        "day": "Sunday",
        "hours": "9 AM to 1 PM"
      }
    ],
    "imageUrl": "https://media.indianluxurycars.com/google/d456e245b08b502c1c6ea8148c82a289554a4aff00771e06f204027c8bc1cb34.jpg",
    "url": "https://www.google.com/maps/search/?api=1&query=Sri%20Surya%20Cars&query_place_id=ChIJM4EkeSNDOToRoc1ft6WS-c0"
  },
  {
    "title": "SVK Car & Bike Rentals in Vizag",
    "categoryName": "Car rental agency",
    "address": "43-6-1, Sri Siddi Enclave, Railway New Colony, Visakhapatnam, Andhra Pradesh 530016, India",
    "neighborhood": "Sri Siddi Enclave, Railway New Colony",
    "street": "43-6-1",
    "city": "Visakhapatnam",
    "postalCode": "530016",
    "state": "Andhra Pradesh",
    "countryCode": "IN",
    "website": "https://www.svkgroup.net/",
    "phone": "+918466099883",
    "phoneUnformatted": "+918466099883",
    "location": {
      "lat": 17.7281693,
      "lng": 83.292007
    },
    "totalScore": 4.8,
    "permanentlyClosed": false,
    "temporarilyClosed": false,
    "placeId": "ChIJs_rwUxZDOToRiNfoTVOORLU",
    "categories": [
      "Car rental agency",
      "Car leasing service",
      "Motorcycle rental agency",
      "Scooter rental service",
      "Taxi service"
    ],
    "reviewsCount": 1437,
    "imagesCount": 208,
    "openingHours": [
      {
        "day": "Monday",
        "hours": "Open 24 hours"
      },
      {
        "day": "Tuesday",
        "hours": "Open 24 hours"
      },
      {
        "day": "Wednesday",
        "hours": "Open 24 hours"
      },
      {
        "day": "Thursday",
        "hours": "Open 24 hours"
      },
      {
        "day": "Friday",
        "hours": "Open 24 hours"
      },
      {
        "day": "Saturday",
        "hours": "Open 24 hours"
      },
      {
        "day": "Sunday",
        "hours": "Open 24 hours"
      }
    ],
    "imageUrl": "https://media.indianluxurycars.com/google/6f04ebbbc7d9b7a16610b46142fb5b56ad61d9c69aa729010130c5e63545ede3.jpg",
    "url": "https://www.google.com/maps/search/?api=1&query=SVK%20Car%20%26%20Bike%20Rentals%20in%20Vizag&query_place_id=ChIJs_rwUxZDOToRiNfoTVOORLU"
  },
  {
    "title": "SVK Tours and Travels - Best Taxi Service, Mini Bus, Tempo Traveller, Cabs In Vizag",
    "subTitle": "SVK టూర్స్ అండ్ ట్రావెల్స్ - బెస్ట్ టాక్సీ సర్వీస్, మిని బస్, టెంపో ట్రవెల్లెర్, క్యాబ్స్ ఇన్ వైజాగ్",
    "categoryName": "Car leasing service",
    "address": "Thatichetlapalem, Boyapalem, Visakhapatnam, Andhra Pradesh 530008, India",
    "neighborhood": "Thatichetlapalem, Boyapalem",
    "city": "Visakhapatnam",
    "postalCode": "530008",
    "state": "Andhra Pradesh",
    "countryCode": "IN",
    "website": "https://www.svkgroup.net/",
    "phone": "+918466099883",
    "phoneUnformatted": "+918466099883",
    "location": {
      "lat": 17.7364236,
      "lng": 83.2909064
    },
    "totalScore": 4.9,
    "permanentlyClosed": false,
    "temporarilyClosed": false,
    "placeId": "ChIJ_RdlYNZCOToRSvW6oucYIE8",
    "categories": [
      "Car leasing service",
      "Bus tour agency",
      "Taxi service",
      "Minibus taxi service",
      "Sightseeing tour agency",
      "Tour operator",
      "Tourist attraction",
      "Van rental agency"
    ],
    "reviewsCount": 143,
    "imagesCount": 45,
    "openingHours": [],
    "imageUrl": "https://media.indianluxurycars.com/google/c7f950767b5b420d84904d1261f20cc4b073feb71ff9f80c65d3d60eebd2bc4f.jpg",
    "url": "https://www.google.com/maps/search/?api=1&query=SVK%20Tours%20and%20Travels%20-%20Best%20Taxi%20Service%2C%20Mini%20Bus%2C%20Tempo%20Traveller%2C%20Cabs%20In%20Vizag&query_place_id=ChIJ_RdlYNZCOToRSvW6oucYIE8"
  },
  {
    "title": "U Cars Services Pvt Ltd",
    "categoryName": "Car rental agency",
    "address": "3rd Floor, Bhuvaneswari Plaza, 2nd Ln, opposite Kotak Mahindra Bank, Dondaparthy, Dwaraka Nagar, Visakhapatnam, Andhra Pradesh 530016, India",
    "neighborhood": "Dondaparthy, Dwaraka Nagar",
    "street": "3rd Floor, Bhuvaneswari Plaza, 2nd Ln, opposite Kotak Mahindra Bank",
    "city": "Visakhapatnam",
    "postalCode": "530016",
    "state": "Andhra Pradesh",
    "countryCode": "IN",
    "phone": "+919676521360",
    "phoneUnformatted": "+919676521360",
    "location": {
      "lat": 17.7272651,
      "lng": 83.3020532
    },
    "totalScore": 3.9,
    "permanentlyClosed": false,
    "temporarilyClosed": false,
    "placeId": "ChIJNchD7tZDOToRYabwLrOyCNA",
    "categories": [
      "Car rental agency",
      "Car leasing service"
    ],
    "reviewsCount": 87,
    "imagesCount": 25,
    "openingHours": [
      {
        "day": "Monday",
        "hours": "Open 24 hours"
      },
      {
        "day": "Tuesday",
        "hours": "Open 24 hours"
      },
      {
        "day": "Wednesday",
        "hours": "Open 24 hours"
      },
      {
        "day": "Thursday",
        "hours": "Open 24 hours"
      },
      {
        "day": "Friday",
        "hours": "Open 24 hours"
      },
      {
        "day": "Saturday",
        "hours": "Open 24 hours"
      },
      {
        "day": "Sunday",
        "hours": "Open 24 hours"
      }
    ],
    "imageUrl": "https://media.indianluxurycars.com/google/182fb7590a5cf902d659f99104850ecdd7cd362d3d5daba4420979aeaa88c19d.jpg",
    "url": "https://www.google.com/maps/search/?api=1&query=U%20Cars%20Services%20Pvt%20Ltd&query_place_id=ChIJNchD7tZDOToRYabwLrOyCNA"
  },
  {
    "title": "Vasant motors exclusive Daspalla Hills branch",
    "categoryName": "Car repair and maintenance service",
    "address": "no 300, 11-8-1/3, Nowroji Road, Street, Daspalla Hills, Ram Nagar, Visakhapatnam, Andhra Pradesh 530002, India",
    "neighborhood": "Daspalla Hills, Ram Nagar",
    "street": "no 300, 11-8-1/3, Nowroji Road, Street",
    "city": "Visakhapatnam",
    "postalCode": "530002",
    "state": "Andhra Pradesh",
    "countryCode": "IN",
    "website": "https://vasantmotorsvizag.com/",
    "phone": "+919859360360",
    "phoneUnformatted": "+919859360360",
    "location": {
      "lat": 17.7159538,
      "lng": 83.310717
    },
    "totalScore": 4.5,
    "permanentlyClosed": false,
    "temporarilyClosed": false,
    "placeId": "ChIJHaEMIbZDOToRi1mHskIQppM",
    "categories": [
      "Car repair and maintenance service",
      "Car dealer"
    ],
    "reviewsCount": 54,
    "imagesCount": 43,
    "openingHours": [
      {
        "day": "Monday",
        "hours": "8 AM to 8 PM"
      },
      {
        "day": "Tuesday",
        "hours": "8 AM to 8 PM"
      },
      {
        "day": "Wednesday",
        "hours": "8 AM to 8 PM"
      },
      {
        "day": "Thursday",
        "hours": "8 AM to 8 PM"
      },
      {
        "day": "Friday",
        "hours": "8 AM to 8 PM"
      },
      {
        "day": "Saturday",
        "hours": "8 AM to 8 PM"
      },
      {
        "day": "Sunday",
        "hours": "Closed"
      }
    ],
    "imageUrl": "https://media.indianluxurycars.com/google/8e16c0b205087dc46accf66c554f0593375f6fe43d62822de884787ef6d2f573.jpg",
    "url": "https://www.google.com/maps/search/?api=1&query=Vasant%20motors%20exclusive%20Daspalla%20Hills%20branch&query_place_id=ChIJHaEMIbZDOToRi1mHskIQppM"
  },
  {
    "title": "Yelamadevi tours and travels only cars",
    "categoryName": "Car leasing service",
    "address": "Railway station Railway station, HPCL Steel Plant, Visakhapatnam, Andhra Pradesh 530001, India",
    "neighborhood": "HPCL Steel Plant",
    "street": "Railway station Railway station",
    "city": "Visakhapatnam",
    "postalCode": "530001",
    "state": "Andhra Pradesh",
    "countryCode": "IN",
    "phone": "+916302682094",
    "phoneUnformatted": "+916302682094",
    "location": {
      "lat": 17.7165154,
      "lng": 83.2894062
    },
    "totalScore": 5,
    "permanentlyClosed": false,
    "temporarilyClosed": false,
    "placeId": "ChIJGxLhmKdDOToRMqatH74qru0",
    "categories": [
      "Car leasing service"
    ],
    "reviewsCount": 54,
    "imagesCount": 33,
    "openingHours": [
      {
        "day": "Monday",
        "hours": "Open 24 hours"
      },
      {
        "day": "Tuesday",
        "hours": "Open 24 hours"
      },
      {
        "day": "Wednesday",
        "hours": "Open 24 hours"
      },
      {
        "day": "Thursday",
        "hours": "Open 24 hours"
      },
      {
        "day": "Friday",
        "hours": "Open 24 hours"
      },
      {
        "day": "Saturday",
        "hours": "Open 24 hours"
      },
      {
        "day": "Sunday",
        "hours": "Open 24 hours"
      }
    ],
    "imageUrl": "https://media.indianluxurycars.com/google/67975910be712bdfc1e8bf2fa382c78b3459835e50e7c1c5c3e95883fbe1916a.jpg",
    "url": "https://www.google.com/maps/search/?api=1&query=Yelamadevi%20tours%20and%20travels%20only%20cars&query_place_id=ChIJGxLhmKdDOToRMqatH74qru0"
  }
]
