[
  {
    "title": "Blue self drive cars",
    "categoryName": "Car rental agency",
    "address": "XJW5+G7J, Desaipet Rd, Navayuga Colony, Warangal, Telangana 506006, India",
    "neighborhood": "Navayuga Colony",
    "street": "XJW5+G7J, Desaipet Rd",
    "city": "Warangal",
    "postalCode": "506006",
    "state": "Telangana",
    "countryCode": "IN",
    "location": {
      "lat": 17.9963339,
      "lng": 79.6081543
    },
    "totalScore": 5,
    "permanentlyClosed": false,
    "temporarilyClosed": false,
    "placeId": "ChIJQWaNZwBFMzoRdkl69-T1Eko",
    "categories": [
      "Car rental agency"
    ],
    "reviewsCount": 2,
    "imagesCount": 5,
    "openingHours": [
      {
        "day": "Monday",
        "hours": "Open 24 hours"
      },
      {
        "day": "Tuesday",
        "hours": "Open 24 hours"
      },
      {
        "day": "Wednesday",
        "hours": "Open 24 hours"
      },
      {
        "day": "Thursday",
        "hours": "Open 24 hours"
      },
      {
        "day": "Friday",
        "hours": "Open 24 hours"
      },
      {
        "day": "Saturday",
        "hours": "Open 24 hours"
      },
      {
        "day": "Sunday",
        "hours": "Open 24 hours"
      }
    ],
    "imageUrl": "https://media.indianluxurycars.com/google/897e0f34269e480801c1e0df1d37a385733b492f8bb2deedd1c190e82c220814.jpg",
    "url": "https://www.google.com/maps/search/?api=1&query=Blue%20self%20drive%20cars&query_place_id=ChIJQWaNZwBFMzoRdkl69-T1Eko"
  },
  {
    "title": "Eicher Trucks and Buses - VVC Motors",
    "categoryName": "Truck dealer",
    "address": "Shop No 387A, 387B, 766 Bhattupally Road, near AV Motors, Urus Shivar, Shambunipet, Warangal, Telangana 506005, India",
    "neighborhood": "Urus Shivar, Shambunipet",
    "street": "Shop No 387A, 387B, 766 Bhattupally Road, near AV Motors",
    "city": "Warangal",
    "postalCode": "506005",
    "state": "Telangana",
    "countryCode": "IN",
    "website": "https://www.eichertrucksandbuses.com/?utm_source=gmb&utm_medium=google&utm_campaign=seo-local",
    "phone": "+918037839427",
    "phoneUnformatted": "+918037839427",
    "location": {
      "lat": 17.9440091,
      "lng": 79.6057484
    },
    "totalScore": 5,
    "permanentlyClosed": false,
    "temporarilyClosed": false,
    "placeId": "ChIJSVGpkYdFMzoRvcQFBQNqSpY",
    "categories": [
      "Truck dealer",
      "Motor vehicle dealer",
      "Truck parts supplier",
      "Truck repair shop"
    ],
    "reviewsCount": 2,
    "imagesCount": 10,
    "openingHours": [
      {
        "day": "Monday",
        "hours": "9 AM to 6:30 PM"
      },
      {
        "day": "Tuesday",
        "hours": "9 AM to 6:30 PM"
      },
      {
        "day": "Wednesday",
        "hours": "9 AM to 6:30 PM"
      },
      {
        "day": "Thursday",
        "hours": "9 AM to 6:30 PM"
      },
      {
        "day": "Friday",
        "hours": "9 AM to 6:30 PM"
      },
      {
        "day": "Saturday",
        "hours": "9 AM to 6:30 PM"
      },
      {
        "day": "Sunday",
        "hours": "9 AM to 6:30 PM"
      }
    ],
    "imageUrl": "https://media.indianluxurycars.com/google/72f569478ceb382c4ef527f48abfca8cdb5957812947cb9fe4a03d8cedce1c01.jpg",
    "url": "https://www.google.com/maps/search/?api=1&query=Eicher%20Trucks%20and%20Buses%20-%20VVC%20Motors&query_place_id=ChIJSVGpkYdFMzoRvcQFBQNqSpY"
  },
  {
    "title": "Indian Tours&Travels",
    "categoryName": "Car rental agency",
    "address": "near Abnus function hall, beside Dhruva junior college, Krishna Nagar, LB Nagar, Warangal, Telangana 506002, India",
    "neighborhood": "Krishna Nagar, LB Nagar",
    "street": "near Abnus function hall, beside Dhruva junior college",
    "city": "Warangal",
    "postalCode": "506002",
    "state": "Telangana",
    "countryCode": "IN",
    "phone": "+918328306213",
    "phoneUnformatted": "+918328306213",
    "location": {
      "lat": 17.9878249,
      "lng": 79.6025332
    },
    "totalScore": 4.9,
    "permanentlyClosed": false,
    "temporarilyClosed": false,
    "placeId": "ChIJGSy15_RFMzoR6_5CazBC-1o",
    "categories": [
      "Car rental agency",
      "Airport shuttle service",
      "Car leasing service",
      "Taxi service",
      "Travel agency"
    ],
    "reviewsCount": 92,
    "imagesCount": 207,
    "openingHours": [],
    "imageUrl": "https://media.indianluxurycars.com/google/d0363a06a516dc1cc15d045481043ef9f2d42903e99f7f141c49bc6eddaa0b6f.jpg",
    "url": "https://www.google.com/maps/search/?api=1&query=Indian%20Tours%26Travels&query_place_id=ChIJGSy15_RFMzoR6_5CazBC-1o"
  },
  {
    "title": "Karthikeya cars",
    "subTitle": "కార్తికేయ కార్లు",
    "categoryName": "Used car dealer",
    "address": "23-6-144/F/E, Hanamkonda, Hunter Road, Opp Greenwood School, Telangana 506001, India",
    "neighborhood": "Ramannapet",
    "street": "23-6-144/F/E, Hanamkonda, Hunter Road, Opp Greenwood School",
    "city": "Warangal",
    "postalCode": "506001",
    "state": "Telangana",
    "countryCode": "IN",
    "phone": "+919849371226",
    "phoneUnformatted": "+919849371226",
    "location": {
      "lat": 17.9778739,
      "lng": 79.5807955
    },
    "totalScore": 5,
    "permanentlyClosed": false,
    "temporarilyClosed": false,
    "placeId": "ChIJw6gqQUBFMzoR8CHf7kcMfSw",
    "categories": [
      "Used car dealer"
    ],
    "reviewsCount": 2,
    "imagesCount": 7,
    "openingHours": [
      {
        "day": "Monday",
        "hours": "10 AM to 8 PM"
      },
      {
        "day": "Tuesday",
        "hours": "10 AM to 8 PM"
      },
      {
        "day": "Wednesday",
        "hours": "10 AM to 8 PM"
      },
      {
        "day": "Thursday",
        "hours": "10 AM to 8 PM"
      },
      {
        "day": "Friday",
        "hours": "10 AM to 8 PM"
      },
      {
        "day": "Saturday",
        "hours": "10 AM to 8 PM"
      },
      {
        "day": "Sunday",
        "hours": "10 AM to 6:30 PM"
      }
    ],
    "imageUrl": "https://media.indianluxurycars.com/google/89f8cf85f9f9062915136403dc9d1fc7693d3b16cf83de87d0ee2c3befc69751.jpg",
    "url": "https://www.google.com/maps/search/?api=1&query=Karthikeya%20cars&query_place_id=ChIJw6gqQUBFMzoR8CHf7kcMfSw"
  },
  {
    "title": "New Golden Travels",
    "categoryName": "Car rental agency",
    "address": "Mig- 406, Keerthi Nagar Colony, Keerthi Colony, Warangal, Telangana 506013, India",
    "neighborhood": "Keerthi Nagar Colony, Keerthi Colony",
    "street": "Mig- 406",
    "city": "Warangal",
    "postalCode": "506013",
    "state": "Telangana",
    "countryCode": "IN",
    "phone": "+916300133080",
    "phoneUnformatted": "+916300133080",
    "location": {
      "lat": 17.9763181,
      "lng": 79.630426
    },
    "totalScore": 5,
    "permanentlyClosed": false,
    "temporarilyClosed": false,
    "placeId": "ChIJw02if6lFMzoR3syrUr7hkY8",
    "categories": [
      "Car rental agency",
      "Travel agency",
      "Taxi service"
    ],
    "reviewsCount": 369,
    "imagesCount": 236,
    "openingHours": [
      {
        "day": "Monday",
        "hours": "Open 24 hours"
      },
      {
        "day": "Tuesday",
        "hours": "Open 24 hours"
      },
      {
        "day": "Wednesday",
        "hours": "Open 24 hours"
      },
      {
        "day": "Thursday",
        "hours": "Open 24 hours"
      },
      {
        "day": "Friday",
        "hours": "Open 24 hours"
      },
      {
        "day": "Saturday",
        "hours": "Open 24 hours"
      },
      {
        "day": "Sunday",
        "hours": "Open 24 hours"
      }
    ],
    "imageUrl": "https://media.indianluxurycars.com/google/0a5be028c1563db00d327211ed71b7ba0fd6bb22551b02c111a64f265a447190.jpg",
    "url": "https://www.google.com/maps/search/?api=1&query=New%20Golden%20Travels&query_place_id=ChIJw02if6lFMzoR3syrUr7hkY8"
  },
  {
    "title": "TELANGANA USED CAR SHOWROOM",
    "subTitle": "తెలంగాణ వాడిన కారు షోరూమ్",
    "categoryName": "Used car dealer",
    "address": "Hno.23-6-144/c .opp:green wood school, Hunter Road, Warangal, Telangana 506001, India",
    "neighborhood": "Ramannapet",
    "street": "Hno.23-6-144/c .opp:green wood school, Hunter Road",
    "city": "Warangal",
    "postalCode": "506001",
    "state": "Telangana",
    "countryCode": "IN",
    "phone": "+919849458142",
    "phoneUnformatted": "+919849458142",
    "location": {
      "lat": 17.976801,
      "lng": 79.582002
    },
    "totalScore": 3.9,
    "permanentlyClosed": false,
    "temporarilyClosed": true,
    "placeId": "ChIJ2zOrEjxFMzoRpdCJBn6JVDM",
    "categories": [
      "Used car dealer"
    ],
    "reviewsCount": 17,
    "imagesCount": 108,
    "openingHours": [],
    "imageUrl": "https://media.indianluxurycars.com/google/9500445f8de323f82aa5a19d46749ba20d42b4d062b4b217ee2a4fd062c3d585.jpg",
    "url": "https://www.google.com/maps/search/?api=1&query=TELANGANA%20USED%20CAR%20SHOWROOM&query_place_id=ChIJ2zOrEjxFMzoRpdCJBn6JVDM"
  },
  {
    "title": "Tricity Car Rentals",
    "categoryName": "Car rental agency",
    "address": "33-6-130, Ramgopal Puram, Warangal, Telangana 506005, India",
    "neighborhood": "Ramgopal Puram",
    "street": "33-6-130",
    "city": "Warangal",
    "postalCode": "506005",
    "state": "Telangana",
    "countryCode": "IN",
    "website": "https://tricitycarrental.in/",
    "location": {
      "lat": 17.9392189,
      "lng": 79.6047922
    },
    "permanentlyClosed": false,
    "temporarilyClosed": false,
    "placeId": "ChIJtyx_q-0jiyURh30aR64TbMQ",
    "categories": [
      "Car rental agency"
    ],
    "imagesCount": 1,
    "openingHours": [
      {
        "day": "Monday",
        "hours": "Open 24 hours"
      },
      {
        "day": "Tuesday",
        "hours": "Open 24 hours"
      },
      {
        "day": "Wednesday",
        "hours": "Open 24 hours"
      },
      {
        "day": "Thursday",
        "hours": "Open 24 hours"
      },
      {
        "day": "Friday",
        "hours": "Open 24 hours"
      },
      {
        "day": "Saturday",
        "hours": "Open 24 hours"
      },
      {
        "day": "Sunday",
        "hours": "Open 24 hours"
      }
    ],
    "imageUrl": "https://media.indianluxurycars.com/google/571454cae8713e621ec53d57966a826ebf08c385a8adc12dc2f5a26ea2e89126.jpg",
    "url": "https://www.google.com/maps/search/?api=1&query=Tricity%20Car%20Rentals&query_place_id=ChIJtyx_q-0jiyURh30aR64TbMQ"
  },
  {
    "title": "Tricity Tours & Travels",
    "categoryName": "Car rental agency",
    "address": "11-23-1697, Ekashila Nagar Rd, Krishna Nagar, LB Nagar, Warangal, Telangana 506006, India",
    "neighborhood": "Krishna Nagar, LB Nagar",
    "street": "11-23-1697, Ekashila Nagar Rd",
    "city": "Warangal",
    "postalCode": "506006",
    "state": "Telangana",
    "countryCode": "IN",
    "website": "https://tricitytours.in/",
    "location": {
      "lat": 17.9908302,
      "lng": 79.60612
    },
    "totalScore": 5,
    "permanentlyClosed": false,
    "temporarilyClosed": false,
    "placeId": "ChIJDaCuVQBFMzoRX-vtVlB3AXI",
    "categories": [
      "Car rental agency"
    ],
    "reviewsCount": 7,
    "imagesCount": 7,
    "openingHours": [
      {
        "day": "Monday",
        "hours": "Open 24 hours"
      },
      {
        "day": "Tuesday",
        "hours": "Open 24 hours"
      },
      {
        "day": "Wednesday",
        "hours": "Open 24 hours"
      },
      {
        "day": "Thursday",
        "hours": "Open 24 hours"
      },
      {
        "day": "Friday",
        "hours": "Open 24 hours"
      },
      {
        "day": "Saturday",
        "hours": "Open 24 hours"
      },
      {
        "day": "Sunday",
        "hours": "Open 24 hours"
      }
    ],
    "imageUrl": "https://media.indianluxurycars.com/google/441819cedfe6937164ebe53a99cdecfc989b15541b5f0f876844a17af62dd380.jpg",
    "url": "https://www.google.com/maps/search/?api=1&query=Tricity%20Tours%20%26%20Travels&query_place_id=ChIJDaCuVQBFMzoRX-vtVlB3AXI"
  },
  {
    "title": "V DRIVE CARZ",
    "categoryName": "Car rental agency",
    "address": "DURGA DEVI COLONY, RD NO 5, Hunter Rd, opp. : TEJASWI PUBLIC SCHOOL, Warangal, Telangana 506001, India",
    "neighborhood": "Shyampet",
    "street": "DURGA DEVI COLONY, RD NO 5, Hunter Rd, opp. : TEJASWI PUBLIC SCHOOL",
    "city": "Warangal",
    "postalCode": "506001",
    "state": "Telangana",
    "countryCode": "IN",
    "website": "https://vdrivecarz.com/",
    "phone": "+919441926163",
    "phoneUnformatted": "+919441926163",
    "location": {
      "lat": 17.9807848,
      "lng": 79.57783
    },
    "totalScore": 5,
    "permanentlyClosed": false,
    "temporarilyClosed": false,
    "placeId": "ChIJd8TNdTpFMzoRZeILgZKBabk",
    "categories": [
      "Car rental agency"
    ],
    "reviewsCount": 1,
    "imagesCount": 18,
    "openingHours": [
      {
        "day": "Monday",
        "hours": "Open 24 hours"
      },
      {
        "day": "Tuesday",
        "hours": "Open 24 hours"
      },
      {
        "day": "Wednesday",
        "hours": "Open 24 hours"
      },
      {
        "day": "Thursday",
        "hours": "Open 24 hours"
      },
      {
        "day": "Friday",
        "hours": "Open 24 hours"
      },
      {
        "day": "Saturday",
        "hours": "Open 24 hours"
      },
      {
        "day": "Sunday",
        "hours": "Open 24 hours"
      }
    ],
    "imageUrl": "https://media.indianluxurycars.com/google/5f2cec4c2a5a8dc685c0659e6b28934619a239ca3099dfdc8f4f7cf3220cddcd.jpg",
    "url": "https://www.google.com/maps/search/?api=1&query=V%20DRIVE%20CARZ&query_place_id=ChIJd8TNdTpFMzoRZeILgZKBabk"
  },
  {
    "title": "Warangal Travels & CABS",
    "categoryName": "Car rental agency",
    "address": "1/A 16-3-770 Under bridge, railway, Station Rd, Warangal, Telangana 506002, India",
    "neighborhood": "Shiva Nagar",
    "street": "1/A 16-3-770 Under bridge, railway, Station Rd",
    "city": "Warangal",
    "postalCode": "506002",
    "state": "Telangana",
    "countryCode": "IN",
    "website": "https://www.warangaltravelsandcabs.com/",
    "phone": "+919908493313",
    "phoneUnformatted": "+919908493313",
    "location": {
      "lat": 17.9730736,
      "lng": 79.6010011
    },
    "totalScore": 4.9,
    "permanentlyClosed": false,
    "temporarilyClosed": false,
    "placeId": "ChIJ2euqwLJFMzoRP3HYPtIm21Y",
    "categories": [
      "Car rental agency",
      "Taxi service"
    ],
    "reviewsCount": 414,
    "imagesCount": 46,
    "openingHours": [
      {
        "day": "Monday",
        "hours": "Open 24 hours"
      },
      {
        "day": "Tuesday",
        "hours": "Open 24 hours"
      },
      {
        "day": "Wednesday",
        "hours": "Open 24 hours"
      },
      {
        "day": "Thursday",
        "hours": "Open 24 hours"
      },
      {
        "day": "Friday",
        "hours": "Open 24 hours"
      },
      {
        "day": "Saturday",
        "hours": "Open 24 hours"
      },
      {
        "day": "Sunday",
        "hours": "Open 24 hours"
      }
    ],
    "imageUrl": "https://media.indianluxurycars.com/google/28fa9304a5528b2e073cd8fcdf79700317f8b1280e6ab25a21b5add31d0bb015.jpg",
    "url": "https://www.google.com/maps/search/?api=1&query=Warangal%20Travels%20%26%20CABS&query_place_id=ChIJ2euqwLJFMzoRP3HYPtIm21Y"
  },
  {
    "title": "Warangal Travels Rental Cabs",
    "categoryName": "Car leasing service",
    "address": "16-4-647/B, H NO: Warangal railway station road, Under Bridge Rd, Warangal, Telangana 506002, India",
    "neighborhood": "Shiva Nagar",
    "street": "16-4-647/B, H NO: Warangal railway station road, Under Bridge Rd",
    "city": "Warangal",
    "postalCode": "506002",
    "state": "Telangana",
    "countryCode": "IN",
    "website": "https://warangaltravelcab.com/",
    "phone": "+919700493313",
    "phoneUnformatted": "+919700493313",
    "location": {
      "lat": 17.9730447,
      "lng": 79.6012696
    },
    "totalScore": 4.9,
    "permanentlyClosed": false,
    "temporarilyClosed": false,
    "placeId": "ChIJTdGiy6tFMzoRICNQgoMr8DA",
    "categories": [
      "Car leasing service",
      "Taxi service",
      "Travel agency"
    ],
    "reviewsCount": 352,
    "imagesCount": 46,
    "openingHours": [],
    "imageUrl": "https://media.indianluxurycars.com/google/a9eaa5c4acedc1578cd8c7ed01372ca66f92421721bdb6663988bf2a51793db5.jpg",
    "url": "https://www.google.com/maps/search/?api=1&query=Warangal%20Travels%20Rental%20Cabs&query_place_id=ChIJTdGiy6tFMzoRICNQgoMr8DA"
  }
]
